工廠名稱,工廠登記編號,工廠設立許可案號,工廠地址,工廠市鎮鄉村里,工廠負責人姓名,統一編號,工廠組織型態,工廠設立核准日期,工廠登記核准日期,工廠登記狀態,產業類別,主要產品,WebURL,ProductName,Material,Longitude,Latitude
台灣塑膠工業股份有限公司新港廠,99655042,07610000121932,嘉義縣新港鄉中洋村中洋工業區３號,嘉義縣新港鄉中洋村,施富義,75708007,股份有限公司,0760410,0800812,生產中,18化學原材料、肥料、氮化合物、塑橡膠原料及人造纖維製造業、22塑膠製品製造業,184塑膠及合成橡膠原料、220塑膠製品,http://www.fpg.com.tw,高吸水性樹脂、聚縮醛,,120.386116,23.51827
藝昌陶藝廠,99655118,08210010000171,嘉義縣新港鄉板頭村灣子內４２－３號,嘉義縣新港鄉板頭村,陳謝秋緞,78451254,獨資,0810312,0810312,生產中,23非金屬礦物製品製造業,232耐火、黏土建材及其他陶瓷製品,,陶瓷品,,120.31678,23.5703983
金緹股份有限公司,S1000091,,嘉義縣布袋鎮貴舍里10鄰半月97號,嘉義縣布袋鎮貴舍里,劉上慈,16702457,股份有限公司,,1090601,生產中,25金屬製品製造業,254金屬加工處理、259其他金屬製品,,,,,
同興農業有限公司嘉義廠,99675960,,嘉義縣大林鎮平林里中正路２３０巷２弄８０號,嘉義縣大林鎮平林里,邱炳烈,28016377,有限公司,,0950706,生產中,18化學原材料、肥料、氮化合物、塑橡膠原料及人造纖維製造業,183肥料及氮化合物,,肥料、營養劑加工,黃豆粉、尿素、菌種、糖,120.451965,23.5987282
佳螺實業股份有限公司朴子廠,99654901,08810000812299,嘉義縣朴子市竹村里朴子工業區橫一街4號,嘉義縣朴子市竹村里,李有國,66579501,股份有限公司,0881124,0881215,生產中,11紡織業、12成衣及服飾品製造業,115紡織品,,床罩、床單、棉被、絲毯,,120.279976,23.4793949
加瑞企業有限公司,99656081,08310010007406,嘉義縣太保市過溝里過溝２１號,嘉義縣太保市過溝里,李梅芬,84992757,有限公司,0831205,0831219,生產中,25金屬製品製造業、30汽車及其零件製造業、31其他運輸工具及其零件製造業,259其他金屬製品、303汽車零件、312機車及其零件,,汽機車零件，針車零件，五金零件，機械零件,,120.360214,23.4981155
冠賢機電股份有限公司民雄廠,99654789,08510010401948,嘉義縣民雄鄉北斗村成功二街３５號,嘉義縣民雄鄉北斗村,林建祥,84846045,股份有限公司,0850216,0851016,生產中,28電力設備及配備製造業,281發電、輸電及配電機械、283電線及配線器材,http://www.gwanhsian.com.tw/,自動控制設備、配電盤、鐵箱、白鐵箱,,120.458916,23.5252533
御醬生物科技廠,99655464,06410000052786,嘉義縣新港鄉古民村中正路３３６號,嘉義縣新港鄉古民村,何其峻,65534540,獨資,0580101,0640611,生產中,08食品製造業、09飲料製造業,089其他食品,,,,,
森懋木業有限公司,S1000089,,嘉義縣新港鄉潭大村潭子墘10號之50,嘉義縣新港鄉潭大村,籃朝聰,89822628,有限公司,,1090603,生產中,14木竹製品製造業、14木竹製品製造業,140木竹製品,,,,,
英濟股份有限公司民雄廠,10000444,,嘉義縣民雄鄉興南村工業三路6之4號,嘉義縣民雄鄉興南村,徐文麟,86362776,股份有限公司,,1090817,生產中,22塑膠製品製造業、25金屬製品製造業,220塑膠製品、251金屬刀具、手工具及模具,,,,,
百隆企業社一廠,10000359,,嘉義縣義竹鄉龍蛟村龍蛟潭79號,嘉義縣義竹鄉龍蛟村,陳麗純,09012148,獨資,,1080128,生產中,30汽車及其零件製造業、30汽車及其零件製造業,303汽車零件,,汽車零件,,120.222664,23.3733025
瑞泰工業社,S1000006,,嘉義縣水上鄉回歸村15鄰北回66之5號,嘉義縣水上鄉回歸村,林月嬌,06296493,獨資,,1090423,生產中,30汽車及其零件製造業、30汽車及其零件製造業、32家具製造業、33其他製造業,303汽車零件、321非金屬家具、331育樂用品,,,,,
晟業君鼎有限公司,10000324,,嘉義縣竹崎鄉白杞村4鄰36號,嘉義縣竹崎鄉白杞村,邱秀芳,24906201,有限公司,,1070705,生產中,09飲料製造業,091酒精飲料,,蒸餾酒,,120.600189,23.48962
榕懋實業股份有限公司,99676111,,嘉義縣民雄鄉興南村工業二路6、6-1、6-2號,嘉義縣民雄鄉興南村,黃啟宗,23519126,股份有限公司,,0990809,生產中,33其他製造業、32家具製造業,332醫療器材及用品、322金屬家具,http://www.apexcare.com.tw,醫療輔助器材、病床、病人搬運架,鋼鐵、不銹鋼、木板,120.433846,23.5222416
宇銓工業股份有限公司二廠,S1000010,,嘉義縣水上鄉柳鄉村柳仔林189-9號,嘉義縣水上鄉柳鄉村,黃永坤,23240283,股份有限公司,,1090425,生產中,28電力設備及配備製造業,289其他電力設備及配備,,,,,
亦祥企業有限公司,99655446,07010000145672,嘉義縣朴子市竹村里朴子工業區三街２號,嘉義縣朴子市竹村里,陳嘉雯,66641815,有限公司,0700717,0730528,生產中,29機械設備製造業,292其他專用機械設備,,播種機械,,120.247139,23.43955
永馳化學股份有限公司中正廠,99676033,,嘉義縣民雄鄉北斗村中正路４０之１號,嘉義縣民雄鄉北斗村,蘇育正,22748918,股份有限公司,,0970430,生產中,18化學原材料、肥料、氮化合物、塑橡膠原料及人造纖維製造業,184塑膠及合成橡膠原料,,ＰＵ樹脂－硬質．半軟．ＰＵ發泡原料．異氰酸鹽樹脂、多元醇,,120.4547,23.5196133
森泉企業股份有限公司民雄廠,99675734,,嘉義縣民雄鄉北斗村中興街１０號,嘉義縣民雄鄉北斗村,邱明琴,12633873,股份有限公司,,0911219,生產中,28電力設備及配備製造業,285家用電器,https://jinkon.com.tw/index.php?fn=about&no5=C,全自動溫熱開飲機、半自動冰溫熱開飲機、智慧型溫熱開飲機、開飲機濾心,,120.460518,23.5196247
嘉發鐵工廠,99656033,07510000267362,嘉義縣中埔鄉富收村22鄰富裕路437號,嘉義縣中埔鄉富收村,蕭信安,06257203,獨資,0750923,0750923,生產中,29機械設備製造業、25金屬製品製造業,293通用機械設備、253金屬容器,,鍋爐,,120.46936,23.4438
信實開發股份有限公司,S1000083,,嘉義縣溪口鄉柳溝村南靖厝80號,嘉義縣溪口鄉柳溝村,張加一,84507586,股份有限公司,,1090601,生產中,25金屬製品製造業,259其他金屬製品,,,,,
吉承冷凍科技工業有限公司,S1000011,,嘉義縣水上鄉大堀村大堀尾50-7號,嘉義縣水上鄉大堀村,謝政宏,80091093,有限公司,,1090425,生產中,29機械設備製造業,293通用機械設備,,,,,
東群興業股份有限公司,10000151,,嘉義縣民雄鄉北斗村新生街5號,嘉義縣民雄鄉北斗村,張三桂,27782323,股份有限公司,,1031027,生產中,08食品製造業,087動物飼品,,動物飼料,,120.459419,23.526432
旭順興業股份有限公司,99655596,07510000078992,嘉義縣水上鄉寬士村崎子頭２４之２１號,嘉義縣水上鄉寬士村,歐榮順,66605825,股份有限公司,0750411,0750411,生產中,22塑膠製品製造業,220塑膠製品,,泡綿,,120.428017,23.44765
宏進建材有限公司嘉義廠,10000138,,嘉義縣太保市過溝里嘉太工業區中興路2號,嘉義縣太保市過溝里,黃文賢,27816822,有限公司,,1030304,生產中,23非金屬礦物製品製造業,233水泥及其製品,,預拌混凝土,爐石粉、三分石、六分石、燃煤飛灰、卜特蘭水泥、一般建築用砂、燃煤底灰、土石、石灰,120.362511,23.5082474
福興印鐵製罐股份有限公司,99655073,08610010830740,嘉義縣民雄鄉福樂村中山路20號,嘉義縣民雄鄉福樂村,黃三福,65800573,股份有限公司,0860412,0870629,生產中,25金屬製品製造業、22塑膠製品製造業,253金屬容器、220塑膠製品,,金屬罐、塑膠容器,,120.450783,23.5246849
宏昇綠能股份有限公司中埔廠,99654969,06410000148834,嘉義縣中埔鄉隆興村廍後8之1號,嘉義縣中埔鄉隆興村,林曉君,24368131,股份有限公司,0580101,0650220,生產中,22塑膠製品製造業,220塑膠製品,,塑膠管、塑膠角材,,120.538826,23.4409447
新厝冷凍製冰廠,99675842,,嘉義縣布袋鎮新厝里14鄰新厝仔383之60號,嘉義縣布袋鎮新厝里,李怡亭,14768600,獨資,,0930505,生產中,33其他製造業,339未分類其他製品,,工業用、漁業用冰塊、其他工業製品,,120.173218,23.391077
壯興工業股份有限公司,99675560,07510000062965,嘉義縣水上鄉柳鄉村柳子林189之2號,嘉義縣水上鄉柳鄉村,黃桂花,22106169,股份有限公司,0750124,0750124,生產中,25金屬製品製造業,251金屬刀具、手工具及模具、259其他金屬製品,,搖板、剎車桿、仰度固定圓鐵、剎車齒座,,120.417862,23.4415188
群鈺科技有限公司,99675848,,嘉義縣溪口鄉疊溪村１３鄰三疊溪７６號,嘉義縣溪口鄉疊溪村,張永聖,27298588,有限公司,,0930616,生產中,28電力設備及配備製造業、29機械設備製造業,285家用電器、293通用機械設備,,家用電器、通風設備,,120.428719,23.58695
世川行企業有限公司,10000386,,嘉義縣中埔鄉和興村平實街85號,嘉義縣中埔鄉和興村,劉守仁,84365854,有限公司,,1081007,生產中,33其他製造業、33其他製造業,332醫療器材及用品,,其他塑膠及裝設品,,120.45507,23.44766
穎興化學工業有限公司,99655679,05810000001051,嘉義縣太保市南新里中山路一段３１３號,嘉義縣太保市南新里,涂南昌,66329814,有限公司,0580101,0581118,生產中,18化學原材料、肥料、氮化合物、塑橡膠原料及人造纖維製造業,181化學原材料,,氯化鈣,,120.377892,23.4981937
頂捷室內裝修興業股份有限公司,99655107,08010000329942,嘉義縣民雄鄉北斗村成功一街５６號,嘉義縣民雄鄉北斗村,黃敏靜,86334414,股份有限公司,0801220,0830422,生產中,32家具製造業,321非金屬家具、322金屬家具,,木器傢俱，金屬傢俱,,120.459961,23.5236015
安燦木業股份有限公司,99654930,05810000001858,嘉義縣民雄鄉山中村牛斗山５８號,嘉義縣民雄鄉山中村,李陳素蘭,65186562,股份有限公司,0580101,0720613,生產中,14木竹製品製造業,140木竹製品,,塑膠合板,,120.407265,23.5196285
程暘科技有限公司,10000302,,嘉義縣大林鎮過溪里9鄰大埔美園區五路北段6號,嘉義縣大林鎮過溪里,周淑美,80414262,有限公司,,1070327,生產中,29機械設備製造業,293通用機械設備,,金屬機械零件．機械設備,,120.521179,23.5977879
明興開發企業有限公司,S1000060,,嘉義縣民雄鄉文隆村鴨母坔47-19號,嘉義縣民雄鄉文隆村,何皓鈞,24855168,有限公司,,1090520,生產中,29機械設備製造業,293通用機械設備,,,,,
蚨茂動力有限公司,10000126,,嘉義縣民雄鄉興南村工業五路1-1號,嘉義縣民雄鄉興南村,陳俊欽,13079633,有限公司,,1020930,生產中,29機械設備製造業、30汽車及其零件製造業、31其他運輸工具及其零件製造業、33其他製造業,292其他專用機械設備、303汽車零件、312機車及其零件、319未分類其他運輸工具及其零件、339未分類其他製品,,沙灘車,,120.432991,23.51952
北維塑膠工廠,99655862,06810000143303,嘉義縣溪口鄉本厝村厝子３４之２號,嘉義縣溪口鄉本厝村,賴保全,66530563,獨資,0580101,0690913,生產中,22塑膠製品製造業,220塑膠製品,,塑膠管,,120.401909,23.5673046
大裕國際事業股份有限公司,99655946,05810000003940,嘉義縣六腳鄉蘇厝村蘇厝寮152號,嘉義縣六腳鄉蘇厝村,蔡爾杰,63610803,股份有限公司,0580101,0580101,生產中,08食品製造業,081肉類加工、082水產加工,,醃製肉品，肉干,,120.298424,23.5562439
世創實業股份有限公司,10000022,,嘉義縣東石鄉鰲鼓村9鄰鰲鼓1號,嘉義縣東石鄉鰲鼓村,蔡昇泓,28631963,股份有限公司,,1000426,生產中,33其他製造業、33其他製造業、17石油及煤製品製造業,339未分類其他製品、170石油及煤製品,,廢潤滑油、廢機油,,120.175125,23.4931355
偉成環保科技有限公司,10000071,,嘉義縣太保市過溝里嘉太工業區光復路6-1號,嘉義縣太保市過溝里,李素芳,24242226,有限公司,,1010424,生產中,18化學原材料、肥料、氮化合物、塑橡膠原料及人造纖維製造業,184塑膠及合成橡膠原料,,塑膠粒,,120.363441,23.5061073
榮發肥皂油脂工廠股份有限公司,10000438,,嘉義縣民雄鄉興南村工業二路10號,嘉義縣民雄鄉興南村,林義賢,66419934,股份有限公司,,1090714,生產中,22塑膠製品製造業,220塑膠製品,,,,,
鐿明實業有限公司,99655278,08310010008105,嘉義縣水上鄉水上村名人街１號,嘉義縣水上鄉水上村,謝來明,89702476,有限公司,0840104,0840217,生產中,29機械設備製造業、25金屬製品製造業,293通用機械設備,,五金零件加工,,120.398155,23.4212837
福穩實業股份有限公司嘉義廠,99655717,08410010005381,嘉義縣新港鄉月潭村月眉潭230-20附1號,嘉義縣新港鄉月潭村,葉家銘,22629363,股份有限公司,0840710,0840810,生產中,22塑膠製品製造業,220塑膠製品,,塑膠纖維編織布,,120.354622,23.52127
第讚企業有限公司中山一廠,10000119,,嘉義縣民雄鄉福樂村中山路13之1號,嘉義縣民雄鄉福樂村,邱三元,22961776,有限公司,,1020822,生產中,29機械設備製造業,292其他專用機械設備,http://www.pal-plas.com,邊封機、背心袋機、封切機、點斷機,,120.448845,23.5242672
金品不銹鋼建材行,99656198,08610010000215,嘉義縣民雄鄉福興村牛稠溪２９號,嘉義縣民雄鄉福興村,廖銘語,87986933,獨資,0860111,0860118,生產中,25金屬製品製造業,259其他金屬製品,,金屬建材,,120.423958,23.51001
久大紙器,S1000058,,嘉義縣民雄鄉興中村坔墘8號之2,嘉義縣民雄鄉興中村,鄭秀美,06328973,獨資,,1090520,生產中,15紙漿、紙及紙製品製造業,152瓦楞紙板及紙容器,,,,,
隆興工業社,99655769,06910000092664,嘉義縣水上鄉寬士村崎子頭28之88號,嘉義縣水上鄉寬士村,陳淑媛,66486187,獨資,0580101,0690719,生產中,25金屬製品製造業、29機械設備製造業,259其他金屬製品、293通用機械設備、292其他專用機械設備、251金屬刀具、手工具及模具,,家俱鋼管,,120.429146,23.44341
億峰企業社,99675576,08010010002637,嘉義縣水上鄉水上村三多街６號,嘉義縣水上鄉水上村,李阿燕,06329467,合夥,0801228,0810111,生產中,25金屬製品製造業,259其他金屬製品,,黑鐵心,,120.399323,23.4209557
台灣佳能股份有限公司嘉義一廠,10000079,,嘉義縣大林鎮大美里園區一路46號、48號、48號2樓,嘉義縣大林鎮大美里,"眞田 敬太",55336845,股份有限公司,,1010627,生產中,22塑膠製品製造業、25金屬製品製造業、26電子零組件製造業、27電腦、電子產品及光學製品製造業,220塑膠製品、251金屬刀具、手工具及模具、269其他電子零組件、277光學儀器及設備,http://twc.canon,數位相機、照相機鏡頭、相關零組件,,120.505936,23.5814228
鑫立重工股份有限公司,99655999,07710000171897,嘉義縣朴子市竹村里朴子工業區一街５號,嘉義縣朴子市竹村里,呂榮宗,22673846,股份有限公司,0770201,0770421,生產中,24基本金屬製造業,241鋼鐵,,鑄件,,120.248077,23.437
冠圓科技股份有限公司,99676026,,嘉義縣民雄鄉興南村３鄰工業三路１８號,嘉義縣民雄鄉興南村,戴明倫,28881568,股份有限公司,,0970307,生產中,33其他製造業、29機械設備製造業、32家具製造業,331育樂用品、293通用機械設備、322金屬家具,,室內運動健身器,,120.431076,23.524025
惠答工業有限公司民雄廠,99675948,,嘉義縣民雄鄉北斗村中興一街１２號,嘉義縣民雄鄉北斗村,劉清狄,34618545,有限公司,,0950427,生產中,21橡膠製品製造業、22塑膠製品製造業、25金屬製品製造業,210橡膠製品、220塑膠製品、251金屬刀具、手工具及模具,,汽車零件、金屬零件,,120.461082,23.5197277
優良食品工業有限公司,99655503,08610010830724,嘉義縣民雄鄉北斗村成功二街５８號,嘉義縣民雄鄉北斗村,黃祥原,96879012,有限公司,0860411,0860502,生產中,08食品製造業、09飲料製造業,089其他食品、092非酒精飲料,,膠原蛋白，羊乳片，維他命Ｃ片，維他命Ｂ群,,120.459846,23.5246544
裕元碾米工廠春珠場,10000100,,嘉義縣太保市梅埔里64-1號,嘉義縣太保市梅埔里,賴俊銘,67279236,獨資,,1020503,生產中,08食品製造業,086碾榖、磨粉及澱粉製品,,白米,,120.342712,23.4404
大盛雷射鋼管有限公司,10000449,,嘉義縣水上鄉下寮村鴿溪寮20之120號,嘉義縣水上鄉下寮村,張啟祥,83147894,有限公司,,1090914,生產中,25金屬製品製造業、25金屬製品製造業,254金屬加工處理、251金屬刀具、手工具及模具,,,,,
協力成油行,99655145,07510000284401,嘉義縣水上鄉粗溪村粗溪６５號,嘉義縣水上鄉粗溪村,黃家成,65276607,獨資,0751202,0751202,生產中,08食品製造業,084動植物油脂,,花生油，黑麻油，苦茶油,,120.399139,23.4335613
祐聖企業股份有限公司,99676050,,嘉義縣太保市過溝里嘉太工業區中興路２之２號,嘉義縣太保市過溝里,黃振亮,28097808,股份有限公司,,0970903,生產中,22塑膠製品製造業、25金屬製品製造業,220塑膠製品、253金屬容器、254金屬加工處理,,鐵桶、塑膠桶,,120.361481,23.5081768
信興木竹簾工藝社,99655258,07710010001096,嘉義縣朴子市大鄉里大槺榔２１２之２號,嘉義縣朴子市大鄉里,陳振國,66361927,獨資,0770606,0770623,生產中,14木竹製品製造業,140木竹製品,,木窗簾，竹窗簾,,120.261696,23.4593925
漢隆工業股份有限公司,99655036,07110000126728,嘉義縣水上鄉水上村中華路199巷23號,嘉義縣水上鄉水上村,林文村,66551601,股份有限公司,0710811,0721008,生產中,22塑膠製品製造業,220塑膠製品,,塑膠旅行箱，塑膠旅行袋，塑膠手,,120.401733,23.4260311
鑫溶實業股份有限公司,99655691,08010010322515,嘉義縣民雄鄉北斗村中正路２８號,嘉義縣民雄鄉北斗村,王秀溶,70615120,股份有限公司,0801028,0820325,生產中,08食品製造業,082水產加工,http://ashinrong.com.tw,其他冷凍水產食品,,120.456985,23.5200672
隆華螺絲工廠股份有限公司三廠,99676076,,嘉義縣朴子市竹村里11鄰朴子工業區一街10號、12號,嘉義縣朴子市竹村里,林燕宗,86553677,股份有限公司,,0980519,生產中,25金屬製品製造業,259其他金屬製品,,螺絲,,120.24942,23.4370041
竹聯實業股份有限公司,99655298,06410000041205,嘉義縣民雄鄉西安村菜園路４－１號,嘉義縣民雄鄉西安村,許嘉峯,84351417,股份有限公司,0580101,0640515,生產中,08食品製造業,089其他食品,,醬油,,120.426079,23.5563354
欣業企業股份有限公司三廠,99655190,07610000320751,嘉義縣竹崎鄉灣橋村朴子埔１８３號,嘉義縣竹崎鄉灣橋村,劉通霖,66274331,股份有限公司,0761127,0761127,生產中,32家具製造業、32家具製造業,322金屬家具,,鋼管傢俱（涼椅）半成品,,120.51313,23.4899979
英田實業股份有限公司,99675630,06210000008632,嘉義縣新港鄉菜公村菜公厝25號,嘉義縣新港鄉菜公村,蘇李淑貞,66273213,股份有限公司,0580101,0620310,生產中,14木竹製品製造業、22塑膠製品製造業,140木竹製品、220塑膠製品,,塑膠切菜板,,120.349152,23.5426044
政祺工業有限公司,99655332,07310000031455,嘉義縣民雄鄉福樂村建國路三段２之１號,嘉義縣民雄鄉福樂村,江曉喻,84877145,有限公司,0730319,0730507,生產中,29機械設備製造業、28電力設備及配備製造業,293通用機械設備、281發電、輸電及配電機械,,高低壓配電盤組裝、製造、修配,,120.440369,23.520668
鋐達自動噴霧有限公司竹崎廠,99675547,08410010005383,嘉義縣竹崎鄉灣橋村下厝坑31之5號,嘉義縣竹崎鄉灣橋村,林桂霞,86802660,有限公司,0840710,0840811,生產中,29機械設備製造業,292其他專用機械設備,,自動噴霧器,,120.518913,23.4879551
富貴生物科技股份有限公司,99676025,,嘉義縣民雄鄉興南村工業三路６之４號,嘉義縣民雄鄉興南村,陳芳武,28162259,股份有限公司,,0970222,生產中,08食品製造業,089其他食品,,酵素,,120.435242,23.5219154
東之味食品有限公司,10000111,,嘉義縣布袋鎮光復里22鄰光復路一段17巷12號,嘉義縣布袋鎮光復里,李家豪,24444617,有限公司,,1020624,生產中,08食品製造業、08食品製造業,089其他食品,,山葵粉,,120.168015,23.3761826
嘉俊鋼線有限公司灣內廠,10000146,,嘉義縣六腳鄉灣北村灣內198號,嘉義縣六腳鄉灣北村,蕭嘉美,23847866,有限公司,,1030801,生產中,25金屬製品製造業,259其他金屬製品,,其他金屬製品,,120.306831,23.5046444
億德玻璃股份有限公司,99655976,08510010408025,嘉義縣太保市過溝里嘉太工業區光復路２８－１號,嘉義縣太保市過溝里,蘇興宗,84363820,股份有限公司,0850824,0860508,生產中,23非金屬礦物製品製造業,231玻璃及其製品,,玻璃、加工（光邊、切割）,,120.357269,23.5060139
嘉鉞不銹鋼有限公司,99675835,,嘉義縣民雄鄉北斗村中正路50號,嘉義縣民雄鄉北斗村,吳振炎,12637272,有限公司,,0930420,生產中,25金屬製品製造業,252金屬結構及建築組件、253金屬容器,,天車、掛具、束套夾板、固定板,,120.452934,23.51907
南亞塑膠工業股份有限公司新港廠,99654717,07610000121933,嘉義縣新港鄉中洋村中洋工業區２號,嘉義縣新港鄉中洋村,江澤修,75370905,股份有限公司,0760410,0780918,生產中,18化學原材料、肥料、氮化合物、塑橡膠原料及人造纖維製造業、22塑膠製品製造業、23非金屬礦物製品製造業、25金屬製品製造業、26電子零組件製造業、28電力設備及配備製造業、29機械設備製造業,112織布、184塑膠及合成橡膠原料、220塑膠製品、231玻璃及其製品、251金屬刀具、手工具及模具、263印刷電路板、269其他電子零組件、281發電、輸電及配電機械、283電線及配線器材、289其他電力設備及配備、293通用機械設備,http://www.fpg.com.tw,硬布、工程塑膠,,120.372108,23.5133629
富迪塑膠有限公司水上二廠,99676107,,嘉義縣水上鄉水頭村中正路６９號,嘉義縣水上鄉水頭村,蔡堯禎,22486920,有限公司,,0990719,生產中,16印刷及資料儲存媒體複製業,160印刷及資料儲存媒體複製,http://www.fudi.com.tw,塑膠印刷、ＰＶＣ膜、ＰＥＴ膜、ＯＰＰ膜,塑膠、ＰＶＣ膜、ＰＥＴ膜、ＯＰＰ膜,120.401695,23.4278545
台灣道優股份有限公司,10000353,,嘉義縣民雄鄉興南村3鄰工業五路1-2號,嘉義縣民雄鄉興南村,蕭瑞源,56622536,股份有限公司,,1071221,生產中,19其他化學製品製造業,192塗料、染料及顏料,,路線塗料,,120.432838,23.5178089
總進木竹開發有限公司,99655897,08710010001191,嘉義縣朴子市永和里菜埔１１４－２８號,嘉義縣朴子市永和里,陳櫻菁,16366118,有限公司,0870227,0870309,生產中,14木竹製品製造業,140木竹製品,,木竹簾,,120.231392,23.4630966
鎮城工業有限公司,S1000056,,嘉義縣民雄鄉平和村双援1之4號,嘉義縣民雄鄉平和村,莊鎮城,16929187,有限公司,,1090520,生產中,30汽車及其零件製造業,302車體,,,,,
尚融實業有限公司,S1000115,,嘉義縣東石鄉洲仔村5鄰洲子123號附1,嘉義縣東石鄉洲仔村,莊喜皓,89724128,有限公司,,1090622,生產中,32家具製造業,322金屬家具,,,,,
東欣毅商行,99654885,08810010990031,嘉義縣東石鄉港墘村1鄰港墘94號,嘉義縣東石鄉港墘村,陳寶先,20192408,獨資,0880824,0880902,生產中,22塑膠製品製造業,220塑膠製品,,塑膠廢料加工粉碎,,120.2124,23.4616737
玉美香食品有限公司,99655171,08110010076741,嘉義縣梅山鄉梅北村工業一路２１號,嘉義縣梅山鄉梅北村,鍾松廷,84635914,有限公司,0811123,0821106,生產中,08食品製造業,083蔬果加工,,筍片，筍絲，脆筍,,120.538292,23.5911427
維德機械股份有限公司,99676064,,嘉義縣大林鎮明華里湖底１３８號,嘉義縣大林鎮明華里,余綢,24274508,股份有限公司,,0971224,生產中,29機械設備製造業,293通用機械設備,http://www.weidersealers.com,連續式封口機、包裝機械,,120.43821,23.5952969
慶祥齒輪股份有限公司大埔美廠,10000289,,嘉義縣大林鎮過溪里9鄰大埔美園區五路北段3號,嘉義縣大林鎮過溪里,顏英雄,22310084,股份有限公司,,1061212,生產中,29機械設備製造業,293通用機械設備,,齒輪,,120.522255,23.59769
世生實業有限公司二廠,S1000037,,嘉義縣東石鄉蔦松村湖底1-2號,嘉義縣東石鄉蔦松村,林政勳,84350233,有限公司,,1090508,生產中,14木竹製品製造業,140木竹製品,,,,,
明熀塑膠企業有限公司,10000313,,嘉義縣水上鄉水頭村中興路8巷94弄73號,嘉義縣水上鄉水頭村,黃鳳珠,84397997,有限公司,,1070514,生產中,22塑膠製品製造業,220塑膠製品,,辦公椅,,120.409546,23.43223
晉安製藥股份有限公司,99655669,06110000040803,嘉義縣民雄鄉福樂村建國路三段260巷9號,嘉義縣民雄鄉福樂村,吳友信,65607901,股份有限公司,0580101,0640510,生產中,20藥品及醫用化學製品製造業、08食品製造業、09飲料製造業,089其他食品、200藥品及醫用化學製品、092非酒精飲料,,濃縮中藥,,120.440163,23.5269318
谷全實業有限公司三廠,S1000142,,嘉義縣溪口鄉柳溝村6鄰柳子溝2之33號,嘉義縣溪口鄉柳溝村,吳敏宏,24362066,有限公司,,1090810,生產中,08食品製造業,086碾榖、磨粉及澱粉製品,,,,,
台灣食研食品股份有限公司,10000440,,嘉義縣鹿草鄉豐稠村馬稠後園區一路12號,嘉義縣鹿草鄉豐稠村,"京 賢太郎",28861367,股份有限公司,,1090717,生產中,08食品製造業,089其他食品,,,,,
富順企業社,10000442,,嘉義縣水上鄉三和村1號,嘉義縣水上鄉三和村,周晋毅,81955764,獨資,,1090727,生產中,25金屬製品製造業、25金屬製品製造業、29機械設備製造業,251金屬刀具、手工具及模具、259其他金屬製品、293通用機械設備,,,,,
道宗粉碎加工廠,99655415,06710000201629,嘉義縣六腳鄉溪厝村溪墘厝２５之５號,嘉義縣六腳鄉溪厝村,柳宏仁,66358943,獨資,0580101,0690416,生產中,08食品製造業,086碾榖、磨粉及澱粉製品,,玉米粉，黃豆粉,,120.2764,23.49485
野村生技有限公司水上廠,10000130,,嘉義縣水上鄉水頭村中正路33巷7號1樓,嘉義縣水上鄉水頭村,謝玉土,28351961,有限公司,,1021118,生產中,08食品製造業,083蔬果加工,,咖啡豆、咖啡粉,,120.403549,23.4276886
騰峰精密機械有限公司,10000154,,嘉義縣太保市舊埤里20鄰新埤7-36號,嘉義縣太保市舊埤里,張秋林,24363071,有限公司,,1031111,生產中,29機械設備製造業,292其他專用機械設備,http://www.tf818.com.tw/,其他專用機械設備,,120.333878,23.4920044
鎰鎂興業有限公司,10000410,,嘉義縣民雄鄉興南村工業一路9號,嘉義縣民雄鄉興南村,陳文琇,28506418,有限公司,,1090203,生產中,25金屬製品製造業,254金屬加工處理,,,,,
獨一社釀造股份有限公司,10000158,,嘉義縣水上鄉中庄村中庄61之109號,嘉義縣水上鄉中庄村,張光杰,84822775,有限公司,,1031212,生產中,08食品製造業、09飲料製造業,089其他食品、092非酒精飲料,,其他食品，非酒精飲料,,120.435783,23.4210186
丸新嘉義澱粉工廠,99656065,06010000088073,嘉義縣中埔鄉和興村中山路五段９０５號,嘉義縣中埔鄉和興村,楊茂坤,65044109,合夥,0580101,0610229,生產中,08食品製造業,086碾榖、磨粉及澱粉製品,,樹薯澱粉，甘薯澱粉，太白粉,樹薯、甘薯,120.46032,23.4526978
廣嘉紙業有限公司嘉義廠,99676018,,嘉義縣水上鄉南和村南靖106號,嘉義縣水上鄉南和村,李安栗,86811909,有限公司,,0961218,生產中,15紙漿、紙及紙製品製造業,152瓦楞紙板及紙容器,,紙箱、紙盒,,120.374245,23.4199028
正隆股份有限公司大林廠,99654907,05910000080216,嘉義縣大林鎮三和里林子頭20號,嘉義縣大林鎮三和里,蕭吉河,33085508,股份有限公司,0580101,0661229,生產中,15紙漿、紙及紙製品製造業,152瓦楞紙板及紙容器,,瓦楞紙箱，瓦楞紙板，白裱面瓦楞,,120.489052,23.6024761
友良高科技紡織股份有限公司二廠,99655954,08510010403981,嘉義縣太保市過溝里嘉太工業區光復路２號,嘉義縣太保市過溝里,蕭登波,79838241,股份有限公司,0850502,0850618,生產中,11紡織業,112織布,,尼龍布，特多龍布,尼龍絲、特多龍絲,120.364441,23.505991
仕明燙金機械有限公司,99655768,07410010000813,嘉義縣水上鄉寬士村崎子頭２２之１７１號,嘉義縣水上鄉寬士村,賴邱美雲,34638036,有限公司,0740613,0740620,生產中,29機械設備製造業、25金屬製品製造業,293通用機械設備、251金屬刀具、手工具及模具,,燙金機、切箔機、油壓燙金機,,120.42926,23.4472885
宜昌食品有限公司,10000317,,嘉義縣民雄鄉秀林村溪底寮1-1號,嘉義縣民雄鄉秀林村,謝鳳珠,55981652,有限公司,,1070529,生產中,08食品製造業,089其他食品,,包子、饅頭,,120.468826,23.5079479
宜達鐵材有限公司,S1000125,,嘉義縣朴子市竹村里鴨母寮14-18號,嘉義縣朴子市竹村里,黃智隆,89726596,有限公司,,1090629,生產中,25金屬製品製造業,252金屬結構及建築組件,,,,,
億承興業股份有限公司,99655346,07210000051061,嘉義縣竹崎鄉灣橋村石麻園４１號,嘉義縣竹崎鄉灣橋村,陳枝傳,66592883,股份有限公司,0580101,0720504,生產中,22塑膠製品製造業,220塑膠製品,,聚酯粒、ＰＶＣ粒,,120.510452,23.4890232
晉吉股份有限公司,99655027,07810010001445,嘉義縣民雄鄉雙福村建國路二段１１２號之１,嘉義縣民雄鄉雙福村,陳韋孝,23489235,股份有限公司,0780927,0781009,生產中,22塑膠製品製造業,220塑膠製品,,紡織品轉印膜、裝飾用薄膜貼合、燙印膜、轉寫膜、裁剪加工,,120.4372,23.5349884
欣業企業股份有限公司伍廠,99655191,06510000195419,嘉義縣竹崎鄉灣橋村朴子埔１７９號,嘉義縣竹崎鄉灣橋村,劉通霖,66274331,股份有限公司,0580101,0660129,生產中,32家具製造業、28電力設備及配備製造業,321非金屬家具,,戶外休閒椅、室內傢俱,,120.512718,23.4899
達洋實業股份有限公司大林廠,99656089,08610010005565,嘉義縣大林鎮明華里明華路１７７－８號,嘉義縣大林鎮明華里,曾昆玉,23829781,股份有限公司,0860813,0861111,生產中,11紡織業、12成衣及服飾品製造業,115紡織品,,帆布製品，桌巾，桌墊，床單，床罩,帆布、線布,120.447624,23.6015282
莊家錦泰昌食品有限公司,99675653,07610000193532,嘉義縣太保市南新里北港路二段１０５巷３３號,嘉義縣太保市南新里,莊榮讚,89788086,有限公司,0760508,0771021,生產中,08食品製造業,089其他食品,,餅乾、糖果（沙其馬、煎餅）,,120.380104,23.4955235
加隆電子有限公司,99656080,08510010004115,嘉義縣太保市南新里北港路二段１０５巷３６號,嘉義縣太保市南新里,游坤加,89822492,有限公司,0850702,0850820,生產中,27電腦、電子產品及光學製品製造業,272通訊傳播設備、273視聽電子產品,,無線麥克風、遙控器,,120.3799,23.49515
易利隆鋼鐵有限公司二廠,S1000086,,嘉義縣東石鄉港墘村港墘60-13號,嘉義縣東石鄉港墘村,李吳嬌蓮,89732020,有限公司,,1090603,生產中,25金屬製品製造業,252金屬結構及建築組件,,,,,
嘉義機械廠股份有限公司嘉義廠,99655903,06410000022367,嘉義縣民雄鄉興南村頭橋工業區工業一路9號,嘉義縣民雄鄉興南村,林憲揚,13195582,股份有限公司,0580101,0660523,生產中,29機械設備製造業,291金屬加工用機械設備、292其他專用機械設備、293通用機械設備,,沖壓製品,,120.431587,23.5185223
其樂企業股份有限公司,99675542,08110010000747,嘉義縣溪口鄉本厝村厝子３９號,嘉義縣溪口鄉本厝村,曹金傳,86530443,股份有限公司,0810424,0810707,生產中,11紡織業、12成衣及服飾品製造業、13皮革、毛皮及其製品製造業、33其他製造業,115紡織品、121成衣、130皮革、毛皮及其製品、339未分類其他製品,,皮包、成衣,,120.401062,23.5669842
旺得富紙業有限公司嘉義廠,10000026,,嘉義縣義竹鄉龍蛟村15鄰義工二路5號、5號之1,嘉義縣義竹鄉龍蛟村,蔡依英,53382800,有限公司,,1000627,生產中,15紙漿、紙及紙製品製造業,159其他紙製品,,其他紙製品,,120.222824,23.3592529
鑫隆發實業股份有限公司,99655649,06810000108497,嘉義縣六腳鄉蘇厝村蘇厝寮８３號,嘉義縣六腳鄉蘇厝村,蘇吳錦雲,89893101,股份有限公司,0580101,0700506,生產中,08食品製造業,083蔬果加工、084動植物油脂、086碾榖、磨粉及澱粉製品,,花生仁、花生油，麻油,,120.2997,23.5582638
申成興業股份有限公司,99655273,07310000241165,嘉義縣太保市過溝里嘉太工業區光復路１１號,嘉義縣太保市過溝里,郭榮欽,66654775,股份有限公司,0730827,0740422,生產中,24基本金屬製造業,241鋼鐵,,黑鐵線,盤元,120.360207,23.50632
合成碾米工廠,99655988,05810000012918,嘉義縣布袋鎮江山里崩山１０９號,嘉義縣布袋鎮江山里,翁陳素惠,67083303,獨資,0580101,0611115,生產中,08食品製造業、09飲料製造業,084動植物油脂、086碾榖、磨粉及澱粉製品、089其他食品,,,,,
國產建材實業股份有限公司嘉太廠,99654772,08910010900297,嘉義縣太保市南新里北港路二段91號,嘉義縣太保市南新里,陳以益,24060203,股份有限公司,0890929,0891020,生產中,23非金屬礦物製品製造業,233水泥及其製品,,預拌混凝土製造,,120.380585,23.4961643
永大醇酒莊,99675809,,嘉義縣大林鎮平林里八鄰中正路230巷一弄九號,嘉義縣大林鎮平林里,陳毅澤,14763703,獨資,,0921216,生產中,09飲料製造業,091酒精飲料,,蒸餾酒,,120.450325,23.5983238
豐益農業科技股份有限公司,10000181,,嘉義縣大林鎮三村里湖子5之1、5之2號,嘉義縣大林鎮三村里,李麗裕,24952984,股份有限公司,,1040831,生產中,08食品製造業,086碾榖、磨粉及澱粉製品,http://www.lemidirice.com.tw/,白米,新鮮溼稻穀,120.47036,23.6172485
唐聚企業股份有限公司,99654921,08010000084293,嘉義縣民雄鄉北斗村成功街５０號,嘉義縣民雄鄉北斗村,林永鴻,22403793,股份有限公司,0801204,0820527,生產中,15紙漿、紙及紙製品製造業、22塑膠製品製造業,152瓦楞紙板及紙容器、220塑膠製品,,ＡＢＳ塑膠管及其配件,ＡＢＳ塑膠粒,120.459885,23.5220928
佑螢股份有限公司箱雄廠,10000039,,嘉義縣民雄鄉北斗村中正路47-2號,嘉義縣民雄鄉北斗村,吳學明,16062276,股份有限公司,,1000815,生產中,15紙漿、紙及紙製品製造業,152瓦楞紙板及紙容器、159其他紙製品,http://yuyin.com.tw/,瓦楞紙箱，紙板,,120.453392,23.5191936
鈜景食品企業股份有限公司嘉義分公司,10000121,,嘉義縣朴子市大鄉里1113號,嘉義縣朴子市大鄉里,楊晴如,54325602,本國公司之分公司,,1020826,生產中,08食品製造業,081肉類加工,,牛肉,牛肉屠體,120.259781,23.46527
隆華研究開發有限公司,99654891,08710010905280,嘉義縣朴子市竹村里朴子工業區一街１１號,嘉義縣朴子市竹村里,沈麗雪,80429700,有限公司,0870615,0870630,生產中,25金屬製品製造業,259其他金屬製品,,螺絲加工,,120.24897,23.43711
南臣塑膠工業股份有限公司,99654820,06310000167289,嘉義縣中埔鄉和美村中山路五段３４８號,嘉義縣中埔鄉和美村,陳世弘,66431064,股份有限公司,0580101,0640103,生產中,22塑膠製品製造業,220塑膠製品,,塑膠製品,,120.472961,23.4516983
泰賓企業社,S1000107,,嘉義縣六腳鄉塗師村3鄰大塗師68-2號,嘉義縣六腳鄉塗師村,陳秀美,06361114,合夥,,1090615,生產中,23非金屬礦物製品製造業、23非金屬礦物製品製造業、24基本金屬製造業,239其他非金屬礦物製品、249其他基本金屬,,,,,
富港機械有限公司民雄廠,10000001,,嘉義縣民雄鄉西昌村竹子腳48-6號一樓,嘉義縣民雄鄉西昌村,林錦藝,24298179,有限公司,,0991005,生產中,29機械設備製造業,293通用機械設備,,通用機械設備、集塵機、過濾器,,120.378555,23.5453148
易利隆鋼鐵有限公司一廠,99675974,,嘉義縣東石鄉港墘村港墘６０－１３號,嘉義縣東石鄉港墘村,李吳嬌蓮,89732020,有限公司,,0950918,生產中,24基本金屬製造業,241鋼鐵,,,,,
嘉塑興業股份有限公司,99676113,,嘉義縣竹崎鄉灣橋村朴子埔185號,嘉義縣竹崎鄉灣橋村,詹景雯,28528911,股份有限公司,,0990827,生產中,22塑膠製品製造業,220塑膠製品,,ＰＶＣ素材押出製品加工,,120.515182,23.490324
享榮塑膠有限公司忠和廠,S1000040,,嘉義縣水上鄉忠和村石仔缸9之2號附2附3,嘉義縣水上鄉忠和村,盧富雄,66515752,有限公司,,1090509,生產中,22塑膠製品製造業,220塑膠製品,,,,,
三芳企業股份有限公司,99654781,06110000041103,嘉義縣水上鄉粗溪村粗溪６７號,嘉義縣水上鄉粗溪村,蕭布侯,65010163,股份有限公司,0580101,0610801,生產中,11紡織業,115紡織品,,草蓆,,120.400307,23.4351425
慶生堂化粧品股份有限公司,10000072,,嘉義縣水上鄉水上村嘉朴路139號,嘉義縣水上鄉水上村,陳玉青,84551371,股份有限公司,,1010424,生產中,19其他化學製品製造業,194化粧品,,其他化妝品製造,,120.390022,23.436058
天檀實業股份有限公司,99675755,,嘉義縣水上鄉下寮村中山路二段741號,嘉義縣水上鄉下寮村,賴先進,70618478,股份有限公司,,0920324,生產中,29機械設備製造業、25金屬製品製造業,293通用機械設備、251金屬刀具、手工具及模具,,,,,
嘉義縣太保市農會新埤分部,99655703,07010000251920,嘉義縣太保市舊埤里一鄰6號,嘉義縣太保市舊埤里,莊榮欽,67027909,農會組織,0701207,0710105,生產中,08食品製造業,086碾榖、磨粉及澱粉製品,,,,,
鴻泰絕緣材料股份有限公司嘉義廠,99655119,08010010001971,嘉義縣新港鄉菜公村咬仔竹８５號,嘉義縣新港鄉菜公村,鄭汀舟,36265383,股份有限公司,0800930,0801108,生產中,29機械設備製造業、26電子零組件製造業、28電力設備及配備製造業,292其他專用機械設備、263印刷電路板、289其他電力設備及配備,,電木板，絕緣紙,,120.349983,23.5467472
立詣股份有限公司,99655285,07710010282739,嘉義縣民雄鄉北斗村中正路５２號,嘉義縣民雄鄉北斗村,許榮森,23585602,有限公司,0771110,0820722,生產中,32家具製造業、28電力設備及配備製造業,322金屬家具、285家用電器,,食品及飼品買賣,,120.452492,23.5189056
王牌木業股份有限公司,99675663,06710000041856,嘉義縣大林鎮三和里林子頭１之１號,嘉義縣大林鎮三和里,李弘毅,66456450,股份有限公司,0580101,0670410,生產中,33其他製造業,331育樂用品,,,,,
鴻如實業有限公司,S1000038,,嘉義縣新港鄉南港村1鄰南港1號之8,嘉義縣新港鄉南港村,楊正忠,23227459,有限公司,,1090508,生產中,25金屬製品製造業、25金屬製品製造業,259其他金屬製品,,,,,
蒜頭糖廠職工福利委員會(大林廠),99675790,,嘉義縣大林鎮大糖里399號,嘉義縣大林鎮大糖里,鄭進昌,67399507,其他,,0920815,生產中,08食品製造業,089其他食品,,,,,
信堅精工股份有限公司,10000210,,嘉義縣水上鄉中華路199巷31號,嘉義縣水上鄉,簡肇良,22118307,股份有限公司,,1050426,生產中,24基本金屬製造業,249其他基本金屬、241鋼鐵,,不銹鋼軟管汽車排氣管,,120.40284,23.4261436
啟坤科技股份有限公司,99655783,07510000267583,嘉義縣民雄鄉興南村工業一路３號,嘉義縣民雄鄉興南村,莊宇龍,04465819,股份有限公司,0750916,0780907,生產中,24基本金屬製造業、25金屬製品製造業、30汽車及其零件製造業、31其他運輸工具及其零件製造業、33其他製造業,249其他基本金屬、252金屬結構及建築組件、303汽車零件、312機車及其零件、313自行車及其零件、331育樂用品,,高爾夫球中管,,120.435242,23.5190582
佳凌科技股份有限公司嘉義大埔美廠,10000091,,嘉義縣大林鎮大美里大埔美園區三路27號,嘉義縣大林鎮大美里,劉嘉彬,70848492,股份有限公司,,1020226,生產中,22塑膠製品製造業、25金屬製品製造業、27電腦、電子產品及光學製品製造業,220塑膠製品、251金屬刀具、手工具及模具、277光學儀器及設備,http://www.calin.com.tw/,玻璃加工、塑膠製品、組裝,,120.509705,23.5899448
南亞塑膠工業股份有限公司嘉義廠,99654718,06810000120651,嘉義縣太保市南新里北港路二段201號,嘉義縣太保市南新里,丁誌儀,75370905,股份有限公司,0680101,0690620,生產中,22塑膠製品製造業、23非金屬礦物製品製造業、25金屬製品製造業,220塑膠製品、232耐火、黏土建材及其他陶瓷製品、239其他非金屬礦物製品、251金屬刀具、手工具及模具,,塑膠加工製品、ＢＯＰＰ延伸膜、硬面板、硬管等,,120.377396,23.49719
新聯豐碾米工廠二廠,99675941,,嘉義縣大林鎮義和里４鄰中興路２段７９１巷１５號,嘉義縣大林鎮義和里,劉威廷,65790604,獨資,,0950321,生產中,08食品製造業、09飲料製造業,084動植物油脂、086碾榖、磨粉及澱粉製品、089其他食品,,烘乾稻穀：存放稻穀：白米：糙米,,120.481636,23.6094341
恩德發有限公司,10000099,,嘉義縣民雄鄉北斗村中正路43號,嘉義縣民雄鄉北斗村,蔡秀眞,27626273,有限公司,,1020422,生產中,08食品製造業,089其他食品,,沙拉醬,,120.45163,23.5182438
嘉億玻璃企業有限公司,99655555,06910000181035,嘉義縣太保市過溝里嘉太工業區嘉太路５號,嘉義縣太保市過溝里,朱漢洋,66487284,有限公司,0580101,0690909,生產中,23非金屬礦物製品製造業、11紡織業,231玻璃及其製品、112織布,,安全玻璃、強化玻璃、磨邊玻璃,,120.361916,23.5068378
發得科技工業股份有限公司,99655103,08010010323476,嘉義縣民雄鄉福樂村中山路２６號,嘉義縣民雄鄉福樂村,莊宇龍,23985213,股份有限公司,0820323,0840203,生產中,29機械設備製造業,291金屬加工用機械設備、292其他專用機械設備,http://www.femco.com.tw,ＣＮＣ車組立裝配、搪銑床,,120.452309,23.5259418
建鑫機電行有限公司,99654795,07910000338927,嘉義縣民雄鄉福樂村成功５街９之１號,嘉義縣民雄鄉福樂村,侯瓔文,27789281,有限公司,0791211,0800611,生產中,28電力設備及配備製造業,281發電、輸電及配電機械,,高低壓電盤,,120.44986,23.5230885
英聖企業有限公司,10000334,,嘉義縣竹崎鄉義仁村2鄰下寮仔21號,嘉義縣竹崎鄉義仁村,李易蒼,42792911,有限公司,,1070914,生產中,16印刷及資料儲存媒體複製業,160印刷及資料儲存媒體複製,http://www.0905289669.com/,交通標誌,,120.510368,23.4984169
耀晟石材有限公司,10000332,,嘉義縣民雄鄉寮頂村1鄰頂寮65之7號,嘉義縣民雄鄉寮頂村,范健銘,45142428,有限公司,,1070917,生產中,23非金屬礦物製品製造業,234石材製品,,石材加工,,120.425476,23.5712051
鑫立鑄造廠有限公司,10000028,,嘉義縣朴子市竹村里朴子工業區二街7號、9號,嘉義縣朴子市竹村里,陳榮雄,53305558,有限公司,,1000624,生產中,24基本金屬製造業、29機械設備製造業、30汽車及其零件製造業,241鋼鐵、293通用機械設備、303汽車零件,,剎車鼓、輪殼、飛輪、轉子、泵浦,,120.248146,23.4382553
利品工業有限公司,S1000057,,嘉義縣民雄鄉福興村牛稠溪1之47號,嘉義縣民雄鄉福興村,江苾芬,53498458,有限公司,,1090520,生產中,25金屬製品製造業,254金屬加工處理,,,,,
鼎坤食品有限公司,10000073,,嘉義縣民雄鄉北斗村成功二街18號,嘉義縣民雄鄉北斗村,洪肇華,16514671,有限公司,,1010514,生產中,08食品製造業,086碾榖、磨粉及澱粉製品、089其他食品、083蔬果加工,,麵粉、洋菜、牛乳、起士、雞蛋、蜂蜜、砂糖、豆瓣,,120.454147,23.5233917
嘉鉞不銹鋼有限公司二廠,10000033,,嘉義縣民雄鄉福樂村中山路22號,嘉義縣民雄鄉福樂村,吳振炎,12637272,有限公司,,1000801,生產中,25金屬製品製造業,252金屬結構及建築組件、253金屬容器,,不銹鋼板、不銹鋼管、原管、方管,,120.451736,23.5256824
宏銘油脂股份有限公司,10000167,,嘉義縣太保市過溝里嘉太工業區嘉太路7號,嘉義縣太保市過溝里,蔡銘仁,54773208,有限公司,,1040130,生產中,18化學原材料、肥料、氮化合物、塑橡膠原料及人造纖維製造業,181化學原材料,,高酸油,,120.358742,23.5064144
仁友企業股份有限公司,99655276,07310010001328,嘉義縣水上鄉忠和村紅毛寮10號,嘉義縣水上鄉忠和村,林祐正,22921310,股份有限公司,0730917,0750621,生產中,14木竹製品製造業,140木竹製品,,合板、木心板,,120.430626,23.4123631
冠富國際有限公司,10000249,,嘉義縣義竹鄉頭竹村79號,嘉義縣義竹鄉頭竹村,查金玉,42570621,有限公司,,1060328,生產中,08食品製造業、09飲料製造業,089其他食品、092非酒精飲料,,黑糖．咖啡,,120.232185,23.33174
三鉢紙業有限公司,99655286,06610000050181,嘉義縣民雄鄉大崎村１４甲４２號,嘉義縣民雄鄉大崎村,顏俊汀,66647037,有限公司,0580101,0680731,生產中,15紙漿、紙及紙製品製造業,159其他紙製品,,粗紙、包裝紙,,120.461685,23.50579
臺禹科機股份有限公司嘉義廠,99675832,,嘉義縣民雄鄉北斗村２６鄰中正路２９號,嘉義縣民雄鄉北斗村,吳宗學,23958525,股份有限公司,,0930408,生產中,29機械設備製造業、19其他化學製品製造業,293通用機械設備、199未分類其他化學製品,http://www.ipi-tbc.com.tw,廢氣處理機、專用生產機械,不銹鋼板、加熱器、人機氣動閥,120.454384,23.5184116
乾佑工業股份有限公司,99655937,06210000081075,嘉義縣民雄鄉興南村工業三路１３號,嘉義縣民雄鄉興南村,李張瓊文,66376800,股份有限公司,0580101,0640603,生產中,25金屬製品製造業、29機械設備製造業、30汽車及其零件製造業、31其他運輸工具及其零件製造業,252金屬結構及建築組件、253金屬容器、293通用機械設備、292其他專用機械設備、291金屬加工用機械設備、259其他金屬製品、301汽車、302車體、303汽車零件、319未分類其他運輸工具及其零件、311船舶及浮動設施,,油壓機械、拖車（不含曳引機）,,120.430229,23.5231724
慶駿電機有限公司,99655418,08910010900015,嘉義縣太保市南新里１５鄰北港路二段１０５巷１８弄７號,嘉義縣太保市南新里,許義鴻,70638144,有限公司,0890117,0890126,生產中,26電子零組件製造業,269其他電子零組件,,電玩機具、馬達、數幣機,,120.3798,23.4958134
竇氏室內裝修實業股份有限公司,99655104,07710000175311,嘉義縣民雄鄉北斗村民雄工業區成功一街４９號,嘉義縣民雄鄉北斗村,竇劉秀珠,69517425,股份有限公司,0770319,0770326,生產中,25金屬製品製造業、32家具製造業、29機械設備製造業、14木竹製品製造業,251金屬刀具、手工具及模具、321非金屬家具、322金屬家具、291金屬加工用機械設備、140木竹製品,,金屬傢俱（櫃，床，桌椅），不銹流理臺,,120.4599,23.5241146
美源物產加工廠,99675860,07710000180813,嘉義縣中埔鄉和睦村司公３之２號,嘉義縣中埔鄉和睦村,陳炳源,06302220,股份有限公司,0770120,0770120,生產中,08食品製造業、08食品製造業,089其他食品,,其他食品、筍乾,,120.481522,23.4552784
金昌塑膠機械有限公司,99654734,08910010900302,嘉義縣民雄鄉福樂村14鄰建國路三段260巷39號,嘉義縣民雄鄉福樂村,羅茂年,86550708,有限公司,0891009,0901017,生產中,29機械設備製造業、25金屬製品製造業,292其他專用機械設備,,製袋機（封口機）,,120.441132,23.5289974
舜盟工業股份有限公司,99655645,08310010002898,嘉義縣中埔鄉金蘭村24-1號、24-37號,嘉義縣中埔鄉金蘭村,邱增雄,84779159,股份有限公司,0830519,0830526,生產中,22塑膠製品製造業,220塑膠製品,,塑膠管、接頭、另件,ＰＶＣ粉、ＰＶＣ粒,120.505,23.4442711
廣懋食品工廠有限公司,10000085,,嘉義縣太保市南新里北港路2段105巷18弄12號,嘉義縣太保市南新里,張維兼,53974277,有限公司,,1011017,生產中,08食品製造業,089其他食品,,烘焙炊蒸食品製造（涼圓）,,120.379448,23.4958572
三億食品原料有限公司,99656031,,嘉義縣大林鎮平林里中正路２３０巷１弄８０號,嘉義縣大林鎮平林里,何崑池,37509008,有限公司,,0910305,生產中,08食品製造業,089其他食品,,調味品,,120.451714,23.5990181
川吉食品有限公司,10000084,,嘉義縣太保市南新里中興路二段76號1樓,嘉義縣太保市南新里,盧田,53297500,有限公司,,1010906,生產中,08食品製造業,089其他食品,,冷凍生蔥抓餅,,120.381622,23.4937439
余順豐農產加工廠,99656086,07510000132821,嘉義縣東石鄉蔦松村湖底２０之２８號,嘉義縣東石鄉蔦松村,余仁聖,06334551,獨資,0750609,0750609,生產中,08食品製造業,086碾榖、磨粉及澱粉製品,,花生仁、芝、仁,,120.220749,23.4677525
大華工業社,10000457,,嘉義縣民雄鄉福樂村建國路三段260巷25-1號,嘉義縣民雄鄉福樂村,呂鴻銘,17157259,獨資,,1090923,生產中,25金屬製品製造業,252金屬結構及建築組件,,,,,
振誠塑膠有限公司,10000136,,嘉義縣民雄鄉西昌村3鄰竹子腳路40之7號,嘉義縣民雄鄉西昌村,林宗成,96901859,有限公司,,1021227,生產中,22塑膠製品製造業,220塑膠製品,,塑膠日用品製造業（塑膠袋）,,120.379074,23.5462589
蘇菲亞床業股份有限公司,99655585,07510000204876,嘉義縣太保市新埤里新埤３１８號,嘉義縣太保市新埤里,蘇貴蘭,80641301,股份有限公司,0750717,0750717,生產中,32家具製造業,322金屬家具,,彈簧床,,120.336372,23.4815483
任建企業股份有限公司,99655299,06810000050452,嘉義縣民雄鄉大崎村頂埤仔１之１號,嘉義縣民雄鄉大崎村,林明德,66451954,股份有限公司,0580101,0681122,生產中,23非金屬礦物製品製造業,233水泥及其製品,,預拌混凝土,,120.484413,23.5237522
安欣機械股份有限公司,10000377,,嘉義縣大林鎮中坑里大埔美園區十二路18號,嘉義縣大林鎮中坑里,林瑞鵬,53285933,股份有限公司,,1080704,生產中,29機械設備製造業,293通用機械設備,,通用機械設備,鑄鐵、合金銅（鋼）、銅條、白鐵、鐵材、小五金及零組件,120.511772,23.5858955
嘉益工業社,99655825,07210000099628,嘉義縣水上鄉水頭村中正路３９號,嘉義縣水上鄉水頭村,鐘美珍,66592841,獨資,0720616,0740813,生產中,25金屬製品製造業、29機械設備製造業,254金屬加工處理、259其他金屬製品、293通用機械設備,,五金零件,,120.403175,23.4279327
上泰裕企業有限公司,10000043,,嘉義縣水上鄉柳鄉村柳子林200之1號,嘉義縣水上鄉柳鄉村,劉博正,28952628,有限公司,,1000905,生產中,12成衣及服飾品製造業、12成衣及服飾品製造業,121成衣,,針織布、平織布,,120.420883,23.44262
資川有限公司嘉義二廠,S1000093,,嘉義縣六腳鄉蘇厝村蘇厝寮145-35號,嘉義縣六腳鄉蘇厝村,林碧鈴,22208715,有限公司,,1090618,生產中,08食品製造業,089其他食品,,,,,
殷嘉有限公司,10000049,,嘉義縣水上鄉水頭村中正路51號,嘉義縣水上鄉水頭村,魏廖碧鳧,53478278,有限公司,,1001026,生產中,22塑膠製品製造業,220塑膠製品,,ｐｖｃ膠粒,,120.402718,23.42737
宏泰製油工廠,99655846,07510000277149,嘉義縣六腳鄉蒜南村蒜頭４１４之２３號,嘉義縣六腳鄉蒜南村,鄭吉宏,66589515,獨資,0751024,0751024,生產中,08食品製造業,084動植物油脂、086碾榖、磨粉及澱粉製品、089其他食品,,花生油，花生粕，胡麻油，胡麻粕,,120.289459,23.4886475
統屋機械股份有限公司,99655162,06810000223904,嘉義縣太保市過溝里嘉太工業區興業路一號,嘉義縣太保市過溝里,吳文彬,07660250,股份有限公司,0580101,0700424,生產中,25金屬製品製造業、29機械設備製造業,259其他金屬製品、293通用機械設備、292其他專用機械設備,http://www.fluidpower.com.tw,機械零件、液油壓管配件,,120.358147,23.5091324
台灣糖業股份有限公司生物科技事業部大林生技廠,99675855,,嘉義縣大林鎮大糖里大湖農場60號,嘉義縣大林鎮大糖里,黃民生,03794905,股份有限公司,,0930810,生產中,19其他化學製品製造業,194化粧品,,美容保養品,,120.459808,23.61335
微鑽石線材設備有限公司民雄二廠,10000105,,嘉義縣民雄鄉菁埔村菁埔140之35號,嘉義縣民雄鄉菁埔村,李政民,29121968,有限公司,,1020606,生產中,25金屬製品製造業,259其他金屬製品,http://www.mdwec.com/,單刃切割機、開方機、鑽石線等耗材,,120.387909,23.5621834
勝昱科技股份有限公司嘉義分公司,99655498,08410010653032,嘉義縣民雄鄉興南村工業二路5號,嘉義縣民雄鄉興南村,林國瑞,16435966,股份有限公司,0841003,0841201,生產中,22塑膠製品製造業,220塑膠製品,,鋁箔麥拉、塑膠膜、真空袋、積層膜,,120.434433,23.52092
立唐陶藝有限公司,99655043,08610010801292,嘉義縣太保市過溝里嘉太工業區光復路２５號,嘉義縣太保市過溝里,陳謝秋緞,89789917,有限公司,0860213,0860314,生產中,23非金屬礦物製品製造業,232耐火、黏土建材及其他陶瓷製品,,瓷器、高溫釉陶、跤趾陶,,120.358253,23.506525
漁人生技股份有限公司食品廠,10000432,,嘉義縣民雄鄉北斗村中山路51號,嘉義縣民雄鄉北斗村,吳寬仁,54978899,股份有限公司,,1090701,生產中,08食品製造業、09飲料製造業,089其他食品、092非酒精飲料,,,,,
台灣第一生化科技股份有限公司嘉義保健飲料廠,99675906,,嘉義縣民雄鄉興南村工業二路１２－１號,嘉義縣民雄鄉興南村,陳冠翰,70744139,股份有限公司,,0940727,生產中,09飲料製造業、08食品製造業,085乳品、092非酒精飲料,,青草茶、分解茶、燕麥奶、水蠻牛維他命Ｂ,瓶胚．寡糖．麥芽糊精．瓶蓋．燕麥粉,120.431992,23.5217953
立珅企業有限公司,99675694,,嘉義縣民雄鄉福樂村建國路三段260巷33號,嘉義縣民雄鄉福樂村,陳再樂,84804045,有限公司,,0910620,生產中,25金屬製品製造業、29機械設備製造業,254金屬加工處理,,其他金屬製品、鐵線、熔接線,鹽酸、脫脂劑、稀硫酸、鐵線,120.441681,23.5277786
和興機械工程有限公司,99675710,,嘉義縣中埔鄉和興村後庄39巷122號1樓,嘉義縣中埔鄉和興村,"楊   雄",80214074,有限公司,,0910828,生產中,,,,其他機械,,120.457672,23.45072
嘉太材料股份有限公司,99656186,06810000140755,嘉義縣太保市過溝里嘉太工業區光復路３３號,嘉義縣太保市過溝里,何宜煌,66510503,股份有限公司,0580101,0701120,生產中,18化學原材料、肥料、氮化合物、塑橡膠原料及人造纖維製造業,184塑膠及合成橡膠原料、181化學原材料,,塗料油墨樹脂及添加劑接著劑廣用樹脂,辛酸、環己烷、環氧樹脂、甲基丙烯酸、鈷金,120.354675,23.50637
慶新農產加工廠,99655009,07710000182974,嘉義縣六腳鄉灣北村灣內２７６之２號,嘉義縣六腳鄉灣北村,牛王蓮,06348555,獨資,0770225,0790702,生產中,08食品製造業,083蔬果加工,,酥花生,,120.308937,23.50521
大昇機械廠,99675625,07510010002259,嘉義縣民雄鄉山中村牛斗山209號之10,嘉義縣民雄鄉山中村,蕭貴美,66582040,獨資,0750813,0750910,生產中,25金屬製品製造業,259其他金屬製品,,五金零件,,120.411186,23.51805
弘聚精機股份有限公司,10000344,,嘉義縣大林鎮大美里19鄰大埔美園區六路18號,嘉義縣大林鎮大美里,楊德華,53604253,股份有限公司,,1071106,生產中,29機械設備製造業,291金屬加工用機械設備,,工具機、車床,,120.514366,23.5905972
隆興熱處理股份有限公司,99675748,,嘉義縣民雄鄉北斗村中正路58-1號,嘉義縣民雄鄉北斗村,蔡瑞陽,22228064,股份有限公司,,0920305,生產中,25金屬製品製造業,254金屬加工處理,,金屬熱處理,,120.451439,23.5186558
霖宏科技股份有限公司民雄廠,99655076,08410010651932,嘉義縣民雄鄉福樂村八鄰中山路6號、8號、9號,嘉義縣民雄鄉福樂村,張枋霖,89396770,股份有限公司,0840908,0850328,生產中,26電子零組件製造業、25金屬製品製造業,263印刷電路板、251金屬刀具、手工具及模具,http://lhtech.com.tw,印刷電路板,,120.448242,23.5235043
慶安鋼鐵股份有限公司一廠,S1000052,,嘉義縣民雄鄉秀林村溪底寮79號,嘉義縣民雄鄉秀林村,黃盈傑,22567633,股份有限公司,,1090514,生產中,25金屬製品製造業,259其他金屬製品,,,,,
三詰股份有限公司,99655322,07810000172551,嘉義縣民雄鄉北斗村成功街４５號,嘉義縣民雄鄉北斗村,林輝亮,06236539,股份有限公司,0780221,0800408,生產中,29機械設備製造業、28電力設備及配備製造業、25金屬製品製造業,293通用機械設備、281發電、輸電及配電機械、259其他金屬製品,,其它金屬加工製品,,120.459274,23.5225182
瑞和企業社,99655587,08210010006109,嘉義縣太保市麻寮里中山路二段４３－１號,嘉義縣太保市麻寮里,朱崑雄,06325666,獨資,0820913,0820925,生產中,29機械設備製造業、25金屬製品製造業,291金屬加工用機械設備、293通用機械設備,,鐵材五金、機械零件加工,,120.373268,23.4989986
榮美塑膠工業有限公司灣橋廠,99656171,06810000134661,嘉義縣竹崎鄉灣橋村朴子埔１６２號,嘉義縣竹崎鄉灣橋村,侯美蓮,66524627,有限公司,0580101,0690614,生產中,22塑膠製品製造業,220塑膠製品,,塑膠袋,,120.518463,23.4914932
勝興木行,99654854,07510000202958,嘉義縣民雄鄉興中村坔墘臨１７號之１,嘉義縣民雄鄉興中村,魏進忠,06283315,獨資,0750718,0750718,生產中,14木竹製品製造業,140木竹製品,,木材製品,,120.414063,23.5338421
環球食品商行,99675827,,嘉義縣民雄鄉北斗村26鄰中山路65號,嘉義縣民雄鄉北斗村,李思慧,76832124,獨資,,0930329,生產中,08食品製造業,089其他食品、086碾榖、磨粉及澱粉製品、083蔬果加工、081肉類加工,,辣椒醬、辣椒粉、胡椒粉、花椒粉等製造,,120.459892,23.5309315
益興瀝青股份有限公司民雄廠,99655553,08310010150768,嘉義縣民雄鄉菁埔村菁埔１４０－２７號,嘉義縣民雄鄉菁埔村,蔡松益,66629235,股份有限公司,0830120,0831005,生產中,23非金屬礦物製品製造業,239其他非金屬礦物製品,,瀝青混凝土、瀝青混凝土及舖設,,120.400177,23.5589771
來達工業股份有限公司,99655680,08110010004378,嘉義縣水上鄉大堀村頂過溝４１之７號,嘉義縣水上鄉大堀村,陳曾秀鳳,86634117,股份有限公司,0810622,0810808,生產中,22塑膠製品製造業,220塑膠製品,,ＰＶＣ塑膠粒，管，條，板,,120.370491,23.4304562
港達實業有限公司,99656132,08810010922445,嘉義縣民雄鄉北斗村成功二街５０號,嘉義縣民雄鄉北斗村,林錦輝,84985783,有限公司,0880201,0880208,生產中,32家具製造業,322金屬家具,,鋼製傢俱,不銹鋼管、板、皮件,120.458549,23.5246048
自造發香料廠有限公司,99655892,07110000213449,嘉義縣竹崎鄉灣橋村埤堂６５號,嘉義縣竹崎鄉灣橋村,陳勇源,66588086,有限公司,0580101,0711224,生產中,14木竹製品製造業,140木竹製品,,塊香，香料（非食用）,,120.4957,23.4933453
富本橡膠工業股份有限公司二廠,10000204,,嘉義縣民雄鄉北斗村6鄰成功一街31號,嘉義縣民雄鄉北斗村,顏蕭清媛,12533902,股份有限公司,,1050308,生產中,21橡膠製品製造業,210橡膠製品,,橡膠零件管件類及防震橡膠類,,120.457649,23.5235214
高育生物科技有限公司,99656194,08810010064269,嘉義縣民雄鄉福樂村建國路三段２６０巷１７號,嘉義縣民雄鄉福樂村,許秋盆,16214014,有限公司,0880528,0900101,生產中,08食品製造業,089其他食品,,其他食品,,120.441345,23.5277462
安心生態建材有限公司一廠,99676096,,嘉義縣義竹鄉埤前村埤子頭135號,嘉義縣義竹鄉埤前村,陳淨民,25016401,有限公司,,0990205,生產中,25金屬製品製造業,259其他金屬製品,,鋼柵石籠,,120.226852,23.3474369
天璣工業股份有限公司,99655511,07910000172802,嘉義縣民雄鄉福樂村成功五街６之１號,嘉義縣民雄鄉福樂村,徐守敬,23551791,股份有限公司,0790621,0800104,生產中,25金屬製品製造業、28電力設備及配備製造業,259其他金屬製品、281發電、輸電及配電機械、283電線及配線器材,,鐵箱、不銹鋼板,不銹鋼板、鐵板,120.449646,23.5225124
蒜頭糖廠職工福利委員會(南靖廠),99675797,,嘉義縣水上鄉靖和村1號,嘉義縣水上鄉靖和村,鄭進昌,87980207,其他,,0921003,生產中,08食品製造業,085乳品,,,,,
金德企業社,99655217,08710010003260,嘉義縣民雄鄉興南村頭橋１９４號,嘉義縣民雄鄉興南村,何春滿,78460394,獨資,0870519,0870602,生產中,29機械設備製造業、25金屬製品製造業,291金屬加工用機械設備、259其他金屬製品,,機械零件,鐵、鋁、角鐵鋼管鐵材,120.437477,23.5258675
大同鋁業股份有限公司三協廠,10000074,,嘉義縣民雄鄉興南村頭橋工業區工業三路2號,嘉義縣民雄鄉興南村,張哲碩,11015727,股份有限公司,,1010508,生產中,25金屬製品製造業,252金屬結構及建築組件,http://www.ttaltd.com.tw/,鋁門窗、帷幕牆,,120.436775,23.5201111
森德皮革有限公司,99655905,07710000297632,嘉義縣民雄鄉興南村工業三路６之２號,嘉義縣民雄鄉興南村,鄭景元,28511019,有限公司,0771216,0771223,生產中,13皮革、毛皮及其製品製造業,130皮革、毛皮及其製品,,豬皮加工,,120.435242,23.5219154
弘鉫工業股份有限公司,99656144,08410010007435,嘉義縣新港鄉三間村三間厝５３－１號,嘉義縣新港鄉三間村,莊登燦,89711263,股份有限公司,0840915,0841005,生產中,30汽車及其零件製造業、31其他運輸工具及其零件製造業,301汽車、302車體、303汽車零件,,拖板車，車體裝配及塔槽安裝,,120.388443,23.5205784
新樺鋼鐵工業股份有限公司,10000396,,嘉義縣水上鄉大崙村20鄰大崙162號,嘉義縣水上鄉大崙村,曾明山,82956663,股份有限公司,,1081105,生產中,24基本金屬製造業、25金屬製品製造業,241鋼鐵、252金屬結構及建築組件、253金屬容器,,黑鋼管,,120.354523,23.44785
星一興業股份有限公司二廠,99656001,07610000207612,嘉義縣朴子市竹村里朴子工業區二街１１、１３號,嘉義縣朴子市竹村里,陳應賢,66590301,股份有限公司,0760629,0831011,生產中,18化學原材料、肥料、氮化合物、塑橡膠原料及人造纖維製造業,184塑膠及合成橡膠原料,,ＰＰ粒、染色成品、防火材料、塑膠複合材料,塑膠粒,120.249359,23.4383888
興曜機械工業有限公司,99675702,,嘉義縣民雄鄉雙福村建國路三段２６０巷９之２號１樓,嘉義縣民雄鄉雙福村,蕭永芳　,97254654,有限公司,,0910715,生產中,25金屬製品製造業、29機械設備製造業、30汽車及其零件製造業、31其他運輸工具及其零件製造業,259其他金屬製品、293通用機械設備、319未分類其他運輸工具及其零件,,五金零件加工、汽車零件製造,,120.440163,23.5269318
財億製鏡工業股份有限公司,99655696,07610000205385,嘉義縣民雄鄉興南村工業一路13號,嘉義縣民雄鄉興南村,蔡崇吉,22518676,股份有限公司,0760624,0761106,生產中,23非金屬礦物製品製造業,231玻璃及其製品,,玻璃製品,,120.430016,23.5185
極品莊園咖啡股份有限公司,10000229,,嘉義縣大林鎮三村里橋子頭1-5號,嘉義縣大林鎮三村里,吳正邦,54906880,股份有限公司,,1050825,生產中,08食品製造業,089其他食品,http://www.coffeeland.com.tw,咖啡豆包．濾掛咖啡,,120.467659,23.6246529
明泰汽車零件有限公司,99655879,08210010001074,嘉義縣水上鄉寬士村崎子頭２２－１６７號,嘉義縣水上鄉寬士村,蕭淑麗,80245273,有限公司,0820224,0820308,生產中,25金屬製品製造業,259其他金屬製品,,汽車連桿,,120.42926,23.4472885
一帆股份有限公司,99654898,07510000124522,嘉義縣中埔鄉和睦村司公５之１號,嘉義縣中埔鄉和睦村,何火鳳,86559362,股份有限公司,0750426,0750426,生產中,25金屬製品製造業、25金屬製品製造業,251金屬刀具、手工具及模具,http://www.ifong.com.tw,千斤頂零件、鋁製品、鋼鐵製品,,120.480927,23.4497623
泰成工業有限公司,S1000139,,嘉義縣溪口鄉疊溪村2鄰下員林17-6號,嘉義縣溪口鄉疊溪村,王毓燊,27867103,有限公司,,1090807,生產中,30汽車及其零件製造業、30汽車及其零件製造業,302車體,,,,,
詠勤企業股份有限公司,99655611,08110010000517,嘉義縣大林鎮三角里下林頭１之２號,嘉義縣大林鎮三角里,黃朝謀,86616743,股份有限公司,0810331,0810424,生產中,32家具製造業,321非金屬家具,,樓梯扶手,木條、色料、離型劑、乙二醇、聚胺酯,120.495293,23.615694
源泰冷凍製冰股份有限公司,99655176,06710000307552,嘉義縣布袋鎮復興里新塭６７０號,嘉義縣布袋鎮復興里,蘇怡嘉,66355988,股份有限公司,0580101,0680815,生產中,08食品製造業,089其他食品、082水產加工,,冰塊,,120.161079,23.32904
嘉樺便當廠,99675618,08310010600979,嘉義縣民雄鄉大崎村十四甲４－１號,嘉義縣民雄鄉大崎村,盧蔡月雀,87971875,獨資,0830825,0831104,生產中,08食品製造業,089其他食品,,即時熟食,,120.470627,23.5124912
慶安鋼鐵股份有限公司民雄廠,99655200,07710000174008,嘉義縣民雄鄉秀林村溪底寮７９號,嘉義縣民雄鄉秀林村,黃盈傑,22567633,股份有限公司,0770304,0770304,生產中,25金屬製品製造業,259其他金屬製品、254金屬加工處理,,Ｈ型鋼、鐵板、三角鐵、槽鐵、扁鐵、鐵管,,120.465469,23.50532
孟泰實業股份有限公司,10000135,,嘉義縣民雄鄉大崎村13鄰十四甲12號,嘉義縣民雄鄉大崎村,張加成,13079444,股份有限公司,,1021230,生產中,25金屬製品製造業,254金屬加工處理,,,,,
昇暉工業有限公司,10000349,,嘉義縣中埔鄉裕民村水仔尾26-2號,嘉義縣中埔鄉裕民村,張綉閔,25027168,有限公司,,1071213,生產中,25金屬製品製造業,252金屬結構及建築組件,,金屬廢五金鍛造,,120.496277,23.43048
義德工具開發有限公司,99675549,,嘉義縣水上鄉溪洲村外溪洲111之10號,嘉義縣水上鄉溪洲村,呂佳益,24855673,有限公司,,0910419,生產中,25金屬製品製造業、29機械設備製造業,251金屬刀具、手工具及模具,,其他手工具,,120.3943,23.4163418
利盈水產股份有限公司,10000219,,嘉義縣布袋鎮光復里六棟寮100號,嘉義縣布袋鎮光復里,施惠娟,24396544,有限公司,,1050701,生產中,08食品製造業,082水產加工,,水產處理及其製品,冷凍魚,120.176323,23.3730927
信孚產業股份有限公司嘉義廠,99655658,06210000001096,嘉義縣水上鄉寬士村崎子頭1之9號,嘉義縣水上鄉寬士村,洪維憶,11459242,股份有限公司,0580101,0620612,生產中,30汽車及其零件製造業、25金屬製品製造業、33其他製造業、31其他運輸工具及其零件製造業、29機械設備製造業、27電腦、電子產品及光學製品製造業、22塑膠製品製造業,259其他金屬製品、313自行車及其零件、301汽車、331育樂用品、303汽車零件、293通用機械設備、275量測、導航、控制設備及鐘錶、332醫療器材及用品、220塑膠製品、319未分類其他運輸工具及其零件,,各式千斤頂、運動器材,,120.430634,23.4488316
易永立工業有限公司,10000040,,嘉義縣中埔鄉金蘭村田寮7之1號,嘉義縣中埔鄉金蘭村,蔡易金,28050509,有限公司,,1000825,生產中,33其他製造業、33其他製造業,339未分類其他製品,,塑膠日用品製造,,120.50692,23.4478188
盈松環保股份有限公司,10000276,,嘉義縣太保市南新里北港路二段105巷27號,嘉義縣太保市南新里,陳柏宇,55938380,股份有限公司,,1061019,生產中,14木竹製品製造業,140木竹製品,,棧板,,120.383461,23.4962082
玉豐糧食股份有限公司二廠,10000051,,嘉義縣義竹鄉龍蛟村10鄰龍蛟潭186號之3,嘉義縣義竹鄉龍蛟村,翁石貴,96851529,股份有限公司,,1001109,生產中,08食品製造業,086碾榖、磨粉及澱粉製品,,米,,120.224442,23.36884
自鵬紙器股份有限公司,99654822,08010010002152,嘉義縣中埔鄉和美村大義路３７５巷２弄４３號,嘉義縣中埔鄉和美村,蘇峻德,86528565,股份有限公司,0810410,0810410,生產中,15紙漿、紙及紙製品製造業,152瓦楞紙板及紙容器,,紙箱,,120.473618,23.4561882
全成國際實業有限公司,99654886,06210000080586,嘉義縣東石鄉東崙村栗子崙２５之１號,嘉義縣東石鄉東崙村,王儷蓉,97221850,有限公司,0580101,0621114,生產中,22塑膠製品製造業,220塑膠製品,,塑膠粉碎,,120.193367,23.4335518
宏鋼工業有限公司,10000045,,嘉義縣水上鄉三和村頂寮1-8號,嘉義縣水上鄉三和村,蕭國謀,22134708,有限公司,,1000926,生產中,25金屬製品製造業、29機械設備製造業、33其他製造業,259其他金屬製品、293通用機械設備、331育樂用品,http://hungkang.com,插銷、螺絲、彈簧固定塊、鋼珠擋件,磨光鋁棒、零件鋅、鋁擠棒、鐵製品,120.417313,23.4569054
競銘機械股份有限公司嘉義廠,10000237,,嘉義縣大林鎮中坑里1鄰大埔美園區三路9號,嘉義縣大林鎮中坑里,蕭朋,97397999,股份有限公司,,1051222,生產中,29機械設備製造業,291金屬加工用機械設備,http://www.cm.com.tw/tw,電鍍設備,,120.506721,23.5828915
欣泰實業有限公司太保廠,99655802,08510010005877,嘉義縣太保市新埤里新埤２５８號,嘉義縣太保市新埤里,鄭秀琴,96874810,有限公司,0850903,0851004,生產中,11紡織業,115紡織品,,寢飾（棉被、枕頭、床罩等等）,,120.382446,23.4986877
偉翔快速印刷有限公司,99656038,08310010000548,嘉義縣太保市南新里１５鄰北港路二段１０５巷１８弄１１號,嘉義縣太保市南新里,許鵬翔,89696306,有限公司,0830131,0830420,生產中,16印刷及資料儲存媒體複製業,160印刷及資料儲存媒體複製,,印刷紙張,,120.379517,23.4958477
普麗彩有限公司,10000147,,嘉義縣太保市過溝里嘉太工業區光復路23號,嘉義縣太保市過溝里,賴榮祥,27818498,有限公司,,1030805,生產中,33其他製造業、19其他化學製品製造業,332醫療器材及用品、192塗料、染料及顏料,,迷彩膏,,120.358253,23.506525
鎔利興業股份有限公司嘉義廠,10000466,,嘉義縣梅山鄉過山村4鄰大埔美園區二路66號,嘉義縣梅山鄉過山村,李文生,89984398,股份有限公司,,1091111,生產中,22塑膠製品製造業,220塑膠製品,,,,,
晨達企業股份有限公司嘉義廠一廠,99675562,,嘉義縣新港鄉福德村福德路１２１巷１２號,嘉義縣新港鄉福德村,何達煌,30861201,股份有限公司,,0910423,生產中,25金屬製品製造業,259其他金屬製品,,ＣＧＥ機械風管,,120.339417,23.5554924
穀盛股份有限公司嘉義廠,99655761,08310010154442,嘉義縣民雄鄉北斗村中正路36號,嘉義縣民雄鄉北斗村,許嘉寧,86136420,股份有限公司,0830513,0850828,生產中,,,,醋高酸醋，醇米霖，鮮味露,,120.455605,23.5197182
代興企業有限公司,S1000106,,嘉義縣民雄鄉大崎村十四甲25之1號,嘉義縣民雄鄉大崎村,林夜文,16257343,有限公司,,1090528,生產中,25金屬製品製造業,259其他金屬製品,,,,,
新鈺生技股份有限公司嘉義分公司,99655947,07710000288758,嘉義縣民雄鄉北斗村成功二街１０號,嘉義縣民雄鄉北斗村,李培民,80163595,本國公司之分公司,0780104,0840505,生產中,19其他化學製品製造業、20藥品及醫用化學製品製造業,193清潔用品、194化粧品、200藥品及醫用化學製品,http://www.corum.com.tw/,陰、陽離子界面活性劑、其他界面活性劑、其他清潔用品,,120.452988,23.5229511
穎杰鑄造工業股份有限公司,99655956,05810000017325,嘉義縣太保市過溝里嘉太工業區和順路５號,嘉義縣太保市過溝里,涂美華,66570608,股份有限公司,0580101,0700305,生產中,24基本金屬製造業,241鋼鐵,http://www.ycfi.com.tw,汽車零件鑄造工具機鑄造,,120.355057,23.5077114
嘉美塑膠廠,99656154,08810010990076,嘉義縣竹崎鄉灣橋村朴子埔三三號,嘉義縣竹崎鄉灣橋村,王位惠,20172590,獨資,0880928,0881001,生產中,22塑膠製品製造業,220塑膠製品,,塑膠粒,,120.520691,23.4932365
長興商號一廠,S1000120,,嘉義縣東石鄉港墘村11鄰港墘3號之1,嘉義縣東石鄉港墘村,李依庭,66344701,獨資,,1090622,生產中,15紙漿、紙及紙製品製造業,152瓦楞紙板及紙容器,,,,,
友信水泥加工場,99656087,07510000202384,嘉義縣中埔鄉金蘭村５２號之３,嘉義縣中埔鄉金蘭村,胡文智,66379145,獨資,0750710,0750710,生產中,23非金屬礦物製品製造業、11紡織業,233水泥及其製品,,水泥製品,水泥、砂石、鋼筋,120.497414,23.4467545
豐洲企業股份有限公司二廠,S1000033,,嘉義縣民雄鄉頂崙村崙仔頂1-7號,嘉義縣民雄鄉頂崙村,張國興,66468836,股份有限公司,,1090507,生產中,29機械設備製造業,292其他專用機械設備,,,,,
永大農產加工廠,99655456,08210010004410,嘉義縣義竹鄉後鎮村88-3號,嘉義縣義竹鄉後鎮村,林經堯,06359145,獨資,0820708,0821004,生產中,08食品製造業,087動物飼品,,飼料,,120.20256,23.3672123
弘晟水泥製品股份有限公司,99655505,06810000143915,嘉義縣溪口鄉疊溪村１１之２０號,嘉義縣溪口鄉疊溪村,謝明峰,66503242,股份有限公司,0580101,0691205,生產中,23非金屬礦物製品製造業,233水泥及其製品,,預拌混凝土管,,120.443062,23.5895023
新山立機械有限公司,10000384,,嘉義縣太保市舊埤里20鄰新埤7-40號,嘉義縣太保市舊埤里,劉山立,42741553,有限公司,,1080829,生產中,25金屬製品製造業,259其他金屬製品,,其他金屬製品,鋁材、鐵材、銅材、中碳鋼、其他金屬,120.344643,23.4926262
溝背工程行,10000064,,嘉義縣大林鎮溝背里溝背45號,嘉義縣大林鎮溝背里,吳金柱,20177672,合夥,,1010323,生產中,25金屬製品製造業,259其他金屬製品,,金屬配管,,120.488892,23.6175957
瑞正股份有限公司,S1000098,,嘉義縣中埔鄉和睦村1鄰司公5之8號,嘉義縣中埔鄉和睦村,林祺瑞,22077517,股份有限公司,,1090610,生產中,15紙漿、紙及紙製品製造業,152瓦楞紙板及紙容器,,,,,
鳳勝實業股份有限公司嘉泰廠,99654719,08210010072694,嘉義縣太保市南新里北港路二段１０５巷４５號,嘉義縣太保市南新里,董介權,16093742,股份有限公司,0820415,0821224,生產中,23非金屬礦物製品製造業,233水泥及其製品,,預拌混凝土,,120.379951,23.4935856
盛豐興農業生技有限公司,99676079,,嘉義縣民雄鄉北斗村成功二街52號,嘉義縣民雄鄉北斗村,邱玲玲,24232769,有限公司,,0980618,生產中,08食品製造業,086碾榖、磨粉及澱粉製品,,沙棘軟膠囊．黑饌米,,120.459007,23.5247536
貴發閎企業社,10000177,,嘉義縣六腳鄉六斗村5鄰六斗尾43-3號,嘉義縣六腳鄉六斗村,李麗卿,37737333,獨資,,1040714,生產中,08食品製造業、08食品製造業,089其他食品,,麵條,,120.294228,23.5427856
三好屋股份有限公司,99675937,,嘉義縣六腳鄉蘇厝村蘇厝寮９２號之４,嘉義縣六腳鄉蘇厝村,范玉香,27261436,股份有限公司,,0950302,生產中,08食品製造業,089其他食品,,,,,
嶸欣股份有限公司,10000418,,嘉義縣鹿草鄉馬稠後園區二路30號,嘉義縣鹿草鄉,陳秋炉,42871696,股份有限公司,,1090406,生產中,29機械設備製造業,292其他專用機械設備,,,,,
東翰不銹鋼股份有限公司嘉義廠,10000409,,嘉義縣大林鎮大美里19鄰大埔美園區三路48號,嘉義縣大林鎮大美里,蔡琮翔,50925956,股份有限公司,,1090122,生產中,25金屬製品製造業,259其他金屬製品,,,,,
焱盛生物科技有限公司,10000304,,嘉義縣民雄鄉中央村田中央17-18號,嘉義縣民雄鄉中央村,許淑青,24565055,有限公司,,1070326,生產中,29機械設備製造業、30汽車及其零件製造業,293通用機械設備、302車體,,其他通用機械及零組件,,120.406677,23.5335617
安吉橡膠股份有限公司,99655214,07710000167880,嘉義縣民雄鄉北斗村成功二街１１號,嘉義縣民雄鄉北斗村,安柏青,22131147,股份有限公司,0770503,0781229,生產中,21橡膠製品製造業、29機械設備製造業、30汽車及其零件製造業、31其他運輸工具及其零件製造業,210橡膠製品、293通用機械設備、303汽車零件、312機車及其零件、313自行車及其零件,http://www.an-jee.com,橡膠製品、汽車專用橡膠零件,,120.454391,23.5226078
禾園生物科技有限公司竹崎廠,99675883,,嘉義縣竹崎鄉紫雲村鹿寮堀１８－１號,嘉義縣竹崎鄉紫雲村,林慶祥,27457277,有限公司,,0940111,生產中,08食品製造業,086碾榖、磨粉及澱粉製品、089其他食品,http://www.hgbc.com.tw,穀類軋片、豆類磨粉、杏仁粉、食用預拌粉、綜合食用粉、咖啡粉,,120.53553,23.4999638
特大順股份有限公司,99655985,08410010003999,嘉義縣大林鎮西結里陳井寮１３５號,嘉義縣大林鎮西結里,陳浩勤,23198715,股份有限公司,0840527,0840606,生產中,25金屬製品製造業,259其他金屬製品,,鋁，鋅零件加工,,120.413193,23.61486
嘉義縣朴子市農會稻穀烘乾中心碾米廠,10000290,,嘉義縣朴子市梅華里19鄰牛挑灣129之63、65號,嘉義縣朴子市梅華里,方鐘永,67074705,農會組織,,1061214,生產中,08食品製造業,086碾榖、磨粉及澱粉製品,,糙米，碎米,稻穀,120.256721,23.40998
薌園生技股份有限公司嘉廠,10000401,,嘉義縣朴子市松華里牛挑灣318之1號,嘉義縣朴子市松華里,陳金蓮,23802571,股份有限公司,,1081219,生產中,08食品製造業,086碾榖、磨粉及澱粉製品、083蔬果加工、089其他食品,,蔬果加工，碾榖、磨粉及澱粉製品，其他食品,,120.249527,23.4107876
樺林離型紙股份有限公司,10000403,,嘉義縣大林鎮大美里大埔美園區三路23號,嘉義縣大林鎮大美里,張少惠,76318999,股份有限公司,,1081231,生產中,33其他製造業,331育樂用品,,育樂用品,,120.508942,23.5871258
瑞華鐵材有限公司水上廠,S1000042,,嘉義縣水上鄉三和村頂寮1之38號,嘉義縣水上鄉三和村,顏賴麗華,80552102,有限公司,,1090509,生產中,25金屬製品製造業,254金屬加工處理,,,,,
礫園企業有限公司嘉義廠,S1000049,,嘉義縣水上鄉柳鄉村柳子林192-48號,嘉義縣水上鄉柳鄉村,陳盈頻,23462355,有限公司,,1090513,生產中,12成衣及服飾品製造業,121成衣,,,,,
耐斯企業股份有限公司中山廠,10000454,,嘉義縣民雄鄉福樂村中山路21號、27號,嘉義縣民雄鄉福樂村,陳志鴻,65403770,股份有限公司,,1090917,生產中,19其他化學製品製造業,194化粧品,,,,,
學明號,99656046,08510010002353,嘉義縣溪口鄉疊溪村１７號,嘉義縣溪口鄉疊溪村,張永樑,87990388,獨資,0850425,0850504,生產中,13皮革、毛皮及其製品製造業、29機械設備製造業、25金屬製品製造業,130皮革、毛皮及其製品、291金屬加工用機械設備、293通用機械設備,,皮革（木桶）製造,,120.445824,23.5917015
惠淵企業股份有限公司,99655096,08010000320121,嘉義縣民雄鄉北斗村６鄰成功一街９號,嘉義縣民雄鄉北斗村,張育誠,86106755,股份有限公司,0800805,0810214,生產中,22塑膠製品製造業、28電力設備及配備製造業,220塑膠製品、283電線及配線器材,,塑膠品印刷加工桌巾，泳圈,,120.454529,23.5227165
廣園生化科技有限公司,10000201,,嘉義縣太保市梅埔里梅子厝23號之1,嘉義縣太保市梅埔里,官明正,24855688,有限公司,,1050126,生產中,08食品製造業、08食品製造業,089其他食品,,醃漬梅,,120.339645,23.4406071
宥勝金屬工業有限公司,10000048,,嘉義縣民雄鄉北斗村6鄰成功二街27號,嘉義縣民雄鄉北斗村,呂明津,28757998,有限公司,,1001017,生產中,24基本金屬製造業、25金屬製品製造業,241鋼鐵、259其他金屬製品,,黑鋼管,,120.458321,23.52487
森詠砂石有限公司,99655172,08310010604699,嘉義縣梅山鄉梅北村工業一路２６號,嘉義縣梅山鄉梅北村,黃國寶,16532242,有限公司,0831116,0850510,生產中,23非金屬礦物製品製造業、23非金屬礦物製品製造業,233水泥及其製品,,預拌混凝土,,120.538567,23.5913525
永年塗料有限公司,99654833,07910000182629,嘉義縣民雄鄉興南村工業五路７號,嘉義縣民雄鄉興南村,張義榮,23672079,有限公司,0790807,0790807,生產中,23非金屬礦物製品製造業,232耐火、黏土建材及其他陶瓷製品,http://www.yongnianpaints.com.tw,披土、ＡＢ膠,碳酸鈣．環氧樹脂．樹脂,120.432938,23.520834
勇宗企業股份有限公司,99655083,07610000334873,嘉義縣民雄鄉北斗村中正路３號,嘉義縣民雄鄉北斗村,陳怡融,22541445,股份有限公司,0761130,0770705,生產中,23非金屬礦物製品製造業,239其他非金屬礦物製品,,常溫瀝青混凝土、乳化瀝青、熱拌瀝青混凝土,柏油、砂石,120.461609,23.5209942
春茂企業社,99656125,08110010000400,嘉義縣水上鄉龍德村十一指厝25之12號,嘉義縣水上鄉龍德村,潘李月女,78440644,獨資,0810306,0810316,生產中,25金屬製品製造業、29機械設備製造業,259其他金屬製品、293通用機械設備,,五金零件,,120.3884,23.4286289
意泰機械廠股份有限公司,99675556,07310010001150,嘉義縣太保市南新里南埤路４８之１號,嘉義縣太保市南新里,林昌德,66581909,股份有限公司,0730814,0740621,生產中,29機械設備製造業,292其他專用機械設備,,製袋機、封剪機,,120.384377,23.4941273
谷全實業有限公司,99656146,08010010001558,嘉義縣溪口鄉柳溝村柳溝４號,嘉義縣溪口鄉柳溝村,吳敏宏,24362066,獨資,0800817,0820803,生產中,08食品製造業,089其他食品,,高筋漿、液體粉漿、油炸麵筋,,120.415672,23.5766735
隆華螺絲工廠股份有限公司四廠,10000206,,嘉義縣朴子市竹村里朴子工業區一街8號,嘉義縣朴子市竹村里,林燕宗,86553677,股份有限公司,,1050321,生產中,25金屬製品製造業、25金屬製品製造業,259其他金屬製品,,螺絲,,120.248306,23.436842
國宇建材股份有限公司,10000469,,嘉義縣民雄鄉北斗村中山路50號,嘉義縣民雄鄉北斗村,吳志仁,42947794,股份有限公司,,1091123,生產中,,,,,,,
嘉堡堡食品有限公司,99676106,,嘉義縣民雄鄉北斗村成功一街47號,嘉義縣民雄鄉北斗村,游文雅,25073660,有限公司,,0990628,生產中,08食品製造業,089其他食品、081肉類加工,,蘿蔔糕,,120.459473,23.5239716
昇暘榮企業有限公司,10000142,,嘉義縣太保市南新里14鄰中興路二段48號1樓,嘉義縣太保市南新里,林張合朱,54115893,有限公司,,1030527,生產中,29機械設備製造業、30汽車及其零件製造業,293通用機械設備、303汽車零件,,其他金屬手工具製造,,120.382469,23.4946442
環球食品商行,S1000134,,嘉義縣民雄鄉興中村1鄰義橋1之4號,嘉義縣民雄鄉興中村,李思慧,76832124,獨資,,1090708,生產中,08食品製造業,089其他食品,,,,,
福樟實業有限公司,S1000025,,嘉義縣大林鎮三村里中正路901號,嘉義縣大林鎮三村里,張元耀,23713085,有限公司,,1090505,生產中,14木竹製品製造業、32家具製造業,140木竹製品、321非金屬家具,,,,,
山富塑膠企業社,S1000054,,嘉義縣民雄鄉福權村2鄰福權13之3號,嘉義縣民雄鄉福權村,吳幸真,08997669,獨資,,1090520,生產中,22塑膠製品製造業,220塑膠製品,,,,,
欣業企業股份有限公司陸廠,99655189,07210000160534,嘉義縣竹崎鄉灣橋村石麻園８２號,嘉義縣竹崎鄉灣橋村,劉通霖,66274331,股份有限公司,0720727,0740429,生產中,32家具製造業,321非金屬家具、322金屬家具,,戶外休閒椅、室內傢俱,,120.509842,23.48918
佳億化工企業社,99675862,,嘉義縣六腳鄉雙涵村65之19號,嘉義縣六腳鄉雙涵村,陳莠茵,99589375,獨資,,0931004,生產中,19其他化學製品製造業、19其他化學製品製造業,193清潔用品,,清潔用品、洗碗精、漂白水,,120.301147,23.5113869
自威油壓機械股份有限公司,99655323,07710010286084,嘉義縣民雄鄉北斗村成功二街３３號,嘉義縣民雄鄉北斗村,鄧敏雄,35916578,股份有限公司,0771229,0830812,生產中,29機械設備製造業,291金屬加工用機械設備,,銅、鋅、鋁合金壓鑄機,,120.458725,23.5250359
翰陽開發股份有限公司中正廠,99676015,,嘉義縣民雄鄉雙福村中正路６６號,嘉義縣民雄鄉雙福村,黃萬福,70731520,股份有限公司,,0961126,生產中,,,http://www.fitekfitness.com,室內健身器、訓練腳踏車（健身房使用）、訓練器,,120.448296,23.521122
國偉股份有限公司,99655835,08510010400316,嘉義縣朴子市竹村里朴子工業區二街3號、5號,嘉義縣朴子市竹村里,侯再興,66700314,股份有限公司,0850110,0850422,生產中,25金屬製品製造業,254金屬加工處理,,金屬螺絲加工,,120.247475,23.43818
安富科技股份有限公司,10000364,,嘉義縣大林鎮大美里大埔美園區九路9號,嘉義縣大林鎮大美里,于宗元,28125678,股份有限公司,,1080322,生產中,26電子零組件製造業,269其他電子零組件,http://www.nforetek.com.tw/about-2.html,其他電子零組件,,120.526329,23.5920963
榕懋實業股份有限公司龍象廠,10000078,,嘉義縣民雄鄉興南村工業三路20號,嘉義縣民雄鄉興南村,黃啟宗,23519126,股份有限公司,,1010627,生產中,25金屬製品製造業,259其他金屬製品,http://www.apexcare.com.tw,金屬管,鋼管，鐵管．鋁條,120.429504,23.5240154
勤道瀝青有限公司,99655356,06510000156677,嘉義縣水上鄉三界村三界埔１５５之３號,嘉義縣水上鄉三界村,林志忠,24636853,有限公司,0580101,0671003,生產中,23非金屬礦物製品製造業,239其他非金屬礦物製品,,瀝青混凝土,,120.475174,23.4329948
研帥企業有限公司,99656082,08410010007303,嘉義縣鹿草鄉鹿草村鹿草４４１號,嘉義縣鹿草鄉鹿草村,張明焜,84653433,有限公司,0840908,0840929,生產中,15紙漿、紙及紙製品製造業、23非金屬礦物製品製造業,159其他紙製品、239其他非金屬礦物製品,,擦拭紙巾，紙抹布，紙巾，紙墊，砂布輪,,120.316223,23.4098358
嘉聯實業股份有限公司,S1000002,,嘉義縣水上鄉龍德村十一指厝8號之12附1,嘉義縣水上鄉龍德村,王榮可,22567325,股份有限公司,,1090423,生產中,19其他化學製品製造業,193清潔用品、194化粧品,,,,,
日升美實業有限公司,10000436,,嘉義縣民雄鄉北斗村成功一街33號,嘉義縣民雄鄉北斗村,方永昌,42962302,有限公司,,1090714,生產中,25金屬製品製造業,254金屬加工處理,,,,,
春輝產業股份有限公司三廠,S1000077,,嘉義縣太保市前潭里後潭198之5、198之6、198之7號,嘉義縣太保市前潭里,呂武錦,22274860,股份有限公司,,1090601,生產中,32家具製造業,321非金屬家具、322金屬家具,,,,,
乾泰企業有限公司嘉太廠,10000183,,嘉義縣太保市過溝里嘉太工業區15鄰光復路15號,嘉義縣太保市過溝里,陳忠文,86955291,有限公司,,1041005,生產中,25金屬製品製造業,254金屬加工處理,,運動器材、馬達零組件、五金零件,環氧樹脂,120.359306,23.506464
郭信豐號,99656028,05810000009813,嘉義縣中埔鄉和睦村後庄１７號,嘉義縣中埔鄉和睦村,郭辜淑女,65434303,獨資,0580101,0610805,生產中,08食品製造業,086碾榖、磨粉及澱粉製品,,樹薯粉、甘薯粉、樹薯粕、蕃薯粕,樹薯、甘薯,120.463165,23.4521484
一滴旺釀造食品有限公司,99655327,07710000185566,嘉義縣太保市崙頂里崙子頂１之１９號,嘉義縣太保市崙頂里,龔李玉秀,97353351,有限公司,0770414,0770414,生產中,08食品製造業,089其他食品,,醋,,120.307762,23.4582481
順興塑膠機械工廠,99675607,06710000025455,嘉義縣大林鎮平林里中正路230巷2弄65號,嘉義縣大林鎮平林里,林黃麗華,66479159,獨資,0580101,0670907,生產中,29機械設備製造業、25金屬製品製造業,292其他專用機械設備,,塑膠機械,,120.451721,23.5986137
微鑽石線材設備有限公司民雄廠,10000106,,嘉義縣民雄鄉菁埔村菁埔140-36號,嘉義縣民雄鄉菁埔村,李政民,29121968,有限公司,,1020606,生產中,25金屬製品製造業,259其他金屬製品,http://www.mdwec.com/,單刃切割機、開方機、鑽石線等耗材,,120.387817,23.56217
元愛企業股份有限公司成功廠,99675935,,嘉義縣民雄鄉北斗村成功一街５０號,嘉義縣民雄鄉北斗村,黃天樂,23232235,股份有限公司,,0950119,生產中,30汽車及其零件製造業、32家具製造業、25金屬製品製造業,303汽車零件、322金屬家具、251金屬刀具、手工具及模具、259其他金屬製品,,汽車消音器、汽車排氣管等汽車零件,,120.459625,23.52362
煜昌工業股份有限公司,10000143,,嘉義縣布袋鎮光復里太平東路21巷1號,嘉義縣布袋鎮光復里,吳泰局,22561477,股份有限公司,,1030625,生產中,23非金屬礦物製品製造業,233水泥及其製品,,預拌混凝土,,120.178749,23.3730736
王鼎石材興業有限公司,S1000072,,嘉義縣民雄鄉秀林村11鄰溪底寮40之5號,嘉義縣民雄鄉秀林村,王炳文,84541352,有限公司,,1090527,生產中,23非金屬礦物製品製造業,234石材製品,,,,,
高新飾盒股份有限公司太保廠,99656053,08010010002498,嘉義縣太保市南新里南埤路南埤１２０巷６號,嘉義縣太保市南新里,林黃月英,22951307,股份有限公司,0821212,0821104,生產中,22塑膠製品製造業,220塑膠製品,,塑膠製品,,120.3853,23.4916687
南昌生物科技廠,99675907,,嘉義縣梅山鄉過山村開元后42號,嘉義縣梅山鄉過山村,翁文哲,08989020,有限公司,,0940727,生產中,08食品製造業,089其他食品,,清解素,,120.533455,23.5941544
志政塑膠股份有限公司水上廠,10000152,,嘉義縣水上鄉忠和村2鄰檳榔樹角14號,嘉義縣水上鄉忠和村,陳李梨枝,22130956,股份有限公司,,1031212,生產中,22塑膠製品製造業,220塑膠製品,,塑膠製品,,120.447075,23.4248886
金龍冠食品股份有限公司嘉義二廠,10000083,,嘉義縣民雄鄉北斗村中正路34號,嘉義縣民雄鄉北斗村,鄭香蘭,70717246,股份有限公司,,1010822,生產中,08食品製造業、09飲料製造業,089其他食品、092非酒精飲料,,天然香料乳酸、蕉糖水,,120.455887,23.5201874
紘偉企業股份有限公司,99656067,07810000280652,嘉義縣民雄鄉興南村工業五路３號,嘉義縣民雄鄉興南村,李永裕,66545209,股份有限公司,0780629,0780715,生產中,24基本金屬製造業、25金屬製品製造業、29機械設備製造業,241鋼鐵、254金屬加工處理、252金屬結構及建築組件,,,,,
宇銓工業股份有限公司一廠,99655202,08510010007617,嘉義縣水上鄉水頭村中興路八巷９４弄４８號,嘉義縣水上鄉水頭村,黃永坤,23240283,股份有限公司,0851118,0851129,生產中,22塑膠製品製造業、28電力設備及配備製造業,220塑膠製品、285家用電器、289其他電力設備及配備,,迷你空壓機，熱熔膠槍，氣動工具，電動工,,120.4084,23.4314327
宗進金屬股份有限公司,99655760,07710000286090,嘉義縣民雄鄉北斗村中正路４６號,嘉義縣民雄鄉北斗村,廖明傑,76358990,股份有限公司,0771223,0790824,生產中,,,,鋁製品製造,,120.45369,23.5192966
明興油行,99655340,07710000273725,嘉義縣溪口鄉柳溝村柳溝４５號,嘉義縣溪口鄉柳溝村,洪秋櫻,06283602,獨資,0770822,0770822,生產中,08食品製造業,084動植物油脂,,花生油，芝麻油、苦茶油,,120.413437,23.57624
永益興機械有限公司,10000198,,嘉義縣水上鄉水上村嘉朴路87號,嘉義縣水上鄉水上村,謝水永,53369124,有限公司,,1050118,生產中,29機械設備製造業、29機械設備製造業,293通用機械設備,,包裝機械,,120.391289,23.4353542
合騏工業股份有限公司第三廠,99655406,08210010076147,嘉義縣義竹鄉龍蛟村義竹工業區義工二路２號,嘉義縣義竹鄉龍蛟村,謝菁菁,66338721,股份有限公司,0820712,0850925,生產中,31其他運輸工具及其零件製造業、33其他製造業,312機車及其零件、313自行車及其零件、331育樂用品,http://www.hercheemoto.com.tw/,機車裝配組立、機車引擎裝配組立,,120.240768,23.3344879
瓶安企業有限公司,10000214,,嘉義縣太保市南新里12鄰中興路2段3巷38號,嘉義縣太保市南新里,陳勇志,53279475,有限公司,,1050602,生產中,33其他製造業、24基本金屬製造業,339未分類其他製品、249其他基本金屬,,平沖子、平鋼鑿子,鐵材、鐵條,120.38308,23.4926929
谷全實業有限公司二廠,S1000141,,嘉義縣溪口鄉柳溝村6鄰柳子溝2之10號,嘉義縣溪口鄉柳溝村,吳敏宏,24362066,有限公司,,1090810,生產中,08食品製造業、08食品製造業,086碾榖、磨粉及澱粉製品,,,,,
新寶珍食品有限公司,10000081,,嘉義縣六腳鄉蒜頭村蒜頭77之28號一樓,嘉義縣六腳鄉蒜頭村,王鼎中,53638649,有限公司,,1010809,生產中,08食品製造業,089其他食品,,蒜頭餅、鳳梨酥、大餅,,120.291725,23.49235
序豐興業有限公司,10000366,,嘉義縣竹崎鄉灣橋村朴子埔186號,嘉義縣竹崎鄉灣橋村,謝依芩,55996971,有限公司,,1080411,生產中,22塑膠製品製造業,220塑膠製品,,塑膠製品,,120.519981,23.4922752
玉豐冷凍工廠,99655986,07010000080139,嘉義縣義竹鄉龍蛟村義工三路７號,嘉義縣義竹鄉龍蛟村,翁重鈞,96851529,股份有限公司,0700429,0740205,生產中,33其他製造業,339未分類其他製品,,冰塊,,120.21981,23.3604221
嘉大化工原料有限公司,10000027,,嘉義縣水上鄉下寮村下寮100號,嘉義縣水上鄉下寮村,陳俊宏,66416872,有限公司,,1000628,生產中,19其他化學製品製造業,199未分類其他化學製品,,合成電鍍光澤劑,,120.406143,23.4519672
鴻錡興業股份有限公司,10000009,,嘉義縣太保市南新里北港路二段105巷87號,嘉義縣太保市南新里,顏英元,24437778,股份有限公司,,0991231,生產中,24基本金屬製造業、25金屬製品製造業,241鋼鐵、259其他金屬製品,http://www.soonport.com,鐵線、螺絲、鐵釘,,120.379692,23.4926929
崇越石英製造廠股份有限公司嘉義廠,99676028,,嘉義縣民雄鄉興南村工業一路11號,嘉義縣民雄鄉興南村,片岡正篤,12559233,股份有限公司,,0970320,生產中,,,,擴散石英管、擴散用石英船、矽晶體擴散石英器材,,120.43055,23.5184345
大祐工業股份有限公司,S1000047,,嘉義縣水上鄉龍德村三鎮路200之6附1號,嘉義縣水上鄉龍德村,鄭勝文,84360204,股份有限公司,,1090512,生產中,30汽車及其零件製造業,302車體,,,,,
嘉南氣體工業股份有限公司,99655161,06710000018497,嘉義縣太保市過溝里嘉太工業區興業路５號,嘉義縣太保市過溝里,邱德勝,66472374,股份有限公司,0580101,0680302,生產中,18化學原材料、肥料、氮化合物、塑橡膠原料及人造纖維製造業、20藥品及醫用化學製品製造業,181化學原材料、200藥品及醫用化學製品,,氧氣、氮氣、氬氣,液態氣體,120.358215,23.50962
國良工程,10000063,,嘉義縣朴子市內厝里北通路69號,嘉義縣朴子市內厝里,黃楷倫,26490376,獨資,,1010307,生產中,29機械設備製造業,292其他專用機械設備,,水利專用抽水機、擋水機,,120.244789,23.4696236
金豐盛開發有限公司新港廠,10000153,,嘉義縣新港鄉福德村9鄰福德路227號,嘉義縣新港鄉福德村,王幸悅,53641216,有限公司,,1031030,生產中,23非金屬礦物製品製造業,232耐火、黏土建材及其他陶瓷製品、233水泥及其製品、239其他非金屬礦物製品,,耐火、黏土建築材料及陶瓷製品，水泥及其製品ＣＬＳＭ，其他非金屬礦物製品,,120.338768,23.55789
金鑽燈飾有限公司,99655325,08710010001408,嘉義縣太保市春珠里春珠１６６號,嘉義縣太保市春珠里,陳香吟,89235249,有限公司,0870305,0880204,生產中,32家具製造業、28電力設備及配備製造業,322金屬家具、284照明設備及配備,,美術燈、吊燈裝配、流理臺裝配,,120.335655,23.4531765
世新塑膠企業有限公司,99655469,07710000161776,嘉義縣太保市麻寮里中山路二段９２巷５號,嘉義縣太保市麻寮里,蔡佾家,22698001,有限公司,0770128,0770128,生產中,22塑膠製品製造業,220塑膠製品,,塑膠製品,,120.372581,23.500227
理想農產加工廠,99655666,08010000080273,嘉義縣太保市過溝里八鄰１７之２號,嘉義縣太保市過溝里,徐崑益,06329059,獨資,0800118,0801212,生產中,08食品製造業,084動植物油脂,,大豆（黃豆）沙拉油,,120.354561,23.49234
永新農產加工廠,99654905,07710000183248,嘉義縣六腳鄉灣北村灣內２８６號,嘉義縣六腳鄉灣北村,洪文卿,06340224,獨資,0770229,0770229,生產中,08食品製造業,083蔬果加工,,酥花生,,120.308228,23.5065727
威芳企業股份有限公司,99655921,08210010083874,嘉義縣民雄鄉北斗村中山路42－1號,嘉義縣民雄鄉北斗村,陳彥汀,23229421,股份有限公司,0821005,0821019,生產中,25金屬製品製造業,259其他金屬製品,,粉體塗裝、五金加工、電腦桌,,120.45578,23.528326
環綺國際貿易股份有限公司,10000253,,嘉義縣大林鎮過溪里9鄰大埔美園區五路北段1號,嘉義縣大林鎮過溪里,鄧陳星,23339709,股份有限公司,,1060502,生產中,33其他製造業,339未分類其他製品,,二甲基亞楓、介面活性劑、純水、氫氧化鉀、塑料、抗靜電劑,二甲基亞楓、介面活性劑、純水、氫氧化鉀、塑料、抗靜電劑,120.511147,23.5845737
凱揚五金股份有限公司,99654928,07910000172707,嘉義縣民雄鄉福樂村成功五街６之２號,嘉義縣民雄鄉福樂村,邱添益,86801199,股份有限公司,0790621,0810601,生產中,25金屬製品製造業,254金屬加工處理,,五金零件電鍍加工,,120.449646,23.5225124
水信食品廠有限公司,99655777,06510000167803,嘉義縣六腳鄉六斗村六斗尾１１１號,嘉義縣六腳鄉六斗村,呂保岳,22079064,有限公司,0580101,0750327,生產中,08食品製造業,081肉類加工、082水產加工、089其他食品,,花枝丸、花枝排、蝦卷、蝦排,,120.297165,23.550354
金鉦企業社,99655746,07510010000455,嘉義縣水上鄉民生村成功街７巷１號,嘉義縣水上鄉民生村,何嘉彬,25740354,獨資,0750314,0750515,生產中,24基本金屬製造業,249其他基本金屬,,瓦斯軟管,,120.434479,23.4480953
新元工業股份有限公司,99655516,07510010003241,嘉義縣水上鄉寬士村崎仔頭25-1號,嘉義縣水上鄉寬士村,蔡川峯,24226534,股份有限公司,0751213,0760501,生產中,25金屬製品製造業、29機械設備製造業、30汽車及其零件製造業、31其他運輸工具及其零件製造業,251金屬刀具、手工具及模具、259其他金屬製品、293通用機械設備、319未分類其他運輸工具及其零件,,五金零件,,120.429741,23.4475536
興隆興工業股份有限公司三廠,10000455,,嘉義縣大林鎮中坑里大埔美園區三路55號,嘉義縣大林鎮中坑里,陳萬華,16228093,股份有限公司,,1090917,生產中,29機械設備製造業,293通用機械設備,,,,,
永豐圃農業科技股份有限公司,10000227,,嘉義縣中埔鄉裕民村石頭厝1之2號,嘉義縣中埔鄉裕民村,李克勤,42588235,股份有限公司,,1050823,生產中,18化學原材料、肥料、氮化合物、塑橡膠原料及人造纖維製造業,183肥料及氮化合物,,肥料,,120.515244,23.4305
伯仲酒品股份有限公司,10000101,,嘉義縣竹崎鄉鹿滿村7鄰麻箕埔91-1號,嘉義縣竹崎鄉鹿滿村,許展槐,53870879,股份有限公司,,1020503,生產中,09飲料製造業,091酒精飲料,,,,,
嘉馬股份有限公司,10000139,,嘉義縣太保市南新里北港路二段105巷46-1號,嘉義縣太保市南新里,楊宏明,16041956,股份有限公司,,1030310,生產中,29機械設備製造業,292其他專用機械設備,,其他專用機械設備,,120.379585,23.4945335
程泰機械股份有限公司大埔美廠,10000292,,嘉義縣大林鎮大美里19鄰大埔美園區三路68號,嘉義縣大林鎮大美里,楊德華,52353530,股份有限公司,,1061228,生產中,29機械設備製造業,291金屬加工用機械設備,http://www.goodwaycnc.com,ＣＮＣ車床,,120.514709,23.59824
新力造機工程有限公司,99656021,06510000030750,嘉義縣民雄鄉寮頂村頂寮64之6號,嘉義縣民雄鄉寮頂村,尤燈洲,66409470,有限公司,0580101,0650708,生產中,29機械設備製造業、25金屬製品製造業、28電力設備及配備製造業,293通用機械設備、281發電、輸電及配電機械、283電線及配線器材、289其他電力設備及配備,,鑿井設備,,120.427177,23.5717049
豐欣工業股份有限公司,99655092,07710000266109,嘉義縣民雄鄉北斗村成功二街２５號,嘉義縣民雄鄉北斗村,陳明雄,22972751,股份有限公司,0770809,0781227,生產中,29機械設備製造業,293通用機械設備,,自動洗車機,,120.457733,23.5248966
智丞桌椅廠大林廠,10000416,,嘉義縣大林鎮三和里中興路二段807號,嘉義縣大林鎮三和里,郭翁玉霞,34964453,獨資,,1090324,生產中,32家具製造業,322金屬家具,,,,,
全阜工程有限公司,10000094,,嘉義縣新港鄉三間村港尾2號,嘉義縣新港鄉三間村,何大明,12823326,有限公司,,1020318,生產中,25金屬製品製造業、25金屬製品製造業,252金屬結構及建築組件,,廠房鋼結構,,120.396561,23.52171
掌石企業股份有限公司番路廠,99656094,07210000104863,嘉義縣番路鄉新福村大庄３４之１號,嘉義縣番路鄉新福村,廖嘉雄,66494187,股份有限公司,0720725,0740912,生產中,23非金屬礦物製品製造業,233水泥及其製品、239其他非金屬礦物製品,,預拌混凝土,,120.529884,23.45762
高頻企業股份有限公司民雄廠,99655085,07910000182001,嘉義縣民雄鄉北斗村成功一街１９號,嘉義縣民雄鄉北斗村,鍾瑋哲,04266683,股份有限公司,0790621,0800128,生產中,19其他化學製品製造業,192塗料、染料及顏料,http://hilyte.com,粉體塗料、粉碎代工研磨、ＴＧＩＣ、ＭＥＬＡＭＩＮＥ,,120.455719,23.523035
閎信有限公司,99675944,,嘉義縣鹿草鄉後堀村山子腳５１號,嘉義縣鹿草鄉後堀村,陳玉書,27857061,有限公司,,0950404,生產中,23非金屬礦物製品製造業,239其他非金屬礦物製品,,碎石,,120.320778,23.4075851
三億食品原料有限公司二廠,10000207,,嘉義縣大林鎮平林里中正路230巷1弄5號,嘉義縣大林鎮平林里,何崑池,37509008,有限公司,,1050328,生產中,08食品製造業,089其他食品,,調味品,,120.450294,23.5983829
新穎機械工業股份有限公司嘉義廠,10000144,,嘉義縣大林鎮大美里19大埔美園區二路2號,嘉義縣大林鎮大美里,莊茂賓,12645358,股份有限公司,,1030627,生產中,29機械設備製造業、29機械設備製造業,292其他專用機械設備,http://www.sigmacnc.com.tw,其他專用機械設備，ＣＮＣ龍門切削加工中心機，數控磨床,鋼，鐵，鑄件,120.514946,23.5951424
宏仁興業股份有限公司嘉義二廠,10000145,,嘉義縣民雄鄉北斗村中正路47號,嘉義縣民雄鄉北斗村,吳學明,64901266,股份有限公司,,1030709,生產中,15紙漿、紙及紙製品製造業,159其他紙製品,,原紙,,120.453392,23.5191936
立峰商號,S1000105,,嘉義縣民雄鄉興南村頭橋196-1號,嘉義縣民雄鄉興南村,温美惠,17163962,獨資,,1090615,生產中,29機械設備製造業,293通用機械設備,,,,,
振良加工廠,99654803,08410010000378,嘉義縣布袋鎮振寮里２６號,嘉義縣布袋鎮振寮里,蕭清埤,06364421,獨資,0840126,0840225,生產中,11紡織業、12成衣及服飾品製造業,121成衣、123服飾品,,運動護具（腰帶．腳踝護膝手肘）．成衣,,120.165955,23.3909168
宏奇泵浦工業有限公司二廠,S1000007,,嘉義縣鹿草鄉後堀村16鄰後堀128號之1附1,嘉義縣鹿草鄉後堀村,黃世章,22238226,有限公司,,1090422,生產中,29機械設備製造業,293通用機械設備,,,,,
荷詩康股份有限公司,10000297,,嘉義縣大林鎮過溪里大埔美園區五路北段2號,嘉義縣大林鎮過溪里,李玉秀,12797930,股份有限公司,,1070209,生產中,29機械設備製造業,291金屬加工用機械設備,,,,,
永發碾米工廠,99655839,05810000012537,嘉義縣太保市南新里中正路１９１號,嘉義縣太保市南新里,葉宗智,67063307,獨資,0580101,0590301,生產中,08食品製造業,086碾榖、磨粉及澱粉製品,,,,,
福益機械工業股份有限公司,99655765,06710000209619,嘉義縣太保市過溝里嘉太工業區光復路７號,嘉義縣太保市過溝里,涂美華,66479411,股份有限公司,0580101,0700212,生產中,29機械設備製造業、25金屬製品製造業,292其他專用機械設備、293通用機械設備、251金屬刀具、手工具及模具,,,,,
立晨企業社,10000070,,嘉義縣水上鄉內溪村4鄰41號,嘉義縣水上鄉內溪村,賴沛瑩,17166428,獨資,,1010420,生產中,19其他化學製品製造業,193清潔用品,,偏鹼性的脂肪酸納、十二烷基苯磺酸、氫氧化納,,120.422112,23.4351921
伯鎔鑄造股份有限公司二廠,S1000144,,嘉義縣太保市南新里仁愛路6號,嘉義縣太保市南新里,游林金蓮,86413769,股份有限公司,,1091116,生產中,24基本金屬製造業,241鋼鐵,,,,,
隆呈塑膠有限公司,99654807,06210000123629,嘉義縣東石鄉蔦松村湖底２０之１３號,嘉義縣東石鄉蔦松村,呂樂毅,66364993,有限公司,0580101,0621017,生產中,22塑膠製品製造業,220塑膠製品,,再製塑膠粒、塑膠繩、塑膠袋,,120.220749,23.4677525
德庚國際股份有限公司一廠,99655046,07510000133574,嘉義縣新港鄉南港村南港路７號,嘉義縣新港鄉南港村,施雪惠,80248519,股份有限公司,0750621,0750621,生產中,22塑膠製品製造業,220塑膠製品,,塑膠製品,,120.317162,23.5579319
華邦國際工業股份有限公司,99675969,,嘉義縣太保市過溝里嘉太工業區中興路３號,嘉義縣太保市過溝里,侯宛妤,27813732,股份有限公司,,0950822,生產中,19其他化學製品製造業,192塗料、染料及顏料,http://www.winbandpowder.com,粉體塗料,,120.361809,23.508791
國華鐵櫃實業有限公司,S1000078,,嘉義縣太保市新埤里新埤342號,嘉義縣太保市新埤里,李嘉文,53642539,有限公司,,1090601,生產中,32家具製造業,322金屬家具,,,,,
嘉義縣六腳鄉農會,10000141,,嘉義縣六腳鄉六腳村六腳3號,嘉義縣六腳鄉六腳村,黃清閣,67033206,農會組織,,1030408,生產中,08食品製造業、08食品製造業,086碾榖、磨粉及澱粉製品,,碾榖、糙米、玉米,,120.2552,23.5077229
天珩機械股份有限公司,99654879,07510000075386,嘉義縣大林鎮三村里橋仔頭1之6號,嘉義縣大林鎮三村里,邱生添,66512164,股份有限公司,0750315,0750315,生產中,29機械設備製造業,293通用機械設備,http://www.bestpack.com.tw,包裝機械封箱機,,120.468346,23.6251087
晶洲陶藝有限公司,99655595,08210010002941,嘉義縣新港鄉大潭村後底湖９－１號,嘉義縣新港鄉大潭村,郭錦周,16952519,有限公司,0820510,0820513,生產中,23非金屬礦物製品製造業、11紡織業,232耐火、黏土建材及其他陶瓷製品,,陶瓷製品,,120.366249,23.5451756
新健全企業股份有限公司,99655739,07510000272092,嘉義縣太保市過溝里建工路６號,嘉義縣太保市過溝里,蔡慶賢,59222133,股份有限公司,0751007,0790412,生產中,08食品製造業,089其他食品,http://www.taiwanhvp.com,醬油醬菜類之原料製造、大豆胺基酸液、非基因改造大豆胺基酸液,脫脂大豆片、食品用鹽酸、非基因改造脫脂大豆片（食品級）,120.360748,23.50778
雄豐化工廠有限公司,99654805,07710000188565,嘉義縣中埔鄉和興村後庄３９巷１７１號,嘉義縣中埔鄉和興村,潘抉雄,22784998,有限公司,0770527,0770704,生產中,19其他化學製品製造業,194化粧品,,染髮劑,,120.45652,23.4500065
順宥欣雷射工業股份有限公司大埔美廠,10000294,,嘉義縣大林鎮中坑里1鄰大埔美園區三路3號,嘉義縣大林鎮中坑里,王振添,12779617,股份有限公司,,1070111,生產中,25金屬製品製造業,254金屬加工處理,,鋼材二次加工雷射切割、其他金屬製品,,120.505646,23.5807056
金鼎鑄造股份有限公司,10000082,,嘉義縣民雄鄉福樂村中華路86-1號,嘉義縣民雄鄉福樂村,黃素月,53835178,股份有限公司,,1010827,生產中,24基本金屬製造業,241鋼鐵,,鑄鐵件,,120.4557,23.5257187
德興傢俱行,99654941,08310010007665,嘉義縣太保市南新里北港路二段１０５巷１２號,嘉義縣太保市南新里,廖隆興,87974205,獨資,0831219,0840123,生產中,32家具製造業,321非金屬家具,,各種傢俱裝配,,120.380013,23.49594
鴻達企業社,99655328,08310010000950,嘉義縣太保市南新里北港路二段１０５巷１８弄５號,嘉義縣太保市南新里,葉莉莉,78464883,獨資,0830223,0830307,生產中,25金屬製品製造業,259其他金屬製品,,瓦斯爐零配件裝配,,120.379509,23.4957581
國際通企業股份有限公司二廠,10000451,,嘉義縣民雄鄉興南村工業一路5之2號,嘉義縣民雄鄉興南村,林憲揚,86535616,股份有限公司,,1090916,生產中,25金屬製品製造業,253金屬容器,,,,,
秀和興業股份有限公司,99655316,07610000269261,嘉義縣民雄鄉北斗村中正路１５號,嘉義縣民雄鄉北斗村,鄭清添,22662236,股份有限公司,0761003,0770923,生產中,26電子零組件製造業,262被動電子元件、269其他電子零組件,,,,,
洸洋化學製藥股份有限公司嘉義廠,99654788,07810000182256,嘉義縣民雄鄉北斗村新生街１０之１號,嘉義縣民雄鄉北斗村,蔡文信,15013427,股份有限公司,0780217,0820913,生產中,08食品製造業,089其他食品,http://www.kowngyoung.com/,食品添加物品質改良劑、調味劑、品質保存劑,,120.46003,23.5256271
進泰股份有限公司,10000041,,嘉義縣朴子市竹圍里光復新路93巷20號,嘉義縣朴子市竹圍里,張美芝,23199025,股份有限公司,,1001021,生產中,33其他製造業,332醫療器材及用品、339未分類其他製品,,護具,,120.244675,23.4578133
遠廣工業股份有限公司,99675708,,嘉義縣民雄鄉北斗村中興一街16號,嘉義縣民雄鄉北斗村,劉百傑,97005972,股份有限公司,,0910821,生產中,21橡膠製品製造業,210橡膠製品,,橡膠製品,,120.45977,23.5195675
三合豐農產物加工廠,99655683,07310010000655,嘉義縣鹿草鄉下麻村十一鄰四之二號,嘉義縣鹿草鄉下麻村,翁陳素惠,66637328,獨資,0730511,0730629,生產中,08食品製造業,086碾榖、磨粉及澱粉製品,,糠仔,,120.341293,23.415781
光泉牧場股份有限公司嘉義廠,99654714,07710000276154,嘉義縣民雄鄉北斗村成功街1號、成功二街8號、成功街2號,嘉義縣民雄鄉北斗村,汪林祥,04313172,股份有限公司,0771005,0800522,生產中,08食品製造業、09飲料製造業,085乳品、089其他食品、092非酒精飲料,http://kuangchuan.com/,鮮乳，調味乳，米豆漿，茶類飲料,,120.452286,23.5203056
宜順工業有限公司溪口廠,10000360,,嘉義縣溪口鄉美南村崙尾79-16號,嘉義縣溪口鄉美南村,林秀月,16370350,有限公司,,1080218,生產中,32家具製造業、32家具製造業,322金屬家具,,金屬家具,,120.383873,23.5834255
尚鴻消防科技有限公司,10000425,,嘉義縣太保市南新里北港路二段105巷14號,嘉義縣太保市南新里,何勝峯,85123398,有限公司,,1090522,生產中,26電子零組件製造業,269其他電子零組件,,,,,
龍利興業有限公司,99675955,,嘉義縣義竹鄉龍蛟村１５鄰義工三路１號,嘉義縣義竹鄉龍蛟村,林政憲,27907935,有限公司,,0950517,生產中,30汽車及其零件製造業,303汽車零件,,車燈,,120.219879,23.3595371
尚融實業有限公司,99655124,08510010000730,嘉義縣東石鄉洲仔村１２３－１號,嘉義縣東石鄉洲仔村,莊喜皓,89724128,有限公司,0850212,0850302,生產中,32家具製造業、28電力設備及配備製造業,322金屬家具、285家用電器,,折疊椅、椅子、橋牌椅,,120.189781,23.4554577
重宙企業股份有限公司,99655917,07710000288847,嘉義縣民雄鄉北斗村中山路４２號,嘉義縣民雄鄉北斗村,黃芳奎,22709056,股份有限公司,0780104,0820615,生產中,32家具製造業,322金屬家具,,電腦桌，架，椅,,120.45578,23.528326
茂盈實業有限公司,10000034,,嘉義縣太保市南新里北港路2段105巷18弄17號,嘉義縣太保市南新里,陳儒,27406334,有限公司,,1000812,生產中,14木竹製品製造業,140木竹製品,http://www.maowyin.com,木材半成品,,120.379341,23.4959564
大同豆粉工廠,99654769,07010000162773,嘉義縣朴子市竹村里朴子工業區二街１０號,嘉義縣朴子市竹村里,楊吳玉愛,66583343,獨資,0701013,0830224,生產中,08食品製造業,086碾榖、磨粉及澱粉製品,,豆沙粉,,120.248505,23.4381313
誠鴻實業有限公司太保廠,10000315,,嘉義縣太保市梅埔里梅子厝65-3號,嘉義縣太保市梅埔里,蔡信來,96855567,有限公司,,1070518,生產中,33其他製造業、33其他製造業、29機械設備製造業、28電力設備及配備製造業,339未分類其他製品、293通用機械設備、283電線及配線器材,,汙水處理槽工程,,120.341629,23.44342
昕晁有限公司,10000209,,嘉義縣大林鎮明華里中正路185號,嘉義縣大林鎮明華里,江笠瑜,53807601,有限公司,,1050427,生產中,28電力設備及配備製造業,285家用電器,,微氣泡機、納米蒸氣噴槍、吹風機、電剪、離子夾,,120.449196,23.5987129
僑偉塑膠機械有限公司二廠,S1000012,,嘉義縣水上鄉大堀村大堀尾50-8號,嘉義縣水上鄉大堀村,葉永燦,22211021,有限公司,,1090425,生產中,29機械設備製造業,292其他專用機械設備,,,,,
萬萬發企業有限公司二廠,10000254,,嘉義縣朴子市大鄉里6鄰大槺榔219-3號,嘉義縣朴子市大鄉里,蔡嘉峯,89810720,有限公司,,1060519,生產中,12成衣及服飾品製造業,121成衣,,成衣,,120.260483,23.4593811
西洋魚具工業股份有限公司,99655593,07710000163677,嘉義縣中埔鄉富收村富和路382號,嘉義縣中埔鄉富收村,傅進益,66472162,股份有限公司,0770302,0770302,生產中,33其他製造業,331育樂用品,,玻璃纖維釣具,,120.4693,23.4480076
文僑企業股份有限公司,S1000108,,嘉義縣六腳鄉溪厝村溪墘厝60號,嘉義縣六腳鄉溪厝村,柳鈞耀,97186609,股份有限公司,,1090615,生產中,22塑膠製品製造業,220塑膠製品,,,,,
臺灣營德股份有限公司新港廠,10000150,,嘉義縣新港鄉中洋村中洋工業區3號,嘉義縣新港鄉中洋村,柯雲飛,24740217,股份有限公司,,1030930,生產中,22塑膠製品製造業,220塑膠製品,,一般塑膠袋,,120.386116,23.51827
凱致保健科技有限公司,99675792,,嘉義縣太保市南新里北港路二段１３７號,嘉義縣太保市南新里,李麗雲,80419013,有限公司,,0920828,生產中,27電腦、電子產品及光學製品製造業,276輻射及電子醫學設備,,醫療器材及設備,,120.379608,23.4968033
易強企業有限公司,S1000067,,嘉義縣水上鄉粗溪村粗溪90號附1,嘉義縣水上鄉粗溪村,陳春財,22135349,有限公司,,1090521,生產中,25金屬製品製造業,259其他金屬製品,,,,,
貴族實業股份有限公司一廠,10000452,,嘉義縣溪口鄉疊溪村下員林79號,嘉義縣溪口鄉疊溪村,劉翠芬,22655544,股份有限公司,,1090918,生產中,33其他製造業、33其他製造業,332醫療器材及用品,,,,,
北回化學股份有限公司,99655079,08310010154837,嘉義縣民雄鄉北斗村中正路８號,嘉義縣民雄鄉北斗村,陳芳斌,84675582,股份有限公司,0830519,0830725,生產中,,,http://www.mxbon.com,接著劑,,120.460518,23.5209923
金佑星工業社,99655720,07710000172817,嘉義縣太保市梅埔里梅子厝６４之１２號,嘉義縣太保市梅埔里,官水三,06299724,獨資,0770222,0770222,生產中,25金屬製品製造業,251金屬刀具、手工具及模具,,鐵管加工,,120.342461,23.4404736
神之香股份有限公司,10000318,,嘉義縣朴子市竹村里朴子工業區3街61號,嘉義縣朴子市竹村里,林志祥,66645116,股份有限公司,,1070605,生產中,33其他製造業、33其他製造業,339未分類其他製品,,線香、香環加工,,120.249306,23.4399986
興昌工業社,99675539,08310010001402,嘉義縣民雄鄉秀林村林子尾９６號,嘉義縣民雄鄉秀林村,金添基,78461844,獨資,0830317,0830425,生產中,25金屬製品製造業,251金屬刀具、手工具及模具,,鐵板,,120.471947,23.5122128
晶都傢俱有限公司,99654707,08910010900346,嘉義縣水上鄉下寮村中山路三段562號,嘉義縣水上鄉下寮村,侯繼仁,12605216,有限公司,0891122,0900611,生產中,32家具製造業、28電力設備及配備製造業,321非金屬家具,,非金屬家具及裝設品,,120.421677,23.4599857
宏鎰工業股份有限公司,99654997,07610010001661,嘉義縣水上鄉粗溪村中山路二段423號,嘉義縣水上鄉粗溪村,李淑敏,66652896,股份有限公司,0761118,0780412,生產中,28電力設備及配備製造業,289其他電力設備及配備,,熱溶槍、溶膠爐、熱溶膠,,120.399742,23.4355869
鑫振實業有限公司,99655197,08710010001328,嘉義縣朴子市佳禾里大館６號,嘉義縣朴子市佳禾里,涂郁嘉,97375101,有限公司,0870303,0870313,生產中,24基本金屬製造業、25金屬製品製造業,241鋼鐵、254金屬加工處理,,金屬結構製造,,120.258881,23.4423981
省輝工業股份有限公司,99655895,07510010000299,嘉義縣水上鄉三和村中山路三段２１１號,嘉義縣水上鄉三和村,鄭文發,22381926,股份有限公司,0750220,0760716,生產中,30汽車及其零件製造業、31其他運輸工具及其零件製造業,301汽車、302車體、303汽車零件、319未分類其他運輸工具及其零件,,車體打造、汽車零件、拖車,,120.41552,23.45423
兆赫電子股份有限公司民雄廠,99655597,08610010006305,嘉義縣民雄鄉福興村八鄰牛稠溪１－６１號,嘉義縣民雄鄉福興村,黃啟瑞,12320400,股份有限公司,0860917,0880303,生產中,27電腦、電子產品及光學製品製造業、26電子零組件製造業,272通訊傳播設備、273視聽電子產品、274資料儲存媒體、269其他電子零組件,,數位有線視訊傳輸系統、數位衛星通訊傳輸系統、數位視訊轉換器產品,,120.427307,23.51114
銳泰精密工具股份有限公司嘉義一廠,10000431,,嘉義縣大林鎮大美里大埔美園區二路3號,嘉義縣大林鎮大美里,游祥鎮,97575467,股份有限公司,,1090701,生產中,25金屬製品製造業,259其他金屬製品,,,,,
正鎧光電股份有限公司,10000311,,嘉義縣義竹鄉頭竹村下寮5之1號,嘉義縣義竹鄉頭竹村,黃月玲,25032459,股份有限公司,,1070517,生產中,28電力設備及配備製造業,285家用電器,,家電用品組裝,,120.228,23.3284779
台灣化學纖維股份有限公司新港廠,99655041,07610000121934,嘉義縣新港鄉中洋村中洋工業區１號,嘉義縣新港鄉中洋村,李青芬,84309636,股份有限公司,0760410,0771207,生產中,11紡織業、15紙漿、紙及紙製品製造業、18化學原材料、肥料、氮化合物、塑橡膠原料及人造纖維製造業、29機械設備製造業,111紡紗、112織布、152瓦楞紙板及紙容器、185人造纖維、184塑膠及合成橡膠原料、292其他專用機械設備,http://www.fpg.com.tw,嫘縈紗，Ｔ／Ｃ混紡紗及布，嫘縈布,,120.375244,23.525753
金股企業股份有限公司,S1000050,,嘉義縣大林鎮三角里9鄰下林頭7-1號,嘉義縣大林鎮三角里,陳建志,70723606,股份有限公司,,1090514,生產中,32家具製造業,321非金屬家具,,,,,
鴻錡興業股份有限公司南新廠,10000283,,嘉義縣太保市南新里北港路二段105巷58號,嘉義縣太保市南新里,顏英元,24437778,股份有限公司,,1061121,生產中,25金屬製品製造業,259其他金屬製品,http://www.soonport.com,螺絲，鐵釘,,120.37944,23.493515
宏榮鑄造有限公司,10000274,,嘉義縣太保市過溝里嘉太工業區光復路18號,嘉義縣太保市過溝里,黃吉和,24912392,有限公司,,1060926,生產中,24基本金屬製造業,241鋼鐵,,模具鑄造之金屬製品如幫浦之金屬上蓋下蓋等,,120.359726,23.5057621
昌廣有限公司,99675730,,嘉義縣水上鄉下寮村鴿溪寮３８號,嘉義縣水上鄉下寮村,柯家穗,16992836,有限公司,,0911122,生產中,25金屬製品製造業、29機械設備製造業,252金屬結構及建築組件、291金屬加工用機械設備、293通用機械設備,,金屬結構及建築組件、金屬加工用機械,鐵材,120.421165,23.4569263
鴻石碎石有限公司番路廠,99675674,07510010002608,嘉義縣番路鄉新福村大庄29之8號,嘉義縣番路鄉新福村,林昭良,66534202,有限公司,0750930,0760417,生產中,23非金屬礦物製品製造業,239其他非金屬礦物製品,,砂石、碎石,,120.530373,23.4563274
裕民企業行,10000065,,嘉義縣中埔鄉裕民村9鄰水仔尾25-6號,嘉義縣中埔鄉裕民村,朱廷鈞,66648253,獨資,,1010402,生產中,23非金屬礦物製品製造業,233水泥及其製品,,預拌混凝土,,120.498184,23.4358425
嘉美工業股份有限公司,99655766,06510000133857,嘉義縣太保市過溝里嘉太工業區中興路５號,嘉義縣太保市過溝里,劉勝輝,04410343,股份有限公司,0580101,0661108,生產中,25金屬製品製造業、30汽車及其零件製造業,251金屬刀具、手工具及模具、301汽車,,,,,
連凱工程有限公司,10000120,,嘉義縣六腳鄉正義村大橋頭361號,嘉義縣六腳鄉正義村,黃雅惠,36632000,獨資,,1020826,生產中,25金屬製品製造業、25金屬製品製造業,252金屬結構及建築組件,,鋼構、不鏽鋼門,,120.248741,23.4778576
昭惠實業股份有限公司嘉義二廠,10000398,,嘉義縣朴子市大鄉里大槺榔179-53號,嘉義縣朴子市大鄉里,黃惠豐,36216790,股份有限公司,,1081205,生產中,20藥品及醫用化學製品製造業、33其他製造業,200藥品及醫用化學製品、332醫療器材及用品,,藥品及醫用化學製品，醫療器材及用品,,120.261169,23.4664421
雄宇事業有限公司民雄廠,10000104,,嘉義縣民雄鄉秀林村溪底寮20-7號,嘉義縣民雄鄉秀林村,崔震宇,28721850,有限公司,,1020529,生產中,22塑膠製品製造業,220塑膠製品,http://www.hsiung-yu.com,塑膠波紋管,,120.465706,23.50658
群鋼實業股份有限公司,99655394,08110010004590,嘉義縣東石鄉西崙村栗子崙８６號,嘉義縣東石鄉西崙村,鄭明山,86525217,股份有限公司,0810630,0810716,生產中,24基本金屬製造業、25金屬製品製造業,241鋼鐵、254金屬加工處理,,不銹鋼管加工,,120.188171,23.4328938
芊達精密工業有限公司,10000429,,嘉義縣太保市南新里北港路二段105巷34號,嘉義縣太保市南新里,林昱甫,24898096,有限公司,,1090618,生產中,29機械設備製造業,293通用機械設備,,,,,
日興堂食品廠,99656088,08910010900043,嘉義縣新港鄉南港村南港１６號,嘉義縣新港鄉南港村,郭献玉,17169993,獨資,0890218,0890303,生產中,08食品製造業、09飲料製造業,089其他食品,,餅乾、西點,,120.314857,23.5612335
彥洲有限公司,S1000085,,嘉義縣太保市舊埤里新埤5-28號,嘉義縣太保市舊埤里,蘇己祥,86665589,有限公司,,1090601,生產中,25金屬製品製造業,259其他金屬製品,,,,,
暢泰機械工業有限公司,99655532,07910010001277,嘉義縣大林鎮排路里排子路201號,嘉義縣大林鎮排路里,劉豐毓,23845311,有限公司,0790913,0791006,生產中,29機械設備製造業,292其他專用機械設備,,紡織機械裝配、機械零件加工,,120.421806,23.6119461
育晉興業股份有限公司,99654959,07510000060709,嘉義縣太保市過溝里嘉太工業區光復路２２號,嘉義縣太保市過溝里,陳麗琚,22059222,股份有限公司,0750116,0751126,生產中,11紡織業、12成衣及服飾品製造業,115紡織品,,嬰兒棉被，嬰兒枕頭，嬰兒背帶，椅墊,,120.358818,23.5061188
豐華生物科技股份有限公司嘉義廠,99655978,,嘉義縣民雄鄉北斗村６鄰新生街１０號,嘉義縣民雄鄉北斗村,郭仲偉,29048989,股份有限公司,,0910206,生產中,08食品製造業,089其他食品,http://www.glac.com.tw/index_glac.php,固態乳酸菌,,120.46003,23.5256271
嵂洧企業有限公司,99675975,,嘉義縣竹崎鄉復金村８鄰復鼎金１０之７號,嘉義縣竹崎鄉復金村,林奕利,80470030,有限公司,,0951004,生產中,08食品製造業,081肉類加工,,香腸,腸衣、豬肉,120.573425,23.5256386
聯成電機股份有限公司水上廠,10000247,,嘉義縣水上鄉龍德村十一指厝75之28號,嘉義縣水上鄉龍德村,黃振興,23074833,股份有限公司,,1060327,生產中,28電力設備及配備製造業,281發電、輸電及配電機械,http://lan-chang.com,馬達,,120.390152,23.4209766
竣結工業股份有限公司嘉義廠,99655444,08010010001452,嘉義縣水上鄉水上村中華路１９９巷３５號,嘉義縣水上鄉水上村,周錫利,89282690,股份有限公司,0800803,0800815,生產中,25金屬製品製造業,251金屬刀具、手工具及模具,,立式千斤頂、氣動千斤頂、油壓千斤頂,,120.403488,23.4259
喜運盛實業有限公司嘉義廠,99676104,,嘉義縣水上鄉水上村中華路199巷27號,嘉義縣水上鄉水上村,蘇碧蓮,25042490,有限公司,,0990517,生產中,11紡織業,111紡紗,,,,,
欣冠達股份有限公司,10000076,,嘉義縣民雄鄉東榮村建國路一段301號,嘉義縣民雄鄉東榮村,李昆霖,25178051,股份有限公司,,1010606,生產中,08食品製造業,081肉類加工、082水產加工、089其他食品,,豬肉、雞肉、羊肉、牛肉,,120.433533,23.5604286
泰陽道安科技股份有限公司,10000279,,嘉義縣大林鎮中坑里1鄰大埔美園區二十路10號,嘉義縣大林鎮中坑里,陳新民,16687625,股份有限公司,,1061103,生產中,21橡膠製品製造業、21橡膠製品製造業,210橡膠製品,,橡膠Ｌ型護邊條,,120.504593,23.5803051
唐聚企業股份有限公司大埔美廠,10000291,,嘉義縣大林鎮中坑里大埔美園區二十路6號,嘉義縣大林鎮中坑里,林永鴻,22403793,股份有限公司,,1061219,生產中,22塑膠製品製造業,220塑膠製品,,紙袋ＰＥ編織布ＰＰ編織袋織布機編織機,ＨＤＰＥ塑膠粒、ＬＤＰＥ塑膠粒、牛皮紙、鋼材、鐵材,120.503113,23.58092
千睦有限公司,10000280,,嘉義縣水上鄉塗溝村下塗溝20-1號,嘉義縣水上鄉塗溝村,朱進丁,80244302,有限公司,,1061110,生產中,29機械設備製造業,293通用機械設備,http://www.e-chienmu.com.tw,抽排風機．廢棄洗滌塔,,120.364555,23.4596977
上永泰股份有限公司,99655428,08710010007660,嘉義縣六腳鄉崩山村後崩山102號,嘉義縣六腳鄉崩山村,謝沂達,16674065,股份有限公司,0871111,0871202,生產中,25金屬製品製造業、29機械設備製造業,259其他金屬製品、293通用機械設備,,銅接頭,,120.227875,23.5036469
嘉鋼精密工業股份有限公司加工廠,10000037,,嘉義縣民雄鄉北斗村成功二街21號,嘉義縣民雄鄉北斗村,曹光照,66402912,股份有限公司,,1000812,生產中,25金屬製品製造業,254金屬加工處理,,汽車零件，油壓零件，農機零件，產業機械零件，加工,,120.457184,23.5247574
亞璋工業股份有限公司,99655402,08010000092184,嘉義縣朴子市竹村里橫一街１１號,嘉義縣朴子市竹村里,呂金順,22136620,股份有限公司,0800429,0810320,生產中,29機械設備製造業、25金屬製品製造業、30汽車及其零件製造業、31其他運輸工具及其零件製造業,293通用機械設備、251金屬刀具、手工具及模具、301汽車、302車體、303汽車零件,,模具，汽車零件剎車鼓，水泵浦，水泵浦修,,120.24897,23.4371929
天珩機械股份有限公司嘉太廠,99675852,,嘉義縣太保市過溝里嘉太工業區中興路８號,嘉義縣太保市過溝里,邱生添,66512164,股份有限公司,,0930719,生產中,29機械設備製造業,292其他專用機械設備,http://www.bestpack.com.tw,包裝機械、專用生產機械,,120.359367,23.5074463
伍蓮香業開發有限公司新興二廠,S1000088,,嘉義縣新港鄉菜公村菜公厝23-8號,嘉義縣新港鄉菜公村,陳文忠,97391411,有限公司,,1090603,生產中,33其他製造業、33其他製造業,339未分類其他製品,,,,,
嘉義縣鹿草鄉農會下潭廠,99655452,07110000060262,嘉義縣鹿草鄉下潭村457號,嘉義縣鹿草鄉下潭村,王清松,67260004,農會組織,0580101,0710413,生產中,08食品製造業,086碾榖、磨粉及澱粉製品,,食米，稻谷及玉米烘乾,,120.290909,23.3784752
晨達企業股份有限公司嘉義廠弍廠,10000266,,嘉義縣新港鄉福德村福德路121巷16號,嘉義縣新港鄉福德村,何達煌,30861201,股份有限公司,,1060816,生產中,25金屬製品製造業,259其他金屬製品,,ＣＧＦ機械風管,,120.338722,23.5558586
"立    企業有限公司",99654982,08810010063378,嘉義縣布袋鎮岑海里新南路１５７、１５９號,嘉義縣布袋鎮岑海里,周靜儀,16358383,有限公司,0880501,0880802,生產中,19其他化學製品製造業,194化粧品,,,,,
共輪金屬工業股份有限公司,99654831,07710000266108,嘉義縣民雄鄉北斗村成功街３６號,嘉義縣民雄鄉北斗村,邱聰安,22950742,股份有限公司,0770809,0780707,生產中,24基本金屬製造業,241鋼鐵,,鑄鐵活塞環、汽車零件,,120.456947,23.5214539
台灣阿米諾酸股份有限公司嘉義工廠,99655160,07110000115126,嘉義縣太保市過溝里嘉太工業區中興路１７號,嘉義縣太保市過溝里,蔡德昌,83442930,股份有限公司,0710623,0740713,生產中,18化學原材料、肥料、氮化合物、塑橡膠原料及人造纖維製造業、08食品製造業,183肥料及氮化合物、087動物飼品,,氨基酸原液及粉末、肥料,,120.357315,23.5093174
永聖包裝股份有限公司嘉義廠,10000114,,嘉義縣民雄鄉北斗村工業區中興一街14號,嘉義縣民雄鄉北斗村,蔡登發,24377103,股份有限公司,,1020716,生產中,22塑膠製品製造業,220塑膠製品,,印刷收縮膜（瓶裝飲料外標籤）、收縮膜,,120.461411,23.5412579
澳豐複材科技股份有限公司,10000424,,嘉義縣大林鎮大美里大埔美園區三路60號,嘉義縣大林鎮大美里,蒲長秬,85131616,股份有限公司,,1090521,生產中,22塑膠製品製造業,220塑膠製品,,,,,
欣業企業股份有限公司,99655186,06510000012609,嘉義縣竹崎鄉灣橋村朴子埔181號,嘉義縣竹崎鄉灣橋村,劉通霖,66274331,股份有限公司,0580101,0650204,生產中,,,,戶外休閒椅,,120.512856,23.48992
琪樂薇股份有限公司,10000262,,嘉義縣新港鄉月潭村月眉潭230之20號,嘉義縣新港鄉月潭村,蔡其瑞,53038645,股份有限公司,,1060713,生產中,09飲料製造業,091酒精飲料,,高粱，小麥,,120.350952,23.52418
德山製藥股份有限公司,99655210,07610000255297,嘉義縣民雄鄉福樂村民雄工業區中山路３８號,嘉義縣民雄鄉福樂村,李先茹,66372059,股份有限公司,0760722,0770905,生產中,20藥品及醫用化學製品製造業、33其他製造業,200藥品及醫用化學製品、332醫療器材及用品,,科學中藥、德山菲比藥膠布、德國辣椒膏、吩坦尼穿皮貼片劑,,120.454765,23.5276527
新瑩裕塑膠工業有限公司,99656141,06310000105556,嘉義縣東石鄉永屯村屯子頭１２－２號,嘉義縣東石鄉永屯村,李周玉秀,66346790,有限公司,0580101,0630813,生產中,22塑膠製品製造業、28電力設備及配備製造業,220塑膠製品、283電線及配線器材,,,,,
詮聯金屬工業股份有限公司,99655245,07610000314143,嘉義縣朴子市竹村里朴子工業區橫二街６號,嘉義縣朴子市竹村里,楊泗,86543073,股份有限公司,0761201,0820909,生產中,25金屬製品製造業、29機械設備製造業,254金屬加工處理、259其他金屬製品、293通用機械設備、251金屬刀具、手工具及模具,,螺絲、模具、手工具等之熱處理,,120.245232,23.4646931
瑞成油廠,99655185,07510000269132,嘉義縣竹崎鄉竹崎村中山路１１２號,嘉義縣竹崎鄉竹崎村,林長成,65688208,獨資,0751002,0751002,生產中,08食品製造業,084動植物油脂,,食用油之製造（花生油茶油麻油）,,120.550812,23.521904
禾豐精密機械股份有限公司,99676099,,嘉義縣民雄鄉北斗村中正路２號,嘉義縣民雄鄉北斗村,吳學明,28524035,股份有限公司,,0990225,生產中,15紙漿、紙及紙製品製造業,151紙漿、紙、紙板、152瓦楞紙板及紙容器,http://herfon-machinery.com/,原紙、機器,,120.455315,23.518013
源春製油廠,99655545,07510000269133,嘉義縣梅山鄉梅北村中正路１３８號,嘉義縣梅山鄉梅北村,吳鎮鍾,65672959,獨資,0751004,0751004,生產中,08食品製造業,084動植物油脂,https://oiltea.com.tw/,食用油製造加工，花生油，茶籽油,花生芝麻茶籽,120.558052,23.5839863
大林機械廠股份有限公司,99675657,06910000247663,嘉義縣大林鎮三村里湖子２８之２號,嘉義縣大林鎮三村里,詹遂顯,66644616,股份有限公司,0580101,0700429,生產中,29機械設備製造業、25金屬製品製造業,293通用機械設備、251金屬刀具、手工具及模具,,電動抽水機,,120.463211,23.6118
鼎漢不銹鋼材料行,S1000066,,嘉義縣水上鄉水上村順興街116號,嘉義縣水上鄉水上村,章雅媚,93943624,獨資,,1090521,生產中,25金屬製品製造業,252金屬結構及建築組件,,,,,
秉和企業社,S1000097,,嘉義縣梅山鄉梅北村中山路709號,嘉義縣梅山鄉梅北村,郭濬嘉,26497981,獨資,,1090610,生產中,15紙漿、紙及紙製品製造業,159其他紙製品,,,,,
福年企業股份有限公司,99655309,08310010151942,嘉義縣民雄鄉北斗村中正路１０號,嘉義縣民雄鄉北斗村,沈聰信,23589255,股份有限公司,0830305,0830421,生產中,25金屬製品製造業、29機械設備製造業,254金屬加工處理、293通用機械設備,,銲接型鋼,,120.460205,23.5210667
亞竹企業股份有限公司,99655938,08210010073126,嘉義縣民雄鄉北斗村成功一街３４號,嘉義縣民雄鄉北斗村,蕭見聰,22711335,股份有限公司,0820428,0821012,生產中,22塑膠製品製造業,220塑膠製品,,塑膠飾條、塑膠仿木,,120.457542,23.522934
南錩汽車工業股份有限公司,99655490,07210000165135,嘉義縣太保市南新里南埤路１００號,嘉義縣太保市南新里,盧惠美,86364325,股份有限公司,0720810,0730618,生產中,30汽車及其零件製造業,302車體,,車體打造車體板金修理車體噴漆,,120.385262,23.4925957
燿新塑膠機械有限公司,99675557,08210010007052,嘉義縣水上鄉下寮村鴿溪寮２０－１號,嘉義縣水上鄉下寮村,李仁榮,84604089,有限公司,0821018,0821102,生產中,29機械設備製造業、25金屬製品製造業,292其他專用機械設備,http://www.yaohsin.com,ＰＥ淋膜機、擴管機、押出機、其他塑膠機械製造及維修,,120.421227,23.4559479
冠發鋼鐵股份有限公司大埔美廠,10000354,,嘉義縣大林鎮中坑里大埔美園區一路6號、6-1號、6-2號、6-3號,嘉義縣大林鎮中坑里,張明順,52648916,股份有限公司,,1071224,生產中,25金屬製品製造業,254金屬加工處理,,,,,
鑫農工業股份有限公司水上廠,99655896,07010010156472,嘉義縣水上鄉大堀村江竹仔腳３之１２號,嘉義縣水上鄉大堀村,侯文麟,66626645,股份有限公司,0700901,0721214,生產中,29機械設備製造業、30汽車及其零件製造業、31其他運輸工具及其零件製造業,292其他專用機械設備、303汽車零件、312機車及其零件,,,,,
順億產業有限公司北回工廠,99654782,06210000019100,嘉義縣水上鄉回歸村北回63號,嘉義縣水上鄉回歸村,林文村,66641435,有限公司,0580101,0650907,生產中,08食品製造業,087動物飼品,,配合飼料,,120.414894,23.4485741
瑞興人造柴工廠,99654936,07410010000743,嘉義縣民雄鄉秀林村溪底寮3之81號,嘉義縣民雄鄉秀林村,黃立騰,06285545,獨資,0740530,0740620,生產中,33其他製造業,339未分類其他製品,,,,,
佛大工業股份有限公司,99655918,07710000283662,嘉義縣民雄鄉北斗村中山路４８號,嘉義縣民雄鄉北斗村,范人文,34050302,股份有限公司,0771118,0790515,生產中,29機械設備製造業,292其他專用機械設備,http://fordah.com.tw,印刷機械（印刷機、截切機）,,120.457161,23.5291443
鴻耀開發工業有限公司,99675927,,嘉義縣溪口鄉妙崙村１鄰新興庄１８號,嘉義縣溪口鄉妙崙村,高榮貴,70593337,有限公司,,0941201,生產中,32家具製造業、25金屬製品製造業、32家具製造業,251金屬刀具、手工具及模具、252金屬結構及建築組件、322金屬家具,,節管、網片、金屬家具及裝設品、金屬手工具、金屬結構及建築組件,,120.413437,23.5902576
盈統實業股份有限公司,99676052,,嘉義縣竹崎鄉昇平村１２鄰昇平１之８號,嘉義縣竹崎鄉昇平村,葉木發,66605748,股份有限公司,,0970916,生產中,22塑膠製品製造業,220塑膠製品,,塑膠刷,,120.553513,23.4842625
立興製線股份有限公司,99655750,06910000186378,嘉義縣中埔鄉和美村司公４２之４０號,嘉義縣中埔鄉和美村,趙美鳳,84073759,股份有限公司,0580101,0700703,生產中,11紡織業,111紡紗,,絲線、人造纖維,,120.473846,23.458622
慶鴻機電工業股份有限公司大埔美廠,10000387,,嘉義縣大林鎮大美里大埔美園區二路6號,嘉義縣大林鎮大美里,王武雄,52307500,股份有限公司,,1080920,生產中,29機械設備製造業,291金屬加工用機械設備,http://www.chmer.com/tw,線切割機、放電加工機、高速雕銑機,,120.515869,23.5948963
尤加利國際有限公司大林廠,10000165,,嘉義縣大林鎮明華里1鄰中正路201號,嘉義縣大林鎮明華里,王明亮,54262705,有限公司,,1040105,生產中,08食品製造業、08食品製造業,081肉類加工,,調理雞肉、醃漬腿排、冷凍雞腿、雞排,,120.44944,23.5989037
大發塗料股份有限公司民雄廠,99655331,06510000078013,嘉義縣民雄鄉寮頂村建國路一段６３９號,嘉義縣民雄鄉寮頂村,江宏基,52250838,股份有限公司,0580101,0690904,生產中,19其他化學製品製造業、25金屬製品製造業、32家具製造業,192塗料、染料及顏料、254金屬加工處理、322金屬家具,,烤漆、壓克力漆,,120.434837,23.5682831
朝輝輸配工程有限公司,S1000051,,嘉義縣民雄鄉建國路二段146號附92,嘉義縣民雄鄉,許朝謀,84519350,有限公司,,1090514,生產中,26電子零組件製造業,269其他電子零組件,,,,,
協記製油工廠,99654753,07510000268914,嘉義縣民雄鄉中樂村復興路１號,嘉義縣民雄鄉中樂村,何敏義,65342304,獨資,0751003,0751003,生產中,08食品製造業,084動植物油脂,,花生油，麻油，茶仔油,,120.430946,23.55666
明玉食品廠工業有限公司,99655836,07310000037815,嘉義縣六腳鄉六斗村六斗尾６５號,嘉義縣六腳鄉六斗村,周宏信,66642933,有限公司,0730503,0731005,生產中,08食品製造業,083蔬果加工、089其他食品,,醬菜類（花瓜，豆腐乳，辣菽醬）,,120.297684,23.55222
宜昌塑膠工業股份有限公司,99655427,06410000044140,嘉義縣六腳鄉更寮村更寮２３３號,嘉義縣六腳鄉更寮村,陳靖岳,66331522,股份有限公司,0580101,0640423,生產中,22塑膠製品製造業,220塑膠製品,,ＰＰ,,120.245811,23.4807415
圓滿生機食品工廠,99675847,,嘉義縣民雄鄉文隆村14鄰鴨母坔90之11號,嘉義縣民雄鄉文隆村,蕭宏眞,14764793,獨資,,0930611,生產中,08食品製造業,086碾榖、磨粉及澱粉製品,,五穀粉,,120.424713,23.5444069
沛鑫包裝科技股份有限公司,99654770,08110010006411,嘉義縣水上鄉中庄村中庄７號,嘉義縣水上鄉中庄村,黃福全,22916864,股份有限公司,0810910,0811007,生產中,22塑膠製品製造業,220塑膠製品,,收縮膜,,120.437111,23.4247131
一王美內衣有限公司,99675715,,嘉義縣中埔鄉和美村後庄２２巷２６號,嘉義縣中埔鄉和美村,秦水德,86371260,有限公司,,0910919,生產中,11紡織業、12成衣及服飾品製造業,121成衣,,內、衣褲,,120.462776,23.4526711
建昌食品股份有限公司,99654988,08010000322166,嘉義縣義竹鄉龍蛟村義竹工業區義工一路2之1號、2號、義工三路2號、5號,嘉義縣義竹鄉龍蛟村,翁登福,86217252,股份有限公司,0801014,0830412,生產中,09飲料製造業,092非酒精飲料,,果汁飲料,,120.240768,23.3344879
青青山丘國際有限公司,10000355,,嘉義縣中埔鄉金蘭村頂山門6-29號,嘉義縣中埔鄉金蘭村,李昇樺,59005038,有限公司,,1071227,生產中,08食品製造業、08食品製造業,086碾榖、磨粉及澱粉製品、083蔬果加工、089其他食品,,果乾,,120.500679,23.44543
和大工業股份有限公司嘉義廠,10000191,,嘉義縣大林鎮大美里19鄰大埔美園區五路16、18號,嘉義縣大林鎮大美里,沈國榮,52264848,股份有限公司,,1041218,生產中,30汽車及其零件製造業、25金屬製品製造業,303汽車零件、254金屬加工處理,http://www.hota.com.tw/,齒輪,,120.516685,23.5923862
倉佑實業股份有限公司中山二廠,99676040,,嘉義縣民雄鄉北斗村中山路４５號,嘉義縣民雄鄉北斗村,蘇祈澤,66654986,股份有限公司,,0970715,生產中,30汽車及其零件製造業,303汽車零件,http://www.tsangyow.com.tw,汽車零組件、產業機械零組件、重型卡車零組件及其他等,,120.455429,23.5285149
晉吉股份有限公司二廠,99655029,08310010001194,嘉義縣民雄鄉福樂村建國路三段２６０巷３１－１號,嘉義縣民雄鄉福樂村,陳韋孝,23489235,股份有限公司,0830309,0830428,生產中,22塑膠製品製造業,220塑膠製品,,燙金薄膜及裝希用薄膜之真空蒸著色離型、貼合裁剪加工,,120.442085,23.5276814
穎杰鑄造工業股份有限公司二廠,99675838,,嘉義縣太保市過溝里嘉太工業區光復路３２號,嘉義縣太保市過溝里,涂美華,66570608,股份有限公司,,0930423,生產中,24基本金屬製造業,241鋼鐵,http://www.ycfi.com.tw,各種機械零件、鋼鐵,,120.355888,23.5058365
河明企業股份有限公司,99655977,07310010000714,嘉義縣溪口鄉疊溪村下員林２０之１號,嘉義縣溪口鄉疊溪村,劉達明,66637452,股份有限公司,0730601,0730618,生產中,28電力設備及配備製造業,281發電、輸電及配電機械、284照明設備及配備、289其他電力設備及配備,,燈具,鐵板、鋁鈑、銅線,120.445107,23.5919819
豐茂碾米工廠,99655399,06810000137049,嘉義縣六腳鄉蒜東村蒜頭２９１號,嘉義縣六腳鄉蒜東村,黃焜熙,67448205,獨資,0580101,0680926,生產中,08食品製造業,084動植物油脂、086碾榖、磨粉及澱粉製品、089其他食品,,白米,,120.292717,23.4908924
弘朔科技實業股份有限公司,99655785,,嘉義縣民雄鄉北斗村中山路57號,嘉義縣民雄鄉北斗村,謝明峰,70713044,股份有限公司,,0901227,生產中,23非金屬礦物製品製造業、22塑膠製品製造業,233水泥及其製品、220塑膠製品,,污水管、仿木、排水溝,,120.458946,23.5306377
新萬益碾米工廠,99655201,07510000132205,嘉義縣水上鄉中庄村中庄６０號,嘉義縣水上鄉中庄村,黃月雲,65676842,獨資,0750529,0750529,生產中,08食品製造業,086碾榖、磨粉及澱粉製品,,白米,,120.432678,23.42024
忠和塑膠有限公司,99656044,07710010000142,嘉義縣水上鄉中庄村中庄40之1號,嘉義縣水上鄉中庄村,黃君儀,23956694,有限公司,0770125,0770328,生產中,22塑膠製品製造業、33其他製造業,220塑膠製品、331育樂用品,,塑膠高週波製品（吹氣玩具），塑膠袋,,120.433411,23.42409
皆展有限公司,S1000087,,嘉義縣新港鄉中洋村中洋136號,嘉義縣新港鄉中洋村,沈淑蘭,16568183,有限公司,,1090603,生產中,25金屬製品製造業,252金屬結構及建築組件,,,,,
昭惠實業股份有限公司嘉義廠,99676057,,嘉義縣朴子市大鄉里大槺榔179之52號,嘉義縣朴子市大鄉里,黃惠豐,36216790,股份有限公司,,0971028,生產中,20藥品及醫用化學製品製造業、33其他製造業,200藥品及醫用化學製品、332醫療器材及用品,,繃帶,,120.263824,23.4655151
耐斯企業股份有限公司中興廠,99656166,08510010400031,嘉義縣民雄鄉北斗村中興一街7號,嘉義縣民雄鄉北斗村,陳志鴻,65403770,股份有限公司,0850103,0861218,生產中,19其他化學製品製造業,193清潔用品、194化粧品,,,,,
崇偉機械股份有限公司,99655989,07510010000861,嘉義縣水上鄉粗溪村粗溪６鄰中山路二段６４０號,嘉義縣水上鄉粗溪村,賴銘輝,84529673,股份有限公司,0750501,0750516,生產中,25金屬製品製造業,251金屬刀具、手工具及模具、259其他金屬製品,,五金零件,,120.401611,23.4371529
泰威興業股份有限公司一廠,99655100,08210010071940,嘉義縣民雄鄉福樂村８鄰中山路３６－１號,嘉義縣民雄鄉福樂村,陳文周,22983624,股份有限公司,0820330,0820428,生產中,29機械設備製造業、27電腦、電子產品及光學製品製造業,292其他專用機械設備、293通用機械設備、272通訊傳播設備,http://www.tairwoei.com.tw/,全自動洗衣脫水機、烘乾機、振動機投幣式洗衣機、烘乾機,,120.45462,23.5273438
鐿明實業有限公司二廠,99675822,,嘉義縣水上鄉大堀村大堀尾50-1號,嘉義縣水上鄉大堀村,謝來明,89702476,有限公司,,0930227,生產中,25金屬製品製造業,259其他金屬製品,,各類大小五金、其他金屬製品,,120.386543,23.4378357
鼎益食品行,10000223,,嘉義縣溪口鄉柳溝村南靖厝20號,嘉義縣溪口鄉柳溝村,馮琴,36608803,獨資,,1050727,生產中,08食品製造業,089其他食品,,蛋餃,,120.41478,23.5753536
永吉實業廠,99656032,07610010001119,嘉義縣中埔鄉和興村中正新村１７號,嘉義縣中埔鄉和興村,邱進田,66574105,獨資,0760729,0760731,生產中,32家具製造業,321非金屬家具,,門板,,120.454414,23.4470062
穀盛股份有限公司嘉義二廠,10000236,,嘉義縣民雄鄉北斗村中正路38號、40號,嘉義縣民雄鄉北斗村,許嘉寧,86136420,股份有限公司,,1051213,生產中,,,,醋，高酸醋，醇米霖，鮮味露,,120.455208,23.5197945
誠泰橡膠工業股份有限公司二廠,10000260,,嘉義縣水上鄉內溪村6鄰溪仔底7-10號,嘉義縣水上鄉內溪村,邱愼,89210232,股份有限公司,,1060630,生產中,21橡膠製品製造業,210橡膠製品,,橡膠墊板、油管,精練膠、氟化橡膠,120.427856,23.4418144
曜智實業股份有限公司嘉義廠,99655955,08810000811603,嘉義縣太保市過溝里嘉太工業區中興路１１號,嘉義縣太保市過溝里,蕭榮居,12617727,股份有限公司,0881015,0900103,生產中,11紡織業,112織布、114染整,,尼龍布、特多龍布,,120.359291,23.508728
華裔濟眾生技研發有限公司,10000024,,嘉義縣中埔鄉義仁村安家厝8鄰10號,嘉義縣中埔鄉義仁村,黃麒龍,53300272,有限公司,,1000525,生產中,08食品製造業,089其他食品,,其他營業保健食品,,120.522781,23.44498
美麗徠化粧品美容工業股份有限公司,99675731,,嘉義縣民雄鄉北斗村民雄工業區新生街１－２號,嘉義縣民雄鄉北斗村,鐘甄銓,80216024,股份有限公司,,0911126,生產中,19其他化學製品製造業,194化粧品,,面膜、精華液、乳液、面霜,,120.4565,23.5308418
承慶企業有限公司,99654910,08210010071517,嘉義縣水上鄉義興村中義路150號,嘉義縣水上鄉義興村,吳文瑞,42787403,有限公司,0820311,0820421,生產中,23非金屬礦物製品製造業,233水泥及其製品,,瀝青混凝土,,120.429253,23.4096012
晶洲陶藝有限公司,S1000119,,嘉義縣新港鄉大潭村20鄰後底湖8號之16,嘉義縣新港鄉大潭村,林彥君,16952519,有限公司,,1090622,生產中,23非金屬礦物製品製造業,232耐火、黏土建材及其他陶瓷製品,,,,,
雪花方塊酥股份有限公司嘉義廠,99675804,,嘉義縣太保市南新里南埤路一二○巷五十六號,嘉義縣太保市南新里,莊榮讚,80056552,股份有限公司,,0921029,生產中,08食品製造業,089其他食品,,餅乾、烘培食品、方塊酥,,120.384331,23.4919014
龍雲農產加工廠,99655234,08310010155944,嘉義縣竹崎鄉中和村石棹一號,嘉義縣竹崎鄉中和村,鄧雅元,87969033,獨資,0830620,0830801,生產中,08食品製造業,083蔬果加工、089其他食品,,脆筍加工,,120.703285,23.4879246
山鈦煙火工業股份有限公司大林廠,99655174,07010000069623,嘉義縣大林鎮中坑里沙崙２００號,嘉義縣大林鎮中坑里,王家祥,66574668,股份有限公司,0580101,0710626,生產中,19其他化學製品製造業,199未分類其他化學製品,,煙火類,,120.497154,23.5905876
好合發食品工業股份有限公司,99655501,08310010000275,嘉義縣民雄鄉北斗村六鄰中正路５４號,嘉義縣民雄鄉北斗村,陳錫銓,23501842,股份有限公司,0830115,0850607,生產中,08食品製造業,089其他食品,,糕餅,,120.4524,23.5187645
忠興工業有限公司,99655255,08110010004254,嘉義縣朴子市梅華里牛挑灣23-1號,嘉義縣朴子市梅華里,施保旗,22769568,有限公司,0810618,0810725,生產中,22塑膠製品製造業、28電力設備及配備製造業,220塑膠製品、283電線及配線器材,,背襯套，塑膠材料批發,,120.258194,23.4110718
慶富機械有限公司,10000231,,嘉義縣太保市南新里中興路2段3巷2-1號,嘉義縣太保市南新里,莊富凱,80042360,有限公司,,1050930,生產中,29機械設備製造業、29機械設備製造業,293通用機械設備,,套袋機,,120.383377,23.4949875
益詳有限公司,99675871,,嘉義縣水上鄉三界村三界埔１５５之９號,嘉義縣水上鄉三界村,謝坤榮,80391009,有限公司,,0931201,生產中,31其他運輸工具及其零件製造業,312機車及其零件、313自行車及其零件,,其他金屬加工用機械設備製造,,120.47274,23.43719
慶宗塑膠有限公司,99655111,06610000103120,嘉義縣民雄鄉大崎村內埔仔７號之１,嘉義縣民雄鄉大崎村,陳素貞,66450934,有限公司,0580101,0661201,生產中,22塑膠製品製造業,220塑膠製品,,塑膠袋,,120.491005,23.5183182
嘉義縣竹崎地區農會農產加工廠,99675573,08410010208130,嘉義縣大埔鄉大埔村１２鄰大埔２５７－１號,嘉義縣大埔鄉大埔村,黃裕仁,65214309,農會組織,0840714,0840905,生產中,08食品製造業,083蔬果加工,,,,,
嘉鋼精密工業股份有限公司頭橋二廠,10000211,,嘉義縣民雄鄉興南村工業二路2-1號,嘉義縣民雄鄉興南村,曹光照,66402912,股份有限公司,,1050505,生產中,25金屬製品製造業,254金屬加工處理,http://www.cysteel.com.tw,鑄件毛胚,,120.436356,23.5224953
新南發油工廠,99656101,07510000269668,嘉義縣大林鎮平林里中興路167號,嘉義縣大林鎮平林里,何駿瑩,37716082,獨資,0751017,0751017,生產中,08食品製造業、08食品製造業,084動植物油脂,,花生油，花生粕，胡麻油，胡麻粕、苦茶油,,120.458824,23.6031189
光能股份有限公司,99655623,07010000064839,嘉義縣民雄鄉興南村頭橋工業區工業三路１６號,嘉義縣民雄鄉興南村,黃惠珍,66373959,股份有限公司,0580101,0720323,生產中,32家具製造業,321非金屬家具,,桌、椅、櫥、盒、傢俱,,120.432549,23.5248
呂東實業股份有限公司,99655957,07910000180553,嘉義縣太保市過溝里嘉太工業區和順路１號,嘉義縣太保市過溝里,蔡成達,66547564,股份有限公司,0790226,0810815,生產中,22塑膠製品製造業,220塑膠製品,,塑膠箱、塑膠製品,,120.355164,23.50714
敬霖企業有限公司,99675737,,嘉義縣大林鎮三角里下林頭１－８號,嘉義縣大林鎮三角里,簡志遠,80092678,有限公司,,0911226,生產中,32家具製造業,322金屬家具,,金屬家具及裝設品，鐵椅加工，手推車代工，跳床，家具代工,,120.495293,23.615694
勝封塑膠機械有限公司義竹廠,99675782,,嘉義縣義竹鄉東光村東後寮１６５號,嘉義縣義竹鄉東光村,楊錦榮,16669041,有限公司,,0920704,生產中,29機械設備製造業、25金屬製品製造業,293通用機械設備、251金屬刀具、手工具及模具,,製袋機、標籤剝離機、膠膜,,120.246788,23.3769188
慶宜股份有限公司嘉義廠,99654766,08310010602729,嘉義縣義竹鄉龍蛟村義工一路１－１號,嘉義縣義竹鄉龍蛟村,張英夫,04368669,股份有限公司,0831003,0840408,生產中,08食品製造業,087動物飼品,,玉米粉、黃豆粉、亞麻籽粉,,120.220436,23.35852
凱元製冰冷藏廠,99655619,07310000255523,嘉義縣民雄鄉雙福村中山路１４號,嘉義縣民雄鄉雙福村,羅尉彰,06310951,獨資,0731106,0780209,生產中,08食品製造業,083蔬果加工、089其他食品,,冰塊,,120.449348,23.524004
高益企業股份有限公司二廠,99675772,,嘉義縣民雄鄉北斗村中正路十八號,嘉義縣民雄鄉北斗村,盧俊廷,86341344,股份有限公司,,0920514,生產中,22塑膠製品製造業,220塑膠製品,,ＰＶＣ粒（塑膠粒）,,120.458862,23.5205479
全芳茶業有限公司,10000394,,嘉義縣水上鄉國姓村三界埔104之101號,嘉義縣水上鄉國姓村,林柏壯,56622830,有限公司,,1081105,生產中,08食品製造業,089其他食品,,其他食品,,120.473831,23.44008
青月村燊股份有限公司頭橋廠,10000149,,嘉義縣民雄鄉興南村頭橋工業區工業一路9號,嘉義縣民雄鄉興南村,廖榮燊,84600990,股份有限公司,,1030917,生產中,29機械設備製造業,293通用機械設備,,通用機械設備－冷凍機組,,120.431587,23.5185223
新灃企業股份有限公司,99655737,08310010002531,嘉義縣朴子市大葛里大槺榔７５－１號,嘉義縣朴子市大葛里,陳世文,86390506,股份有限公司,0830509,0830516,生產中,22塑膠製品製造業,220塑膠製品,http://www.sfcb.com.tw,汽車百貨（腳踏板，窗簾，遮陽簾毯）、門墊、安美墊,,120.26387,23.4573154
明朔有限公司,99655834,08010010001840,嘉義縣民雄鄉大崎村１４甲６１號,嘉義縣民雄鄉大崎村,郭豐榮,84869010,有限公司,0800911,0801003,生產中,11紡織業、12成衣及服飾品製造業、22塑膠製品製造業、28電力設備及配備製造業,115紡織品、220塑膠製品、283電線及配線器材,,休閒椅、皮套椅,,120.460556,23.5111313
禎祥食品工業股份有限公司,99654858,06010000086339,嘉義縣朴子市竹村里鴨母寮１之３號,嘉義縣朴子市竹村里,張晁祥,67321044,股份有限公司,0580101,0630604,生產中,08食品製造業、08食品製造業,089其他食品,http://www.chenhsiang.com/tw,冷凍蔬菜，冷凍水產，冷凍調製食品，常溫調製食品,,120.241463,23.433403
詮峻有限公司,10000448,,嘉義縣中埔鄉和美村5鄰大義路326巷18號,嘉義縣中埔鄉和美村,陳素瑩,54537606,有限公司,,1090915,生產中,22塑膠製品製造業、22塑膠製品製造業,220塑膠製品,,,,,
世澄食品工廠,99654974,06910000146767,嘉義縣布袋鎮見龍里內田38之2號,嘉義縣布袋鎮見龍里,邱銘暉,66368153,獨資,0580101,0710322,生產中,08食品製造業,089其他食品,,蘿蔔乾,,120.177727,23.3822479
東興碾米工廠,99655432,06710000054802,嘉義縣民雄鄉東湖村東勢湖１７６之２號,嘉義縣民雄鄉東湖村,許嫦娥,65287914,獨資,0580101,0670426,生產中,08食品製造業,086碾榖、磨粉及澱粉製品,,白米,,120.440979,23.5494289
錦標交通工程有限公司,10000208,,嘉義縣竹崎鄉義仁村下寮仔20-1號,嘉義縣竹崎鄉義仁村,黃天佑,53965185,有限公司,,1050401,生產中,22塑膠製品製造業,220塑膠製品,,熱拌型塑膠路線料,,120.510239,23.4985371
嘉義縣朴子市農會,99675659,05810000004702,嘉義縣朴子市平和里市東路３號,嘉義縣朴子市平和里,方鐘永,67074705,農會組織,0580101,0590629,生產中,08食品製造業,086碾榖、磨粉及澱粉製品,,糙米，碎米,稻穀,120.247864,23.4625244
台灣美是康生化科技有限公司梅埔廠,10000086,,嘉義縣太保市梅埔里23之2號,嘉義縣太保市梅埔里,官里蒼,53982543,有限公司,,1011026,生產中,08食品製造業,089其他食品,,梅子,,120.348404,23.4355488
萬財興業股份有限公司,99655352,07110000063751,嘉義縣大林鎮明華里湖底５５號,嘉義縣大林鎮明華里,林宸慶,66457991,股份有限公司,0580101,0710601,生產中,14木竹製品製造業,140木竹製品,http://www.wts-ply.com.tw/,合板、角材,,120.441437,23.5949116
太子飼料股份有限公司,99654763,06710000041030,嘉義縣義竹鄉岸腳村角帶圍２５之２號,嘉義縣義竹鄉岸腳村,殷金猛,66351414,股份有限公司,0580101,0670927,生產中,08食品製造業、18化學原材料、肥料、氮化合物、塑橡膠原料及人造纖維製造業,087動物飼品、183肥料及氮化合物,,尼羅魚１號．尼羅魚２號．虱目成魚．有機肥．鵝料．蝦料等,,120.254929,23.3470573
三鷹食品有限公司,99655552,07510000201409,嘉義縣民雄鄉寮頂村頂寮６６之５號,嘉義縣民雄鄉寮頂村,涂中明,66538018,有限公司,0750628,0750628,生產中,08食品製造業,083蔬果加工、089其他食品,,醃漬類蔬菜加工製造，蔭瓜，花瓜,,120.425415,23.5708427
凱勝綠能科技股份有限公司,10000422,,嘉義縣鹿草鄉豐稠村馬稠後園區一路22號,嘉義縣鹿草鄉豐稠村,陳怡仁,53823551,股份有限公司,,1090518,生產中,30汽車及其零件製造業、31其他運輸工具及其零件製造業,301汽車、302車體、312機車及其零件,,,,,
禹源企業有限公司,99675925,,嘉義縣朴子市竹村里朴子工業區橫二街９號,嘉義縣朴子市竹村里,陳登煌,80230089,有限公司,,0941123,生產中,29機械設備製造業,293通用機械設備,,水泵，水幫浦,,120.245232,23.4646931
中原光合農場股份有限公司嘉義廠,10000242,,嘉義縣六腳鄉灣北村332號,嘉義縣六腳鄉灣北村,董晃銘,53956735,股份有限公司,,1060113,生產中,08食品製造業,083蔬果加工,,,,,
賀聲樂器股份有限公司大埔美廠,10000173,,嘉義縣大林鎮中坑里1鄰大埔美園區二十路3號,嘉義縣大林鎮中坑里,李國安,23235599,股份有限公司,,1040511,生產中,33其他製造業,331育樂用品,http://www.carolbrass.com,小號，長號,,120.511147,23.5845737
義豐包裝有限公司,10000164,,嘉義縣大林鎮中坑里大埔美園區十八路7號,嘉義縣大林鎮中坑里,王振添,28553919,有限公司,,1031215,生產中,14木竹製品製造業、14木竹製品製造業,140木竹製品,,木竹製品,,120.503693,23.58282
玉豐農產加工廠,99675682,06610000189484,嘉義縣義竹鄉龍蛟村義工三路８號,嘉義縣義竹鄉龍蛟村,翁石上,13631108,獨資,0580101,0680616,生產中,08食品製造業,086碾榖、磨粉及澱粉製品,,粗糠殼、糠粉,,120.218987,23.360775
元愛企業股份有限公司,99655320,08210010071113,嘉義縣民雄鄉北斗村成功二街５號,嘉義縣民雄鄉北斗村,黃天樂,23232235,股份有限公司,0820303,0820507,生產中,30汽車及其零件製造業,303汽車零件,,汽車消音器，汽車排氣管等汽車零件,,120.453423,23.5226536
鋅安工業股份有限公司,99655389,08210010077146,嘉義縣義竹鄉龍蛟村義竹工業區義工二路１７，１５，１３，１１號,嘉義縣義竹鄉龍蛟村,劉水源,23578031,股份有限公司,0820803,0830302,生產中,18化學原材料、肥料、氮化合物、塑橡膠原料及人造纖維製造業,181化學原材料,,氯化鋅、氯化鉀、氯化銨、硫酸鈉、硫酸鋅、氯化鋅銨,,120.223778,23.36986
嘉賢專業鋼構有限公司,10000426,,嘉義縣太保市南新里北港路2段105巷42號,嘉義縣太保市南新里,葉木賢,53073804,有限公司,,1090528,生產中,25金屬製品製造業,254金屬加工處理,,,,,
台灣糖業股份有限公司生物科技事業部大林生技廠食品廠區,10000197,,嘉義縣大林鎮大糖里大湖農場60號,嘉義縣大林鎮大糖里,黃民生,03794905,股份有限公司,,1050104,生產中,08食品製造業,089其他食品,,保健食品,,120.459808,23.61335
優明環保有限公司(二廠),S1000118,,嘉義縣新港鄉潭大村六斗子30號,嘉義縣新港鄉潭大村,林世德,12808423,有限公司,,1090622,生產中,14木竹製品製造業、14木竹製品製造業,140木竹製品,,,,,
富泉橡膠工業股份有限公司,99655317,08410010652294,嘉義縣民雄鄉北斗村六鄰成功一街３５號,嘉義縣民雄鄉北斗村,顏仲健,89465348,股份有限公司,0840916,0840929,生產中,21橡膠製品製造業,210橡膠製品,,橡膠原料及零件,,120.45816,23.5234146
富美佳實業有限公司,99675787,,嘉義縣太保市南新里北港路二段105巷18弄24號,嘉義縣太保市南新里,張明豐,12620309,有限公司,,0920723,生產中,19其他化學製品製造業,194化粧品,http://www.fermic.com.tw/,保養品、面膜，精華液、洗面乳、乳液,,120.379265,23.4954872
承岱有限公司二廠,10000316,,嘉義縣新港鄉大潭村4鄰大潭167之8號,嘉義縣新港鄉大潭村,黃琮文,13043523,有限公司,,1070529,生產中,29機械設備製造業,293通用機械設備,,軸承套筒、油溝軸承套筒、退卸套筒、油溝退卸套筒、軸承華司、軸承螺帽,,120.362221,23.5560036
欽裕鋼鐵有限公司民雄廠,99655673,07710000170950,嘉義縣民雄鄉北斗村成功街３８號,嘉義縣民雄鄉北斗村,李基正,66557133,有限公司,0770119,0790831,生產中,32家具製造業、25金屬製品製造業,322金屬家具、259其他金屬製品,,傢俱鋼管及鐵管、鐵板及五金零件,,120.457993,23.5216026
合億國際企業股份有限公司梅山廠,99675732,,嘉義縣梅山鄉梅北村工業一路６號,嘉義縣梅山鄉梅北村,許素月,80242183,股份有限公司,,0911218,生產中,22塑膠製品製造業,220塑膠製品,http://www.her-yi.com/,塑膠製品,塑膠粒,120.539177,23.59093
宏美企業股份有限公司,99656092,06810000223097,嘉義縣民雄鄉興南村工業三路１號,嘉義縣民雄鄉興南村,高志聖,66528124,股份有限公司,0580101,0690910,生產中,08食品製造業、18化學原材料、肥料、氮化合物、塑橡膠原料及人造纖維製造業,087動物飼品、183肥料及氮化合物,,黃豆原油、豆餅,,120.435913,23.5205
豐華食品機械有限公司,10000246,,嘉義縣太保市過溝里光復路42號,嘉義縣太保市過溝里,邱慧玲,53491526,有限公司,,1060126,生產中,29機械設備製造業,293通用機械設備,,真空包裝機械,,120.35331,23.5057068
意山有限公司,99675854,,嘉義縣民雄鄉北斗村民雄工業區中正路３７號,嘉義縣民雄鄉北斗村,賴福財,97389457,有限公司,,0930728,生產中,29機械設備製造業,291金屬加工用機械設備,,油壓機、金屬加工用機械,,120.453018,23.517477
台灣正豐植保股份有限公司,99655440,06410000022663,嘉義縣東石鄉洲仔村洲仔123之3號,嘉義縣東石鄉洲仔村,徐添發,58457809,股份有限公司,0580101,0640709,生產中,19其他化學製品製造業,191農藥及環境用藥,,農用殺蟲劑，除草劑，殺菌劑，肥料,殺蟲劑、除草劑、殺菌劑、矽砂,120.189781,23.4554577
赫赫實業有限公司,99654808,08710010004088,嘉義縣義竹鄉義竹村１１２號,嘉義縣義竹鄉義竹村,翁明勝,86228027,有限公司,0870620,0870914,生產中,08食品製造業、09飲料製造業,081肉類加工、082水產加工、083蔬果加工、089其他食品,,水餃、蘿蔔糕、湯包,,120.247093,23.3354645
速達興業股份有限公司,99675721,,嘉義縣水上鄉水上村嘉朴路137巷1號,嘉義縣水上鄉水上村,柯素秋,06234552,股份有限公司,,0911014,生產中,18化學原材料、肥料、氮化合物、塑橡膠原料及人造纖維製造業,183肥料及氮化合物,http://www.suda-chem.com.tw,液鹼、鹽酸、次氯酸鈉、氯化鈣水（液體）,液鹼、鹽酸、漂白水,120.39003,23.4353523
富吉企業社,10000117,,嘉義縣中埔鄉同仁村柚仔宅2-6號,嘉義縣中埔鄉同仁村,周嘉亮,78441849,獨資,,1020802,生產中,25金屬製品製造業、29機械設備製造業,251金屬刀具、手工具及模具、259其他金屬製品、293通用機械設備,,金屬模具加工、軸承,鋼鐵,120.504662,23.4144535
后政企業有限公司,S1000126,,嘉義縣太保市梅埔里10鄰梅子厝84之1號,嘉義縣太保市梅埔里,洪明寶,86577354,有限公司,,1090629,生產中,08食品製造業,089其他食品,,,,,
彼得鎮貿易有限公司,10000328,,嘉義縣大林鎮三和里林子前33號,嘉義縣大林鎮三和里,劉嘉鎭,27847212,有限公司,,1070814,生產中,08食品製造業,087動物飼品,,動物用維生素、動物用礦物質,,120.481827,23.5994167
旋天環保設備製造有限公司,99656060,08810010001854,嘉義縣東石鄉港墘村１３１號,嘉義縣東石鄉港墘村,陳瑞中,16711054,有限公司,0880318,0880402,生產中,29機械設備製造業、25金屬製品製造業,293通用機械設備、251金屬刀具、手工具及模具,http://www.shiftrewater.com,臭氧機、攪拌機、污染防治零件等組件,,120.210052,23.4600525
欽記環保股份有限公司太保廠,10000163,,嘉義縣太保市舊埤里20鄰新埤7-37號,嘉義縣太保市舊埤里,黃存德,53617638,股份有限公司,,1040109,生產中,22塑膠製品製造業,220塑膠製品,,塑膠製品,,120.345337,23.4926853
泰威興業股份有限公司頭橋廠,10000312,,嘉義縣民雄鄉興南村工業一路5號、5-3號、5-5號,嘉義縣民雄鄉興南村,陳文周,22983624,股份有限公司,,1070510,生產中,29機械設備製造業,291金屬加工用機械設備,http://www.tairwoei.com.tw/,全自動洗衣機、烘衣機,,120.43367,23.51866
陸功工業股份有限公司二廠,99676109,,嘉義縣民雄鄉北斗村民雄工業區中興街6號,嘉義縣民雄鄉北斗村,殷贊傑,23514240,股份有限公司,,0990730,生產中,25金屬製品製造業,259其他金屬製品,http://www.zipson.com.tw,合金鋼、不銹鋼機械零件、金屬製品,,120.462128,23.5241051
艾維里流體科技股份有限公司,10000180,,嘉義縣太保市春珠里8鄰春珠165-1號,嘉義縣太保市春珠里,黃世章,54803499,股份有限公司,,1040826,生產中,29機械設備製造業,293通用機械設備,,,,,
帝屋鑄造工廠股份有限公司,99654923,07610000195681,嘉義縣民雄鄉北斗村民雄工業區成功街35號,嘉義縣民雄鄉北斗村,黃文松,66651799,股份有限公司,0760527,0770621,生產中,24基本金屬製造業,241鋼鐵,https://www.deiwucasting.com/,工具機，汽車零件，鑄鐵成品，狀石墨鑄鐵,,120.458015,23.5219574
泰昇實業有限公司一廠,S1000059,,嘉義縣民雄鄉興中村11鄰坔墘8-11號,嘉義縣民雄鄉興中村,吳得全,84570573,有限公司,,1090521,生產中,24基本金屬製造業、25金屬製品製造業,242鋁、252金屬結構及建築組件,,,,,
台灣蠟品股份有限公司,99654797,08510010406130,嘉義縣民雄鄉北斗村中正路１號,嘉義縣民雄鄉北斗村,林哲印,22625269,股份有限公司,0850704,0850710,生產中,17石油及煤製品製造業,170石油及煤製品,http://www.wax.com.tw,硬蠟、軟蠟、非藥用凡士林,,120.455315,23.518013
阿沙企業有限公司,S1000005,,嘉義縣水上鄉柳鄉村12鄰柳子林200-10號,嘉義縣水上鄉柳鄉村,蔡宗和,25184201,有限公司,,1090423,生產中,22塑膠製品製造業、22塑膠製品製造業,220塑膠製品,,,,,
德奇工業股份有限公司,99655817,06710000083834,嘉義縣水上鄉水上村中華路199巷33號,嘉義縣水上鄉水上村,林得和,66478216,股份有限公司,0580101,0680714,生產中,23非金屬礦物製品製造業,231玻璃及其製品,,玻璃纖維製品,,120.4031,23.4263535
博堯生物科技股份有限公司二廠,10000405,,嘉義縣鹿草鄉豐稠村馬稠後園區二路26號,嘉義縣鹿草鄉豐稠村,許俊傑,29119323,股份有限公司,,1090110,生產中,08食品製造業,089其他食品,,,,,
奕鼎五金企業股份有限公司,99655267,07310000259981,嘉義縣太保市過溝里嘉太工業區興業路二、六號,嘉義縣太保市過溝里,范賴鶴子,06282694,股份有限公司,0731228,0740917,生產中,25金屬製品製造業、29機械設備製造業,259其他金屬製品、293通用機械設備,http://www.iding.com.tw/,高級門鎖、鋅鋁鋼等金屬及合金,,120.358818,23.51076
詳連工業有限公司,99675972,,嘉義縣民雄鄉北斗村成功街３２號,嘉義縣民雄鄉北斗村,賴秀珍,16010362,有限公司,,0950905,生產中,25金屬製品製造業、30汽車及其零件製造業、33其他製造業,259其他金屬製品、303汽車零件、331育樂用品,,汽機車零件加工、五金零件,,120.456284,23.5211468
嘉忠車輛配備股份有限公司水上廠,99676102,,嘉義縣水上鄉塗溝村塗溝23號,嘉義縣水上鄉塗溝村,林伯忠,84944952,股份有限公司,,0990414,生產中,30汽車及其零件製造業,303汽車零件,,車用冷氣配件零件、散熱器,,120.372818,23.4587383
朴子精密企業股份有限公司,99675918,,嘉義縣朴子市竹村里朴子工業區１鄰三街６號,嘉義縣朴子市竹村里,顏政實,22923128,股份有限公司,,0941003,生產中,25金屬製品製造業、30汽車及其零件製造業、31其他運輸工具及其零件製造業,259其他金屬製品、293通用機械設備、301汽車、302車體、303汽車零件、319未分類其他運輸工具及其零件,,汽車零件、其他金屬製品、汽車及其零件、其他運輸工具及其零件,,120.248,23.4393158
久長碾米廠,99654720,,嘉義縣新港鄉大潭村２１鄰１６之１０號,嘉義縣新港鄉大潭村,蒲昆宏,66371018,獨資,,0900919,生產中,08食品製造業,086碾榖、磨粉及澱粉製品、087動物飼品,,碾穀,,120.367981,23.5484638
三福產業股份有限公司食品廠,10000215,,嘉義縣太保市太保里1鄰11號,嘉義縣太保市太保里,蕭俊傑,65010369,股份有限公司,,1050613,生產中,08食品製造業、09飲料製造業,085乳品、089其他食品、092非酒精飲料,,布丁等,,120.335396,23.4549
台灣銓華寵物科技有限公司,10000270,,嘉義縣民雄鄉北斗村成功二街48號,嘉義縣民雄鄉北斗村,黃祥原,28895866,有限公司,,1060919,生產中,08食品製造業,087動物飼品,,寵物食品,,120.458313,23.5246487
俐合奕有限公司,10000263,,嘉義縣大林鎮中坑里1鄰大埔美園區五路7號,嘉義縣大林鎮中坑里,姚世彬,27625387,有限公司,,1060728,生產中,25金屬製品製造業,259其他金屬製品,,五金零件,,120.511581,23.5845089
昌弘企業社,99675961,,嘉義縣新港鄉中洋村後厝仔１４號,嘉義縣新港鄉中洋村,翁淑珍,36658583,合夥,,0950710,生產中,13皮革、毛皮及其製品製造業,130皮革、毛皮及其製品,,牛榔皮革,,120.370781,23.5228176
崑成農產工廠,99655182,06910000189619,嘉義縣六腳鄉灣北村灣內281號之11,嘉義縣六腳鄉灣北村,鄭月女,66365326,獨資,0580101,0700326,生產中,08食品製造業,083蔬果加工,,脫殼花生,,120.308945,23.5059185
豪衛股份有限公司,10000338,,嘉義縣大林鎮大美里19鄰大埔美園區三路45號,嘉義縣大林鎮大美里,王國諱,12753187,股份有限公司,,1071016,生產中,33其他製造業,339未分類其他製品,,相機背帶、腕帶、皮套,,120.509438,23.596777
寶龍科技股份有限公司,99675713,,嘉義縣水上鄉水頭村中正路67號,嘉義縣水上鄉水頭村,劉昌炘,79987683,股份有限公司,,0910918,生產中,27電腦、電子產品及光學製品製造業、25金屬製品製造業,251金屬刀具、手工具及模具、277光學儀器及設備,http://kumas.com.tw/,電動工具,,120.401894,23.4277744
偉展實業有限公司一廠,S1000092,,嘉義縣布袋鎮菜舖里新吉庄52號,嘉義縣布袋鎮菜舖里,黃順賓,22541037,有限公司,,1090601,生產中,23非金屬礦物製品製造業、29機械設備製造業,239其他非金屬礦物製品、293通用機械設備,,,,,
彰誠發企業股份有限公司,99655685,08110010000079,嘉義縣溪口鄉本厝村本廳１號,嘉義縣溪口鄉本厝村,黃振彰,23521143,股份有限公司,0810117,0810213,生產中,31其他運輸工具及其零件製造業、33其他製造業,312機車及其零件、313自行車及其零件、331育樂用品、332醫療器材及用品,,醫療器材,,120.396713,23.5757217
順利糧食有限公司,99675785,,嘉義縣水上鄉大堀村大堀尾４５號,嘉義縣水上鄉大堀村,陳益昌,80422235,有限公司,,0920716,生產中,08食品製造業,086碾榖、磨粉及澱粉製品,,糙米,,120.382507,23.4399014
申飛實業有限公司,99655786,07210010001652,嘉義縣中埔鄉和美村中山路五段566號,嘉義縣中埔鄉和美村,沈玉雲,27513257,有限公司,0721205,0721222,生產中,12成衣及服飾品製造業,123服飾品,,成衣,,120.46714,23.4512177
巨匠木業有限公司,10000427,,嘉義縣太保市南新里北港路二段105巷26號1樓,嘉義縣太保市南新里,陳瓊玉,83690327,有限公司,,1090608,生產中,14木竹製品製造業,140木竹製品,,,,,
嘉鋼精密工業股份有限公司頭橋一廠,99655949,06710000229651,嘉義縣民雄鄉興南村工業三路6-1號,嘉義縣民雄鄉興南村,曹光照,66402912,股份有限公司,0580101,0680423,生產中,24基本金屬製造業,241鋼鐵,http://www.cysteel.com.tw,汽車零件、產業機械零件、汽機車零件、農業機械零件,,120.435242,23.5219154
南榮塑膠廠,99655205,07310010001181,嘉義縣布袋鎮見龍里太平東路１００號,嘉義縣布袋鎮見龍里,翁穗馨,67178814,獨資,0730823,0730920,生產中,22塑膠製品製造業、28電力設備及配備製造業,220塑膠製品、283電線及配線器材,,塑膠管,,120.176872,23.3743382
沅佑科技股份有限公司,10000420,,嘉義縣民雄鄉北斗村成功二街46號,嘉義縣民雄鄉北斗村,何秀芝,28806610,股份有限公司,,1090409,生產中,22塑膠製品製造業,220塑膠製品,,,,,
淞品生技有限公司肉品加工廠,10000097,,嘉義縣溪口鄉美北村崙尾1-18號,嘉義縣溪口鄉美北村,高浚泓,27522811,有限公司,,1020422,生產中,08食品製造業,081肉類加工,,雞肉,,120.383789,23.5838718
金弘興塑膠機械股份有限公司頭橋一廠,99675880,,嘉義縣民雄鄉興南村3鄰工業一路7號,嘉義縣民雄鄉興南村,葉弘傑,16886390,股份有限公司,,0940105,生產中,29機械設備製造業,292其他專用機械設備,http://www.venusplas.com.tw,塑膠粒製造機、摩擦式捲取機、吹袋機組裝製造、專用生產機械,,120.432747,23.5187473
老農農產品加工廠,99675924,,嘉義縣水上鄉南鄉村牛稠埔84號,嘉義縣水上鄉南鄉村,江坤明,09074523,獨資,,0941121,生產中,08食品製造業、08食品製造業、09飲料製造業,089其他食品、092非酒精飲料,,柿餅及調味未脫殼花生加工製造、其他食品,,120.455215,23.41413
嘉仕企業股份有限公司,99655991,07510000139853,嘉義縣民雄鄉秀林村溪底寮４０號之１,嘉義縣民雄鄉秀林村,林碧輝,22512504,股份有限公司,0750627,0750627,生產中,25金屬製品製造業、29機械設備製造業,254金屬加工處理、291金屬加工用機械設備、293通用機械設備,,烤漆加工,,120.4622,23.5024147
群貫工業股份有限公司,99655557,07510000131945,嘉義縣太保市過溝里嘉太工業區光復路２８號,嘉義縣太保市過溝里,黃孝敏,22218093,股份有限公司,0750528,0761106,生產中,30汽車及其零件製造業、31其他運輸工具及其零件製造業,301汽車、302車體、303汽車零件、319未分類其他運輸工具及其零件,,車輛維修；預約修復；槽桶整修；罐體檢驗,,120.357269,23.5060139
利仁碾米工廠,99655848,05810000012858,嘉義縣民雄鄉山中村牛斗山28號,嘉義縣民雄鄉山中村,賴明緯,65237632,獨資,0580101,0611117,生產中,08食品製造業,084動植物油脂、086碾榖、磨粉及澱粉製品、089其他食品,,白米，糙米,,120.409607,23.5191784
忠懋企業股份有限公司,99654865,07410000396636,嘉義縣太保市過溝里瓦厝43之2號,嘉義縣太保市過溝里,葉國忠,22511771,股份有限公司,0750106,0750106,生產中,29機械設備製造業、25金屬製品製造業,293通用機械設備、251金屬刀具、手工具及模具、259其他金屬製品,,黃油槍、膠管組,,120.34996,23.492878
保證責任嘉義縣東石合作農場(食品廠),10000232,,嘉義縣東石鄉蔦松村40-34號,嘉義縣東石鄉蔦松村,余仁滔,17162324,獨資,,1051006,生產中,08食品製造業,083蔬果加工、086碾榖、磨粉及澱粉製品、089其他食品,,,,,
惟峻實業有限公司,99654948,07710000181698,嘉義縣六腳鄉港美村港尾寮２０之４號,嘉義縣六腳鄉港美村,鄒明育,16938593,有限公司,0770202,0770202,生產中,22塑膠製品製造業,220塑膠製品,,ＯＰＰ隔熱泡棉、汽泡布、ＰＥＴ代工貼合,,120.289452,23.5321579
詠憶塑膠有限公司溪口廠,S1000140,,嘉義縣溪口鄉柳溝村6鄰柳子溝2之23號,嘉義縣溪口鄉柳溝村,李耀樺,97045637,有限公司,,1090807,生產中,22塑膠製品製造業,220塑膠製品,,,,,
高育生物科技有限公司民雄廠,99655801,07310000124147,嘉義縣民雄鄉福樂村成功五街３號,嘉義縣民雄鄉福樂村,許秋盆,16214014,有限公司,0730516,0750310,生產中,19其他化學製品製造業,194化粧品,,面膜、玻尿酸精華液,,120.4488,23.52265
非鐵工業股份有限公司,99676005,,嘉義縣太保市舊埤里新埤３５之１號,嘉義縣太保市舊埤里,盧怡伶,28662254,股份有限公司,,0960906,生產中,24基本金屬製造業,249其他基本金屬,http://fei-tie.com.tw,鋁擠型、鋁條、棒、鋁管,,120.331673,23.4890957
三和化學纖維股份有限公司,99655056,08910010900057,嘉義縣大林鎮明華里明華路177之8號1樓,嘉義縣大林鎮明華里,侯宗佑,22071838,股份有限公司,0890306,0890331,生產中,22塑膠製品製造業、11紡織業,220塑膠製品、112織布,,ＰＰ編織袋,聚丙烯塑膠粒,120.447624,23.6015282
冷研科技有限公司一廠,10000460,,嘉義縣鹿草鄉豐稠村馬稠後園區一路38號,嘉義縣鹿草鄉豐稠村,魏毅明,70600055,有限公司,,1091012,生產中,29機械設備製造業,293通用機械設備,,,,,
成榮機械廠股份有限公司,99655013,07210000099981,嘉義縣水上鄉三和村頂寮２３號之４,嘉義縣水上鄉三和村,陳宗佑,66641358,股份有限公司,0720704,0730823,生產中,29機械設備製造業、25金屬製品製造業,292其他專用機械設備,http://www.clsport.com.tw/about_ct.html,單邊訓練機、腹部訓練機,,120.414017,23.4575233
慶成五金工業社,99655329,07510000213003,嘉義縣民雄鄉秀林村東義１１之３號,嘉義縣民雄鄉秀林村,廖樋榮,06291693,獨資,0750813,0750813,生產中,25金屬製品製造業,251金屬刀具、手工具及模具、259其他金屬製品,,彈簧固定座,,120.486984,23.5114136
振宏眼鏡企業有限公司,99655668,06910000098985,嘉義縣民雄鄉中和村社溝４５之１號,嘉義縣民雄鄉中和村,賴秀年,86811703,有限公司,0580101,0690526,生產中,33其他製造業,332醫療器材及用品,,眼鏡,,120.411125,23.5462551
亞南塑膠工業股份有限公司,99654853,06610000053403,嘉義縣鹿草鄉後堀村山子腳３之１號,嘉義縣鹿草鄉後堀村,江陳碧玉,66376457,股份有限公司,0580101,0661029,生產中,22塑膠製品製造業,220塑膠製品,,塑膠摺門,,120.33532,23.4055157
仲基生物科技有限公司,99656134,08010010001845,嘉義縣義竹鄉龍蛟村草湖１０之１號,嘉義縣義竹鄉龍蛟村,黃怡禎,16208239,有限公司,0800914,0810514,生產中,08食品製造業、18化學原材料、肥料、氮化合物、塑橡膠原料及人造纖維製造業,087動物飼品、183肥料及氮化合物,,醱酵飼料,,120.206009,23.37102
台灣水泥股份有限公司高雄水泥製品廠嘉義分廠,99655098,07710000271594,嘉義縣民雄鄉北斗村民雄工業區新生街8號,嘉義縣民雄鄉北斗村,吳雲德,11913502,股份有限公司,0770716,0790605,生產中,23非金屬礦物製品製造業,233水泥及其製品,,預拌混凝土,,120.459724,23.5268364
得益食品工廠,99654980,07110000069227,嘉義縣布袋鎮菜舖里新吉庄１之１號,嘉義縣布袋鎮菜舖里,林志河,06343101,獨資,0580101,0710511,生產中,08食品製造業,089其他食品,,,,,
星沙齋商行嘉義廠,99655523,08010000323422,嘉義縣水上鄉三界村三界埔１５５之６號,嘉義縣水上鄉三界村,李沐璇,76759593,獨資,0801125,0810413,生產中,08食品製造業,081肉類加工,,臘腸，臘肉,豬肉、腸衣、鹽、糖、酒,120.475174,23.4329948
陽田生物科技股份有限公司,10000011,,嘉義縣民雄鄉興南村頭橋工業區工業三路9之2號,嘉義縣民雄鄉興南村,陳素霞,79986468,股份有限公司,,1000112,生產中,18化學原材料、肥料、氮化合物、塑橡膠原料及人造纖維製造業,183肥料及氮化合物,,純德牌有機肥料－竹級，純德牌有機肥料－梅級，有機肥料，陽田牌有機肥料,,120.432396,23.5235958
臺灣彥大有限公司,99676065,,嘉義縣新港鄉菜公村咬仔竹６６號之５,嘉義縣新港鄉菜公村,郭宗富,16704342,有限公司,,0971229,生產中,33其他製造業、21橡膠製品製造業,331育樂用品、332醫療器材及用品、210橡膠製品,,面鏡呼吸鏡蛙鏡呼吸管等加工組裝、呼吸治療器暨半成品加工組裝,,120.353737,23.5303955
昆晟企業股份有限公司南靖廠,99655034,08310010008106,嘉義縣水上鄉南和村6鄰南靖69號之4,嘉義縣水上鄉南和村,楊秀鬆,23675553,股份有限公司,0831230,0841101,生產中,22塑膠製品製造業,220塑膠製品,,塑膠包裝網袋、塑膠保護網,,120.370834,23.4120674
嘉良特化股份有限公司嘉義廠,99656106,,嘉義縣太保市過溝里嘉太工業區興業路８號,嘉義縣太保市過溝里,蕭崇湖,70676075,股份有限公司,,0910319,生產中,19其他化學製品製造業、19其他化學製品製造業,199未分類其他化學製品、193清潔用品,http://www.greenchem.com.tw,塗料、清潔用品、染料及顏料,,120.358818,23.51076
新英蛋品科技有限公司,99656184,08010000082609,嘉義縣民雄鄉北斗村成功二街五十四號,嘉義縣民雄鄉北斗村,賴建翰,27299046,有限公司,0800712,0810124,生產中,08食品製造業,089其他食品,,蛋黃粉，蛋黃液，全蛋粉，全蛋液，蛋黃卵磷脂,,120.459145,23.5249367
貴臺企業有限公司,S1000015,,嘉義縣民雄鄉福興村8鄰牛稠溪1之28號,嘉義縣民雄鄉福興村,黃保琴,23952986,有限公司,,1090429,生產中,14木竹製品製造業,140木竹製品,,,,,
漢陽木器有限公司,99655230,06510000186753,嘉義縣中埔鄉富收村庄內59號,嘉義縣中埔鄉富收村,陳勝賢,86583573,有限公司,0580101,0660124,生產中,14木竹製品製造業、14木竹製品製造業、22塑膠製品製造業、32家具製造業,140木竹製品、220塑膠製品、321非金屬家具,,木門、門斗,木材製品、木材,120.489639,23.4459248
台灣日邦樹脂股份有限公司,99654827,07610000312897,嘉義縣民雄鄉北斗村中正路１３號,嘉義縣民雄鄉北斗村,張尚偉,22102213,股份有限公司,0761118,0780501,生產中,19其他化學製品製造業、21橡膠製品製造業,199未分類其他化學製品、210橡膠製品,http://www.libond.com.tw/,熱熔膠、環氧樹脂、強力膠,ＥＶＡ聚乙稀、正已烷、甲苯,120.459373,23.5203838
裕發塑膠廠,99655730,05810000000658,嘉義縣水上鄉粗溪村嘉朴路８８之１號,嘉義縣水上鄉粗溪村,馮世章,66385651,獨資,0580101,0581003,生產中,22塑膠製品製造業,220塑膠製品,,塑膠管、塑膠線、塑膠帶,ＰＶＣ粉、粒,120.39151,23.4355946
嘉義縣義竹鄉農會玉米穗收購加工廠,99654971,07410010000081,嘉義縣義竹鄉傳芳村４４９號,嘉義縣義竹鄉傳芳村,顏明虔,67327103,其他,0740118,0760409,生產中,08食品製造業,086碾榖、磨粉及澱粉製品,,乾燥玉米,,120.24324,23.3402157
崇文冷凍食品股份有限公司農漁產加工廠,10000129,,嘉義縣布袋鎮興中里太平東路378之1號,嘉義縣布袋鎮興中里,蔡博仰,28550238,股份有限公司,,1021114,生產中,08食品製造業,082水產加工,,冷凍蝦、冷凍魚,,120.170715,23.3762074
勝益機械有限公司,10000372,,嘉義縣水上鄉國姓村三界埔104之100號,嘉義縣水上鄉國姓村,楊欣宇,45075498,有限公司,,1080606,生產中,29機械設備製造業,291金屬加工用機械設備,,金屬加工用機械設備,,120.473671,23.43992
勤日盛工業股份有限公司,10000234,,嘉義縣大林鎮中坑里1鄰大埔美園區20路15號,嘉義縣大林鎮中坑里,許崑山,89383607,股份有限公司,,1051130,生產中,25金屬製品製造業、29機械設備製造業,251金屬刀具、手工具及模具、293通用機械設備,,千斤頂，油壓缸,,120.507675,23.5807571
泉豐碎石廠股份有限公司,99654818,06210000011278,嘉義縣中埔鄉富收村頂中下街１０５號,嘉義縣中埔鄉富收村,陳顯榮,66378271,股份有限公司,0580101,0630528,生產中,23非金屬礦物製品製造業,233水泥及其製品、239其他非金屬礦物製品,,預拌混凝土,砂石、泥土、水,120.485229,23.4539337
田邊粉碎廠,99654964,06610000118245,嘉義縣太保市後潭里後潭３０４號,嘉義縣太保市後潭里,沈江和,66531964,獨資,0660726,0660825,生產中,08食品製造業,086碾榖、磨粉及澱粉製品,,稻米粉,,120.344269,23.4520378
信發食品工廠,99654810,07410000031235,嘉義縣布袋鎮江山里崩山１１０號,嘉義縣布袋鎮江山里,韓焌耀,66642146,獨資,0740216,0740927,生產中,08食品製造業,089其他食品,,蔬菜加工製品（蘿蔔乾高麗菜乾越瓜脯）,,120.197121,23.38128
阿文便當,10000365,,嘉義縣水上鄉龍德村十一指厝90-10號,嘉義縣水上鄉龍德村,黃智偉,81327765,獨資,,1080325,生產中,08食品製造業,089其他食品,,,,,
萬鴻科技工業股份有限公司嘉太廠,99675874,,嘉義縣太保市過溝里5鄰光復路35號,嘉義縣太保市過溝里,游築臻,27396217,股份有限公司,,0931208,生產中,22塑膠製品製造業,220塑膠製品,,塑膠射出、塑膠製品,,120.354469,23.50625
佳螺實業股份有限公司,99654900,07010000148689,嘉義縣朴子市竹村里朴子工業區二街８號,嘉義縣朴子市竹村里,李有國,66579501,股份有限公司,0580101,0711127,生產中,25金屬製品製造業、25金屬製品製造業,254金屬加工處理、259其他金屬製品,,螺絲,,120.248207,23.4380951
一山環保工程開發有限公司嘉太廠,10000123,,嘉義縣太保市過溝里嘉太工業區光復路6號,嘉義縣太保市過溝里,柯世苑,80719882,有限公司,,1020923,生產中,18化學原材料、肥料、氮化合物、塑橡膠原料及人造纖維製造業、23非金屬礦物製品製造業,181化學原材料、239其他非金屬礦物製品,,多元醇,,120.363441,23.5061073
坤德五金工業,S1000004,,嘉義縣水上鄉柳鄉村柳子林200之6號,嘉義縣水上鄉柳鄉村,鄭翔元,78457291,合夥,,1090423,生產中,32家具製造業,322金屬家具,,,,,
鼎銓機械廠,99655379,07710010001584,嘉義縣大林鎮西林里中正路３３１號,嘉義縣大林鎮西林里,梁宗森,06298400,獨資,0770818,0780116,生產中,25金屬製品製造業、29機械設備製造業,259其他金屬製品、293通用機械設備、291金屬加工用機械設備、251金屬刀具、手工具及模具,,,,,
高益企業股份有限公司,99655922,08210010083848,嘉義縣民雄鄉北斗村中山路４６號,嘉義縣民雄鄉北斗村,盧俊廷,86341344,股份有限公司,0821005,0831022,生產中,22塑膠製品製造業,220塑膠製品,,ＰＶＣ粒（塑膠粒）,,120.456779,23.5287857
南巫工業社,99655874,07510000074753,嘉義縣六腳鄉六南村六腳279之10號,嘉義縣六腳鄉六南村,侯國雄,66588298,獨資,0750319,0750319,生產中,22塑膠製品製造業,220塑膠製品,,ＰＶＣ塑膠管,,120.250679,23.5055656
永勝藥品工業股份有限公司,99655675,07610000333272,嘉義縣民雄鄉興南村頭橋工業區工業三路６之３號,嘉義縣民雄鄉興南村,廖大平,30853589,股份有限公司,0761105,0780602,生產中,20藥品及醫用化學製品製造業、08食品製造業,089其他食品、200藥品及醫用化學製品,,舒胃、固胃、安心平膠囊、費落持續釋放錠、服敏膜錠、喘克膠囊、喜可通、泰胃,,120.435242,23.5219154
凱祥興業股份有限公司,99654799,06710000225045,嘉義縣民雄鄉興南村工業二路1號,嘉義縣民雄鄉興南村,林文村,66555487,股份有限公司,0580101,0701021,生產中,16印刷及資料儲存媒體複製業、24基本金屬製造業、25金屬製品製造業、29機械設備製造業,160印刷及資料儲存媒體複製、242鋁、251金屬刀具、手工具及模具、293通用機械設備,,千斤頂,,120.437263,23.5218754
南榮塑膠射出廠,99655206,08410010008857,嘉義縣布袋鎮見龍里太平東路９８號,嘉義縣布袋鎮見龍里,莊唐榮,06367314,獨資,0841106,0841117,生產中,22塑膠製品製造業、28電力設備及配備製造業,220塑膠製品、283電線及配線器材,,塑膠射出製品,,120.176979,23.37432
友良高科技紡織股份有限公司,99655953,07210000195472,嘉義縣太保市過溝里嘉太工業區光復路１０號,嘉義縣太保市過溝里,蕭登波,79838241,股份有限公司,0721128,0721223,生產中,11紡織業,112織布,,尼龍布、特多龍布,尼龍絲、特多龍絲,120.362572,23.50604
掌鑎機械有限公司,10000446,,嘉義縣太保市舊埤里新埤7之41號,嘉義縣太保市舊埤里,郭珮純,55914367,有限公司,,1090831,生產中,29機械設備製造業,292其他專用機械設備,,,,,
保證責任嘉義縣崙尾果菜運銷合作社,10000265,,嘉義縣溪口鄉美南村崙尾80-5及80-6號,嘉義縣溪口鄉美南村,陳錫卿,87976858,合作社,,1060809,生產中,08食品製造業,083蔬果加工,,馬鈴薯、洋、,,120.3849,23.5838184
民泰塗料有限公司,99654771,07910010000560,嘉義縣水上鄉回歸村北回１７５號,嘉義縣水上鄉回歸村,賴金道,66636616,有限公司,0790508,0790622,生產中,19其他化學製品製造業,192塗料、染料及顏料,,批土,,120.414993,23.4511
維泰企業有限公司,99655279,08010010001165,嘉義縣水上鄉三界村三界埔１５５之７號,嘉義縣水上鄉三界村,鄭緯立,86115430,有限公司,0800624,0801021,生產中,13皮革、毛皮及其製品製造業,130皮革、毛皮及其製品,,皮帶，皮手提包，皮手套，皮衣,,120.474838,23.4349346
忠山機械廠有限公司嘉朴廠,10000199,,嘉義縣水上鄉水上村嘉朴路85號,嘉義縣水上鄉水上村,謝水永,97261037,有限公司,,1050118,生產中,29機械設備製造業、29機械設備製造業,293通用機械設備,,包裝機械,,120.391495,23.4356632
七洋空油壓工業股份有限公司,10000281,,嘉義縣大林鎮過溪里大埔美園區五路北段8號,嘉義縣大林鎮過溪里,鄭振中,23443267,股份有限公司,,1061120,生產中,29機械設備製造業,293通用機械設備,http://www.7ocean.com,油壓單元、電磁閥０２複合閥、疊加閥０２,幫浦、花鍵２號軸套本體ＤＧ０７－Ｈ、電螺管、液控單向閥,120.522186,23.5973911
東信生物科技股份有限公司二廠,10000445,,嘉義縣民雄鄉興南村工業三路15-1號,嘉義縣民雄鄉興南村,陳芳武,28095689,股份有限公司,,1090828,生產中,09飲料製造業,092非酒精飲料,,,,,
純捷工業有限公司,10000017,,嘉義縣水上鄉水上村中華路199巷37號,嘉義縣水上鄉水上村,周奕君,53175653,有限公司,,1000216,生產中,25金屬製品製造業、25金屬製品製造業,254金屬加工處理,,油壓千斤頂、移動臺車、油壓缸、日式千斤頂,,120.403542,23.4266281
大瓏企業股份有限公司嘉義廠,10000367,,嘉義縣鹿草鄉豐稠村馬稠後園區一路16號,嘉義縣鹿草鄉豐稠村,劉惠珍,65445701,股份有限公司,,1080416,生產中,33其他製造業,332醫療器材及用品,http://www.newdean.com.tw,醫療器材及用品,,120.274323,23.4429913
原本運搬機械有限公司,10000307,,嘉義縣太保市北港路二段105巷28號,嘉義縣太保市,賴明正,53396023,有限公司,,1070416,生產中,25金屬製品製造業,254金屬加工處理,,牙套機械配重相關加工,,120.379936,23.49541
