工廠名稱,工廠登記編號,工廠設立許可案號,工廠地址,工廠市鎮鄉村里,工廠負責人姓名,統一編號,工廠組織型態,工廠設立核准日期,工廠登記核准日期,工廠登記狀態,產業類別,主要產品,WebURL,ProductName,Material,Longitude,Latitude
久賢企業有限公司,99672920,07510020029310,嘉義市西區北湖里北社尾路２４６巷３２號,嘉義市西區北湖里,王張秀華,22121247,有限公司,0750519,0750619,生產中,29機械設備製造業,293通用機械設備,,機械,,120.422546,23.4949
大豐被服廠,99672672,06410000174130,嘉義市東區中央里吳鳳北路２９９號,嘉義市東區中央里,李宗泰,65052901,獨資,0641204,0660208,生產中,11紡織業、12成衣及服飾品製造業,121成衣、123服飾品、115紡織品,,團體服、書包，蚊帳，雨衣，帽子,,120.452621,23.48189
雨岑機械股份有限公司,99672757,07310020051713,嘉義市西區湖內里民生南路８９７巷６２號,嘉義市西區湖內里,劉蔡釆芳　　,06234265,股份有限公司,0731018,0741030,生產中,25金屬製品製造業,259其他金屬製品,,金屬製品,,120.436653,23.45286
永成螺絲工廠,99672538,07610020089024,嘉義市東區後湖里保忠三街６２巷１０２號,嘉義市東區後湖里,李蔡雪玉　　,78553626,獨資,0770114,0770123,生產中,29機械設備製造業、25金屬製品製造業、31其他運輸工具及其零件製造業,292其他專用機械設備、319未分類其他運輸工具及其零件、259其他金屬製品、293通用機械設備,,螺絲、螺帽,,120.452377,23.51359
清震實業股份有限公司,99672513,08310020039868,嘉義市東區後湖里保忠三街２７巷８０號,嘉義市東區後湖里,謝杏珠　　　,84891890,股份有限公司,0830706,0831119,生產中,25金屬製品製造業,254金屬加工處理,,螺絲熱處理,,120.4528,23.50828
長圓食品有限公司,S2000025,,嘉義市西區下埤里北港路１２９６號,嘉義市西區下埤里,高淑慧,89681303,有限公司,,1090706,生產中,08食品製造業,089其他食品,,,,,
伍營有限公司,20000064,,嘉義市東區後湖里保忠一街５０１號,嘉義市東區後湖里,李成國,42780302,有限公司,,1070118,生產中,14木竹製品製造業、14木竹製品製造業,140木竹製品,,木屑,木材,120.446304,23.5123386
寶順食品有限公司,20000063,,嘉義市東區後湖里保忠一街１００巷６８號,嘉義市東區後湖里,許智勳,56665491,有限公司,,1061207,生產中,08食品製造業,089其他食品,,品質改良劑等,,120.453323,23.5146637
興邦電机机械廠,99672996,08010020089121,嘉義市東區後湖里保義路２４６巷３０號,嘉義市東區後湖里,蔡永芳　　　,65908408,獨資,0800613,0800620,生產中,29機械設備製造業、25金屬製品製造業,293通用機械設備、292其他專用機械設備,,吊車、馬達,,120.454231,23.5057
佶峯企業社,99672644,07810020089205,嘉義市東區後湖里保義路246巷38號,嘉義市東區後湖里,何勝福　　　,76822126,獨資,0781014,0790330,生產中,25金屬製品製造業,259其他金屬製品,,瓦斯爐、五金、茶車、零件,,120.45459,23.50578
兆百祥塑膠企業股份有限公司,99672901,08110020089050,嘉義市西區大溪里北港路１０１９號,嘉義市西區大溪里,王玉梅　　　,86619024,股份有限公司,0810408,0810513,生產中,22塑膠製品製造業,220塑膠製品,,ＥＶＡ發泡板,,120.407784,23.48873
華成鐵工廠,99672867,,嘉義市東區後湖里保順路１６６號,嘉義市東區後湖里,蘇洪美玉,98061085,獨資,,0910815,生產中,25金屬製品製造業、25金屬製品製造業,259其他金屬製品,,鐵架等鋼鐵製品,,120.450394,23.50856
嘉儀企業股份有限公司,99699007,07310020005953,嘉義市東區後湖里保忠１街１０２號,嘉義市東區後湖里,黃文聰　　,14093802,股份有限公司,0730217,0730807,生產中,32家具製造業、22塑膠製品製造業,321非金屬家具、220塑膠製品、322金屬家具,,展示架、雪鏈,,120.453217,23.51306
盛新精品企業有限公司,20000028,,嘉義市西區下埤里下埤路９３號,嘉義市西區下埤里,黃心嬿,24401103,有限公司,,1020429,生產中,11紡織業、22塑膠製品製造業,115紡織品、220塑膠製品,,皮套、置物袋,,120.413437,23.49191
禎遠機械有限公司,99672668,06710000305460,嘉義市東區後湖里保忠三街６２巷１６號１樓,嘉義市東區後湖里,魏欽榮　　　,66628382,有限公司,0671208,0680717,生產中,29機械設備製造業、25金屬製品製造業,291金屬加工用機械設備、259其他金屬製品,,鋼板、鐵材、鋁材、鑄件,,120.452522,23.51119
統百食品股份有限公司,20000025,,嘉義市東區後湖里保康路２號,嘉義市東區後湖里,何宗桔,70743357,股份有限公司,,1020117,生產中,08食品製造業、08食品製造業,089其他食品,,米香捲,,120.455643,23.5076084
台灣新泥機械有限公司,S2000010,,嘉義市西區大溪里育人路４３８巷２９８號,嘉義市西區大溪里,蔡妙玲,86050680,有限公司,,1090507,生產中,22塑膠製品製造業、29機械設備製造業,220塑膠製品、292其他專用機械設備,,,,,
本原食品加工處,99672693,06110000097117,嘉義市西區新西里垂楊路６６３巷３號,嘉義市西區新西里,黃貞蓉　　　,66309373,獨資,0610922,0630827,生產中,08食品製造業,089其他食品,,素丸子,,120.436691,23.47289
和技精密科技有限公司,99699057,,嘉義市東區後湖里保成路476號1.2樓,嘉義市東區後湖里,周崑龍,80094681,有限公司,,0960625,生產中,29機械設備製造業,292其他專用機械設備,,印刷機,,120.455421,23.51075
貴臺企業有限公司,99672764,07510020080312,嘉義市東區荖藤里荖藤宅５８號,嘉義市東區荖藤里,黃保琴　　,23952986,有限公司,0751216,0751224,生產中,14木竹製品製造業,140木竹製品,,小夾板,,120.443329,23.51079
頌鑫實業股份有限公司,99672507,07210000055208,嘉義市東區後湖里保忠三街１０３號,嘉義市東區後湖里,李愈漢　　　,66619551,股份有限公司,0720406,0721121,生產中,32家具製造業、22塑膠製品製造業,220塑膠製品、321非金屬家具、322金屬家具,,塑膠泡綿,,120.451553,23.51036
大全美企業社,99672815,08410020068838,嘉義市西區新西里興業西路４９８號一樓,嘉義市西區新西里,陳鈺熏　　,19732700,合夥,0841002,0860531,生產中,12成衣及服飾品製造業,121成衣,,內衣，內褲,,120.434059,23.46822
晟達工業股份有限公司二廠,20000075,,嘉義市西區北新里文化路１０５７號,嘉義市西區北新里,江慶哲,23264600,股份有限公司,,1090106,生產中,25金屬製品製造業、25金屬製品製造業,259其他金屬製品,,,,,
永金欣表面處理有限公司,99672861,,嘉義市東區後湖里保忠一街１１７之３號,嘉義市東區後湖里,賴葉金枝,27431903,有限公司,,0910621,生產中,25金屬製品製造業,254金屬加工處理,,電鍍（金屬製品）,化學添加劑,120.451141,23.51312
錦興機械工廠,20000093,,嘉義市東區後湖里保忠三街62巷150號,嘉義市東區後湖里,李俊明,81313755,合夥,,1090330,生產中,25金屬製品製造業、25金屬製品製造業,259其他金屬製品,,,,,
欣新揚企業股份有限公司,20000029,,嘉義市東區後湖里保忠三街３８號,嘉義市東區後湖里,藍陳定,16693008,股份有限公司,,1020515,生產中,24基本金屬製造業,241鋼鐵,,泵殼類．閥類．機械零件．高鉻合金,,120.453438,23.51084
富田教俱製造廠,99672798,06010000080096,嘉義市西區頭港里玉山路８４９號,嘉義市西區頭港里,李義文　　　,66657528,獨資,0600819,0610527,生產中,32家具製造業,321非金屬家具、322金屬家具,,學生課桌椅、辦公桌、教育器材,,120.409737,23.46862
興農工業股份有限公司一廠,99672877,,嘉義市西區重興里博愛路一段５４０號,嘉義市西區重興里,王永華,65904590,股份有限公司,,0591201,生產中,29機械設備製造業,291金屬加工用機械設備、293通用機械設備,,電腦數值控制六角鑽床，轉塔式六角鑽床，立式強力鑽床，立式搪磨，齒輪，心軸,,120.441673,23.48445
乃香食品有限公司,20000057,,嘉義市西區保福里興達路６０６號一樓,嘉義市西區保福里,方雅香,55930726,有限公司,,1060217,生產中,08食品製造業,089其他食品,,麵粉製品（吐司）,,120.428528,23.4850712
進育機械工業股份有限公司,20000011,,嘉義市東區後湖里保義路２５１號,嘉義市東區後湖里,郭昭佑,12614897,股份有限公司,,1000914,生產中,29機械設備製造業、25金屬製品製造業,291金屬加工用機械設備、293通用機械設備、254金屬加工處理、259其他金屬製品,,機械製造加工，冷作焊接工程，零件精密加工,,120.452438,23.5054264
信發製油廠,S2000026,,嘉義市西區西榮里忠義街１１１號,嘉義市西區西榮里,施芳明,65127804,獨資,,1090707,生產中,08食品製造業,084動植物油脂,,,,,
吉成木模有限公司,S2000011,,嘉義市西區下埤里下埤路１１７號附１,嘉義市西區下埤里,林達優,70491979,有限公司,,1090507,生產中,14木竹製品製造業、14木竹製品製造業,140木竹製品,,,,,
紳琦五金工業有限公司,20000026,,嘉義市東區後湖里保忠三街62巷3號,嘉義市東區後湖里,黃文修,84165770,有限公司,,1020327,生產中,25金屬製品製造業,259其他金屬製品,,金屬製品,,120.452293,23.51089
營達食品有限公司,99672768,08310000600532,嘉義市西區福安里泰瑞四街８２號,嘉義市西區福安里,曾昭明　　,28629621,有限公司,0830818,0840918,生產中,,,,餐盒食品,,120.426949,23.48551
鑫進機械有限公司,S2000016,,嘉義市東區後湖里保忠一街１１７號附２,嘉義市東區後湖里,吳進益,80136015,有限公司,,1090519,生產中,29機械設備製造業、29機械設備製造業,292其他專用機械設備,,,,,
百豐機械廠,99672725,07910020089055,嘉義市西區保安里北社尾路８巷１５號,嘉義市西區保安里,賴永霖　,06232219,獨資,0790406,0790425,生產中,29機械設備製造業,293通用機械設備,,吊車、輸送設備零件,,120.429,23.4921989
新超工業股份有限公司,99672711,07910020089097,嘉義市西區竹村里竹子脚９０之３號,嘉義市西區竹村里,李柏蒼,23216544,股份有限公司,0790529,0790531,生產中,25金屬製品製造業,259其他金屬製品,,水邦浦、剎車鼓、鋼板吊架,,120.394821,23.49432
昶技企業股份有限公司,99672969,07210000188101,嘉義市東區後湖里保忠三街６２巷９８號,嘉義市東區後湖里,侯憲沛　　　,22481657,股份有限公司,0721006,0730109,生產中,22塑膠製品製造業、25金屬製品製造業、33其他製造業,220塑膠製品、259其他金屬製品、331育樂用品,,塑膠製品，塑膠模具,,120.452377,23.51331
詠順科技股份有限公司,99672834,06910000186933,嘉義市東區後湖里保義路２８８、２９０號,嘉義市東區後湖里,陳建言,23543245,股份有限公司,0690909,0700131,生產中,22塑膠製品製造業、28電力設備及配備製造業、25金屬製品製造業,220塑膠製品、252金屬結構及建築組件、285家用電器,,保利龍、風扇,,120.453232,23.50719
新興醬園,99672654,06410000037499,嘉義市西區小湖里竹文街９７巷１６號,嘉義市西區小湖里,鄭澄秋　　,65675098,獨資,0640402,0640515,生產中,08食品製造業,089其他食品,,醬油、醬菜,,120.440857,23.48171
博程有限公司,99672898,08110020089184,嘉義市西區保安里八德路２４４號,嘉義市西區保安里,蕭金榮　　　,96858425,有限公司,0811009,0820308,生產中,29機械設備製造業,293通用機械設備,,油壓機械、機械五金加工等,,120.430489,23.4889
聯嶧企業有限公司,20000035,,嘉義市西區紅瓦里新民路１１７號,嘉義市西區紅瓦里,羅智祐,16933648,有限公司,,1030129,生產中,32家具製造業,321非金屬家具,,非金屬家具,,120.433083,23.4535313
聯社糧食工廠,99672619,06310000134582,嘉義市西區磚磘里玉山路98號,嘉義市西區磚磘里,侯冠宇　　,66309866,獨資,0630920,0631028,生產中,08食品製造業,086碾榖、磨粉及澱粉製品,,糙米,,120.429237,23.47287
建欣企業社,20000001,,嘉義市西區福安里興達路７２５號,嘉義市西區福安里,蔡春華,25754693,獨資,,0991027,生產中,29機械設備製造業、30汽車及其零件製造業,293通用機械設備、303汽車零件,,安裝貨車尾門,,120.425087,23.4836769
翰德紙業有限公司,20000004,,嘉義市西區大溪里大溪路９８號,嘉義市西區大溪里,李香蘭,53151147,有限公司,,1000112,生產中,15紙漿、紙及紙製品製造業,152瓦楞紙板及紙容器,,紙桶,,120.415161,23.48525
萬事興實業有限公司,99672569,08310020031463,嘉義市西區港坪里育人路１６５巷４１弄１４號,嘉義市西區港坪里,陳泓欽　　　,23943538,有限公司,0830602,0830616,生產中,29機械設備製造業,292其他專用機械設備,,抽水機、泵浦,,120.41613,23.47099
台灣中油股份有限公司溶劑化學品事業部,99672514,058100AA000007,嘉義市西區美源里興業東路６號,嘉義市西區美源里,林珂如,19387101,股份有限公司,0580101,0580101,生產中,17石油及煤製品製造業、19其他化學製品製造業,170石油及煤製品、191農藥及環境用藥,,石油溶劑,,120.448929,23.46857
聯統印刷有限公司,S2000004,,嘉義市西區港坪里劉厝路４９３號,嘉義市西區港坪里,楊芳真,27903500,有限公司,,1090417,生產中,16印刷及資料儲存媒體複製業,160印刷及資料儲存媒體複製,,,,,
宏興洗衣有限公司,20000014,,嘉義市東區後湖里保忠二街100號,嘉義市東區後湖里,顏春貴,24378412,有限公司,,1001115,生產中,11紡織業、11紡織業,115紡織品,,床單、床罩,,120.455727,23.5095348
上客隆企業有限公司,S2000018,,嘉義市東區後湖里台林街４７５號,嘉義市東區後湖里,劉淑惠,84076658,有限公司,,1090520,生產中,25金屬製品製造業、25金屬製品製造業,254金屬加工處理,,,,,
暉昌企業股份有限公司,20000053,,嘉義市東區後湖里保忠一街１００巷６６號,嘉義市東區後湖里,潘世昌,04656508,股份有限公司,,1051207,生產中,25金屬製品製造業、25金屬製品製造業,252金屬結構及建築組件,http://www.faithsun.com,墊圈,,120.453323,23.5145264
日富塑膠廠,99672699,06210000074341,嘉義市西區保生里友愛路５２６巷１３號,嘉義市西區保生里,呂木三,66286483,獨資,0620620,0621022,生產中,22塑膠製品製造業,220塑膠製品,,塑膠零件,塑膠粒,120.4355,23.48878
共榮熱處理股份有限公司,99672688,07910020089176,嘉義市東區後湖里保忠三街６２巷２號,嘉義市東區後湖里,林昆河　　,22921085,股份有限公司,0791105,0791109,生產中,25金屬製品製造業,254金屬加工處理,,鐵,,120.452461,23.51089
蓬來鐵工廠,99672939,06210000057093,嘉義市西區西平里博愛路二段６２４號,嘉義市西區西平里,陳建龍　　　,65485554,獨資,0620514,0631030,生產中,30汽車及其零件製造業,301汽車、302車體、303汽車零件,,其他金屬製品,,120.429337,23.46995
貿暉實業股份有限公司,99672702,08810000062207,嘉義市東區後湖里忠孝二街３號,嘉義市東區後湖里,蘇清奇　　　,23864885,股份有限公司,0880320,0900202,生產中,08食品製造業,087動物飼品,,配合飼料產品、飼料添加劑調製,玉米,120.452766,23.5035
博士國際科技有限公司,20000018,,嘉義市東區後湖里保忠二街１０６號一樓,嘉義市東區後湖里,張添琮,28640581,有限公司,,1010109,生產中,32家具製造業、32家具製造業,321非金屬家具,,木板螺絲鐵零件半成品,,120.455383,23.5095329
億美印刷股份有限公司,99672858,06310000180772,嘉義市西區車店里建成街１３９號,嘉義市西區車店里,黃嘉雄,66630401,股份有限公司,0631227,0640117,生產中,16印刷及資料儲存媒體複製業,160印刷及資料儲存媒體複製,,商標印刷,,120.438683,23.47016
振宇塑膠機械有限公司,99672561,08110020089031,嘉義市西區福民里福州八街１７號一樓,嘉義市西區福民里,羅純美,86435588,有限公司,0810226,0810228,生產中,29機械設備製造業、29機械設備製造業,292其他專用機械設備,,塑膠機械裝配組合,控製箱、齒輪箱、送風機、馬達、變頻器,120.431053,23.46382
大春國際有限公司,99672823,07510020034580,嘉義市東區後湖里保忠三街６２巷１３６號,嘉義市東區後湖里,陳淑芬　,22137108,有限公司,0750617,0760605,生產中,32家具製造業,322金屬家具,,流理臺,,120.452347,23.51419
長岡化工股份有限公司,99672708,06410000129125,嘉義市西區下埤里北港路７４６巷９號,嘉義市西區下埤里,吳坤錫　　　,65279920,股份有限公司,0640911,0650228,生產中,18化學原材料、肥料、氮化合物、塑橡膠原料及人造纖維製造業,183肥料及氮化合物,,鐵牛牌有機肥、鐵牛牌有機粒肥、特１號,,120.416656,23.48681
千統鋼管企業有限公司,99672821,06810000145509,嘉義市東區後湖里保義路１４３號,嘉義市東區後湖里,蔡明儒,86341787,有限公司,0680914,0681231,生產中,25金屬製品製造業,259其他金屬製品,,鋼管,鋼管,120.453041,23.50321
奇利食品行,20000002,,嘉義市西區福安里竹圍路２０４號一樓,嘉義市西區福安里,謝鳳珠,25757072,獨資,,0991220,生產中,08食品製造業,089其他食品,,蔥油餅,,120.426422,23.4865
慶溢橡膠工廠,99672963,,嘉義市西區福全里友愛路１１０號,嘉義市西區福全里,楊勝郎　　　,65905444,獨資,,0590601,生產中,21橡膠製品製造業,210橡膠製品,,橡膠滾筒,,120.434479,23.47861
旭宇科技有限公司,20000021,,嘉義市東區後湖里保忠三街６２巷４８號,嘉義市東區後湖里,郭翰翔,25046263,有限公司,,1010910,生產中,33其他製造業,332醫療器材及用品,,醫療耗材（傳導膠）,,120.452972,23.5117874
中富開發實業有限公司,20000045,,嘉義市東區後湖里保順路２３９號,嘉義市東區後湖里,吳國誠,54526328,有限公司,,1050203,生產中,19其他化學製品製造業、19其他化學製品製造業,193清潔用品,,清潔用品製造業,,120.450012,23.5109749
福勝鐵工廠,99672678,06410000128981,嘉義市西區後驛里博愛路二段２６４號一樓,嘉義市西區後驛里,葉青裕　　　,65833701,合夥,0640912,0650819,生產中,25金屬製品製造業,259其他金屬製品,,鐵架、鐵厝,,120.437973,23.47987
芳興機械有限公司一廠,99672606,08610020022899,嘉義市西區湖內里民生南路８４１巷２９號,嘉義市西區湖內里,杜家麟　　　,97428578,有限公司,0860403,0870418,生產中,25金屬製品製造業,259其他金屬製品,,機械製造、機械零件加工,,120.437721,23.45339
億哲科技股份有限公司,20000043,,嘉義市東區後湖里保忠三街２７巷６８號,嘉義市東區後湖里,馮群翔,54122867,股份有限公司,,1040731,生產中,29機械設備製造業,293通用機械設備,,球閥．五金零件加工,,120.452309,23.50906
永光鋸木工廠,99672941,06410000171129,嘉義市東區荖藤里文化路９３０號,嘉義市東區荖藤里,吳清松　　　,66405220,獨資,0641204,0650116,生產中,14木竹製品製造業,140木竹製品,,木材．針一級製品,,120.439293,23.5028477
豐鈞木工機廠,99672563,07510020037713,嘉義市西區新厝里保安二路５２號,嘉義市西區新厝里,陳永隆　　　,06243601,獨資,0750708,0750902,生產中,29機械設備製造業、25金屬製品製造業,292其他專用機械設備,,木工機械,,120.438919,23.4903
新東興機械廠,99672962,06810000110232,嘉義市西區福全里中興路１０９號,嘉義市西區福全里,鄭堯文　　　,66517273,獨資,0680309,0690124,生產中,29機械設備製造業,293通用機械設備,,小五金,,120.437088,23.48179
黃家企業社,20000069,,嘉義市東區芳草里芳興街１００號,嘉義市東區芳草里,黃威凱,98862121,獨資,,1070807,生產中,08食品製造業、08食品製造業,089其他食品,,冰塊,,120.462845,23.467453
嘉大五金工業社,99672907,07510020019718,嘉義市東區後湖里保順路２０１號,嘉義市東區後湖里,蔡壽明　　　,66629827,獨資,0750411,0750610,生產中,25金屬製品製造業,259其他金屬製品,,金屬手工具、五金零件,,120.450157,23.50958
正甫安機械有限公司,99672593,07910020089075,嘉義市西區劉厝里自強街４９巷２３號,嘉義市西區劉厝里,賴惠燕　　　,16695081,有限公司,0790501,0790518,生產中,29機械設備製造業,292其他專用機械設備、291金屬加工用機械設備、293通用機械設備,,金屬加工用機械、車床、銑床、鑽床、電焊機、氬焊機,,120.423111,23.46388
大陞印刷機械有限公司,99672936,08310020058695,嘉義市西區磚磘里磚磘９２號,嘉義市西區磚磘里,劉書宗　　　,86354332,有限公司,0830924,0831024,生產中,29機械設備製造業,292其他專用機械設備,,印刷機械、印刷機,,120.430595,23.4755325
詠順科技股份有限公司第二廠,99699055,,嘉義市東區後湖里保義路２８６號,嘉義市東區後湖里,陳建言,23543245,股份有限公司,,0960208,生產中,22塑膠製品製造業、23非金屬礦物製品製造業、25金屬製品製造業、28電力設備及配備製造業,220塑膠製品、233水泥及其製品、252金屬結構及建築組件、285家用電器,,保利龍、負壓式、風扇,,120.454079,23.50687
九龍生物科技有限公司,99699060,,嘉義市西區大溪里北港路１０５９號一樓,嘉義市西區大溪里,張健興,27479413,有限公司,,0960830,生產中,19其他化學製品製造業,199未分類其他化學製品,,其他化學製品（一條根藥洗）,,120.406792,23.48907
福懋鐵工廠,99672692,08310020090025,嘉義市西區大溪里大溪路４５號,嘉義市西區大溪里,陳祈誠　,98054520,合夥,0830207,0830223,生產中,25金屬製品製造業,252金屬結構及建築組件,,鐵架、鋼構鐵屋、建築組件,鐵板、Ｈ型鋼、鋼管,120.4163,23.48549
鴻毅企業行,S2000007,,嘉義市西區北新里世賢路一段３２４巷２０７號,嘉義市西區北新里,蕭女香,19734019,獨資,,1090501,生產中,25金屬製品製造業,252金屬結構及建築組件,,,,,
口福不淺有限公司,99699065,,嘉義市西區湖內里湖子內路２６３號,嘉義市西區湖內里,呂迎嘉,28769495,有限公司,,0961015,生產中,08食品製造業,089其他食品,,餅乾,,120.44149,23.4500961
豐年醬園食品實業股份有限公司嘉義工廠,99672515,05910000039115,嘉義市西區西平里玉康路32號,嘉義市西區西平里,陳界宏　　,69034309,股份有限公司,0590504,0610518,生產中,08食品製造業,083蔬果加工、089其他食品,,餅乾、麵卷、月餅、麵包、水丸、菜酥,,120.426,23.46993
聖倪國際有限公司保安廠,20000040,,嘉義市西區保安里保安一路４１２巷２５號,嘉義市西區保安里,黃資翔,25164423,有限公司,,1040327,生產中,12成衣及服飾品製造業,121成衣,,成衣,,120.431236,23.491
舜新企業社,S2000014,,嘉義市西區劉厝里劉富街１８號,嘉義市西區劉厝里,邱模隆,19736924,獨資,,1090513,生產中,25金屬製品製造業、25金屬製品製造業,251金屬刀具、手工具及模具,,,,,
啟東實業有限公司,20000066,,嘉義市東區後湖里保忠一街３９９號,嘉義市東區後湖里,林韋伶,97215007,有限公司,,1070510,生產中,27電腦、電子產品及光學製品製造業、27電腦、電子產品及光學製品製造業,271電腦及其週邊設備,,伺服器,,120.447441,23.51237
志興機械廠,99672957,06310000131095,嘉義市西區後驛里博愛路二段３１０號,嘉義市西區後驛里,蘇同良,65713902,獨資,0630916,0640106,生產中,30汽車及其零件製造業,303汽車零件,,汽車零件製造，修改汽門,,120.43737,23.47913
泰宏機械工業社,99672910,08410020054386,嘉義市東區後湖里保康路２１０號,嘉義市東區後湖里,林原增,93932746,合夥,0840803,0840810,生產中,25金屬製品製造業,259其他金屬製品,,機械零件,鋼板、粗銑刀,120.448128,23.50746
新民實業廠,99672994,07210000050778,嘉義市東區後湖里保康路２２２號,嘉義市東區後湖里,翟元蓉　,66616962,獨資,0720324,0720801,生產中,19其他化學製品製造業,194化粧品,,化粧品,,120.447449,23.50746
嘉一精密機械廠股份有限公司,20000041,,嘉義市東區後湖里保忠一街１４２號,嘉義市東區後湖里,蔡煌泉,66654590,股份有限公司,,1040622,生產中,29機械設備製造業,291金屬加工用機械設備,,工作母機插床,,120.451355,23.5139
鈺昌油行,S2000023,,嘉義市西區北新里海口寮路１５０巷２３號附１,嘉義市西區北新里,黃涂月娥,98868687,獨資,,1090602,生產中,08食品製造業,084動植物油脂、086碾榖、磨粉及澱粉製品、083蔬果加工,,,,,
正嘉隆彩色印刷股份有限公司,99672568,06010000087991,嘉義市東區北門里興中街１６９號,嘉義市東區北門里,林志明,66469429,股份有限公司,0600910,0620504,生產中,16印刷及資料儲存媒體複製業,160印刷及資料儲存媒體複製,,各種彩色印刷,,120.450012,23.48273
承煜實業有限公司,99699063,,嘉義市西區湖內里湖子內路２６３號,嘉義市西區湖內里,黃詩媛,28014899,有限公司,,0961012,生產中,08食品製造業,089其他食品、083蔬果加工、086碾榖、磨粉及澱粉製品,,濃縮醋、蔬果加工,,120.44149,23.4500961
究達有限公司,20000022,,嘉義市東區蘭潭里彌陀路７０巷５７號,嘉義市東區蘭潭里,薛麗真,80219922,有限公司,,1011003,生產中,33其他製造業、33其他製造業,331育樂用品,,環保白板－加工、白板筆－組裝,,120.469162,23.4666
合浦印刷文具有限公司,99672536,07210000096962,嘉義市西區番社里中山路４１０號地下室,嘉義市西區番社里,黃許素瓊　　　,66602910,有限公司,0720610,0721012,生產中,16印刷及資料儲存媒體複製業,160印刷及資料儲存媒體複製,,印刷品（文具印刷品）,,120.445244,23.479641
承岡興業有限公司,20000038,,嘉義市東區後湖里保忠三街６２巷４２號,嘉義市東區後湖里,黃勝裕,53817002,有限公司,,1030909,生產中,29機械設備製造業、30汽車及其零件製造業,293通用機械設備、303汽車零件,,通用機械設備，汽車零件,,120.452629,23.51181
昇億機械廠,99672849,07510020038972,嘉義市東區後湖里忠孝二街１７５號,嘉義市東區後湖里,蕭秉豐,06256611,獨資,0750708,0760310,生產中,25金屬製品製造業,259其他金屬製品,,鐵板加工,,120.449783,23.50353
國樹機械廠二廠,S2000017,,嘉義市西區下埤里下埤路１８２號,嘉義市西區下埤里,吳武秋,06244377,獨資,,1090519,生產中,29機械設備製造業,292其他專用機械設備,,,,,
楠嘉五金工業股份有限公司,99672580,07610020089356,嘉義市東區後湖里保忠一街１００巷１２號,嘉義市東區後湖里,江榮德,70491401,股份有限公司,0761001,0771020,生產中,25金屬製品製造業,259其他金屬製品,,金屬管接頭、立布,,120.453377,23.51334
錦旺螺絲有限公司,99672614,08810020160039,嘉義市東區後湖里保義路２４６巷１９號,嘉義市東區後湖里,蕭郁山,16921158,有限公司,0881202,0881210,生產中,25金屬製品製造業,259其他金屬製品,,螺絲、螺帽,,120.453789,23.50572
永昌木業工廠,99672707,06110000090000,嘉義市西區劉厝里世賢路二段６６０號一樓,嘉義市西區劉厝里,鄭淵文　　　,66285512,獨資,0610909,0621016,生產中,14木竹製品製造業,140木竹製品,,柳安製材,,120.425331,23.4657269
嘉義製材工廠,99672978,,嘉義巿國華里林森西路２６８巷２０號,嘉義市西區榮檜里,王顯榮　　,65844003,獨資,,0611106,生產中,14木竹製品製造業,140木竹製品,,,,,
聖展企業社,99699053,,嘉義市西區福全里博愛路二段３１１巷３號,嘉義市西區福全里,林柏杏,76821858,獨資,,0951102,生產中,30汽車及其零件製造業,303汽車零件,,五金加工,,120.4364,23.47711
銘昱鑄造有限公司,S2000027,,嘉義市西區下埤里賢達路６１６號,嘉義市西區下埤里,陳昱彣,28535217,有限公司,,1090828,生產中,24基本金屬製造業、24基本金屬製造業,241鋼鐵,,,,,
億翔機械股份有限公司,99672586,07810020089125,嘉義市東區後湖里保順路２２８號　、　　保忠三街１０５號,嘉義市東區後湖里,馮文保　　　,66619715,股份有限公司,0780623,0791029,生產中,25金屬製品製造業、29機械設備製造業,259其他金屬製品、293通用機械設備,http://www.yi-shyang.com.tw,球閥、千斤頂零件及加工,不銹鋼、鋼鐵,120.450386,23.510107
吉隆實業股份有限公司,99672577,0AA100AA000081,嘉義市東區後湖里保忠三街２８６號,嘉義市東區後湖里,林宸宏　　　,65185260,股份有限公司,0580101,0580101,生產中,14木竹製品製造業,140木竹製品,,合板、美術板、化妝板、層積材,,120.446449,23.51044
德晉印刷廠,99672979,07010000068800,嘉義市東區大街里吳鳳北路２３７號,嘉義市東區大街里,林明宗　　　,19723836,獨資,0700224,0700604,生產中,16印刷及資料儲存媒體複製業,160印刷及資料儲存媒體複製,,印刷物（文具印刷品）,,120.453056,23.4796
穗豐碾米廠,99672630,,嘉義市西區社內里北榮街１４９號,嘉義市西區社內里,李清源　　　,66467169,獨資,,0611027,生產中,08食品製造業,084動植物油脂、086碾榖、磨粉及澱粉製品、089其他食品,,白米,,120.446716,23.48059
昇華金屬企業股份有限公司,99672923,07710020089243,嘉義市東區後湖里保忠三街２７巷６２號,嘉義市東區後湖里,王春風,22953614,股份有限公司,0770715,0790903,生產中,32家具製造業,322金屬家具,,金屬家具（桌椅）,,120.453194,23.50895
興九龍企業股份有限公司,99672935,06410000044454,嘉義市西區大溪里北港路１０６３號,嘉義市西區大溪里,張永川　　　,66443934,股份有限公司,0640410,0640417,生產中,,,,線香、香環,,120.406792,23.48907
茂新木業行,S2000005,,嘉義市西區北新里北新路７號,嘉義市西區北新里,潘柔蓁,66633370,獨資,,1090428,生產中,14木竹製品製造業、14木竹製品製造業,140木竹製品,,,,,
福壽製粉食品廠,99672585,0AA100AA000139,嘉義市東區過溝里吳鳳北路１２５號,嘉義市東區過溝里,程可秝,65671332,獨資,0410422,0410422,生產中,08食品製造業、08食品製造業,086碾榖、磨粉及澱粉製品、089其他食品,,黑豆粉、薏仁粉、芝麻粉、黃豆粉、小麥胚芽,,120.453407,23.47684
建東精工股份有限公司,99672539,0AA100AA000059,嘉義市東區後湖里忠孝一街１３５號,嘉義市東區後湖里,林弘杰,28147096,股份有限公司,0590501,0590501,生產中,29機械設備製造業、25金屬製品製造業、31其他運輸工具及其零件製造業,292其他專用機械設備、319未分類其他運輸工具及其零件,,驅動馬達，減速機,,120.448311,23.50571
民烽有限公司,99672643,07210000055279,嘉義市東區後湖里保忠三街６２巷９０號,嘉義市東區後湖里,張家豪　　,16211380,有限公司,0720409,0720922,生產中,25金屬製品製造業,259其他金屬製品,,金屬製品、五金加工、模具,,120.452408,23.51314
博愛鐵工廠有限公司,99672868,06310000124627,嘉義市西區竹圍里中興路９０號,嘉義市西區竹圍里,陳寶好　,66610622,有限公司,0630829,0631007,生產中,25金屬製品製造業,252金屬結構及建築組件,,鐵架,,120.4381,23.48148
好麥食品行,S2000002,,嘉義市西區北新里海口寮路２６７號一樓,嘉義市西區北新里,鍾月英,76843001,獨資,,1090410,生產中,08食品製造業,089其他食品,,,,,
瑞壹紙器有限公司,99672649,06410000094801,嘉義市東區荖藤里荖藤宅２４號,嘉義市東區荖藤里,蔡文森,66601721,有限公司,0640717,0650721,生產中,15紙漿、紙及紙製品製造業,152瓦楞紙板及紙容器,,紙箱,,120.444138,23.51068
新東科技有限公司嘉義廠,99699068,,嘉義市東區後湖里保忠三街６２巷２６號,嘉義市東區後湖里,歐淑霞,28380797,有限公司,,0970416,生產中,27電腦、電子產品及光學製品製造業,271電腦及其週邊設備,,環保再生碳粉匣,印表機回收再利用碳粉匣,120.452553,23.51148
益詳食品有限公司,99672627,07210000193352,嘉義市西區保福里竹圍路１０８號,嘉義市西區保福里,蔡佩宜,66624914,有限公司,0721107,0730119,生產中,08食品製造業,089其他食品,,糖果,,120.430992,23.48696
宏銘企業社,99672674,08510020015024,嘉義市西區湖內里民生南路８９７巷４５號,嘉義市西區湖內里,吳浚鋒,19394975,獨資,0850305,0850322,生產中,25金屬製品製造業、29機械設備製造業,252金屬結構及建築組件,,金屬製品,,120.43689,23.4532
亞泓企業股份有限公司,20000056,,嘉義市東區荖藤里文化路８６４巷２９號一樓,嘉義市東區荖藤里,江原名,54221711,股份有限公司,,1051228,生產中,32家具製造業、32家具製造業,321非金屬家具,,木製家具製造,,120.441422,23.50183
茂特隆股份有限公司,20000072,,嘉義市西區湖內里民生南路８９７巷５１號,嘉義市西區湖內里,黃長卿,12776294,股份有限公司,,1080603,生產中,29機械設備製造業,293通用機械設備,http://www.eptfe.com.tw,通用機械設備,,120.4369,23.4530621
成光科技股份有限公司,20000095,,嘉義市東區後湖里忠孝一街９０號,嘉義市東區後湖里,林信泉,65240307,股份有限公司,,1090715,生產中,31其他運輸工具及其零件製造業、31其他運輸工具及其零件製造業、33其他製造業,319未分類其他運輸工具及其零件、332醫療器材及用品,,,,,
陽田生物科技股份有限公司後湖廠,20000039,,嘉義市東區後湖里保順路１９７號,嘉義市東區後湖里,陳素霞,79986468,股份有限公司,,1030918,生產中,08食品製造業,087動物飼品,,動物飼料,,120.450188,23.50949
安興企業社,99672912,08710020033009,嘉義市東區後湖里保忠三街１９８號,嘉義市東區後湖里,藍予謙,19385650,獨資,0870505,0880301,生產中,25金屬製品製造業、25金屬製品製造業,259其他金屬製品,,五金加工,,120.4483,23.51039
源馨生技有限公司,20000050,,嘉義市東區後湖里保順路３１７號,嘉義市東區後湖里,陳秀鳳,54804862,有限公司,,1050822,生產中,08食品製造業,089其他食品,,香料,,120.449966,23.5135059
明昇木業,S2000013,,嘉義市西區北新里世賢路一段５８０巷３１０號,嘉義市西區北新里,李明生,76830836,合夥,,1090513,生產中,14木竹製品製造業、14木竹製品製造業、32家具製造業,140木竹製品、321非金屬家具,,,,,
川信機械股份有限公司,99672592,06710000040403,嘉義市西區新富里新榮路１２９號,嘉義市西區新富里,陳美慧　　,66460193,股份有限公司,0670309,0670318,生產中,25金屬製品製造業,259其他金屬製品,,其他金屬製品,,120.444649,23.4739
貴成木業有限公司,99672658,07510020008921,嘉義市東區荖藤里文化路８６４巷２０號,嘉義市東區荖藤里,陳峯岳,22310401,有限公司,0750226,0751224,生產中,14木竹製品製造業、14木竹製品製造業,140木竹製品,,木材,,120.441818,23.5017
永裕鐵鍊有限公司保忠二街廠,20000062,,嘉義市東區後湖里保忠二街１２１號,嘉義市東區後湖里,郭建志,27840843,有限公司,,1060726,生產中,25金屬製品製造業、25金屬製品製造業,259其他金屬製品,,鐵鍊,,120.455086,23.5105686
聖峰企業有限公司,99672917,07510020080306,嘉義市西區重興里重興街１２巷８號,嘉義市西區重興里,張寶崇　　　,66570712,有限公司,0751209,0770720,生產中,12成衣及服飾品製造業,121成衣,,成衣、童睡衣,,120.4422,23.488039
信泰企業社二廠,20000060,,嘉義市東區後湖里保忠三街１６８號,嘉義市東區後湖里,蔡宗賢,10199178,獨資,,1060608,生產中,29機械設備製造業,293通用機械設備,,五金零件、鐵板加工,,120.449142,23.5104885
順益木業工廠,99672844,06110000090006,嘉義市西區北新里文化路９１１號,嘉義市西區北新里,顏嘉毅,66282276,獨資,0610906,0620131,生產中,14木竹製品製造業、14木竹製品製造業,140木竹製品,,木材,,120.439217,23.5025
寶華塑膠企業有限公司,99672638,06110000002438,嘉義市西區北新里文化路９４３號,嘉義市西區北新里,黎玉貞　　,27611834,有限公司,0610108,0620410,生產中,22塑膠製品製造業,220塑膠製品,,塑膠袋,,120.438576,23.5033112
中華土壤改良股份有限公司,20000051,,嘉義市東區後湖里保義路２４６巷２５號,嘉義市東區後湖里,陳政勲,23948837,股份有限公司,,1051104,生產中,18化學原材料、肥料、氮化合物、塑橡膠原料及人造纖維製造業,183肥料及氮化合物,,化學肥料,,120.454,23.50575
福勝鐵工廠二廠,S2000015,,嘉義市西區北新里世賢路一段５８０巷７４號,嘉義市西區北新里,葉青裕,65833701,獨資,,1090513,生產中,25金屬製品製造業,252金屬結構及建築組件,,,,,
代佑實業有限公司,99672642,08410020032974,嘉義市東區後湖里保成路４５８號,嘉義市東區後湖里,黃旭生　　　,89918010,有限公司,0840518,0850821,生產中,25金屬製品製造業,259其他金屬製品,,瓦斯爐裝配，排油煙機裝配，熱水器裝配,,120.4552,23.5103
樂聲金屬工業有限公司,99672620,0AA100AA000223,嘉義市西區重興里博愛路一段４４８巷１６號,嘉義市西區重興里,林秀雄　　　,66498803,有限公司,0790904,0590302,生產中,25金屬製品製造業,259其他金屬製品,,液化煤氣爐,,120.442879,23.48694
金豐五金工廠,99672892,0AA100AA000163,嘉義市東區新開里市宅街２１巷４０號,嘉義市東區新開里,邱奕政　　　,65400205,獨資,0600201,0600201,生產中,25金屬製品製造業,259其他金屬製品,,其他金屬製品,,120.460243,23.47301
明豐油行,20000061,,嘉義市西區湖內里民生南路８９９號,嘉義市西區湖內里,蕭雅馨,66530022,獨資,,1060628,生產中,08食品製造業,086碾榖、磨粉及澱粉製品,,植物油，芝麻油,,120.4365,23.4544144
富元塑膠股份有限公司,99672811,07610020089073,嘉義市東區後湖里保義路２４６巷３９號,嘉義市東區後湖里,張龍祐,22790703,股份有限公司,0760303,0761219,生產中,22塑膠製品製造業,220塑膠製品,http://www.fypc.com.tw,塑膠成型品,塑膠粒,120.454674,23.50602
永信工業股份有限公司氧氣廠,99672954,058100AA000069,嘉義市西區西平里博愛路二段５４６號,嘉義市西區西平里,黃連宗　　　,65148408,股份有限公司,0580101,0580101,生產中,18化學原材料、肥料、氮化合物、塑橡膠原料及人造纖維製造業、19其他化學製品製造業、20藥品及醫用化學製品製造業,181化學原材料、199未分類其他化學製品、200藥品及醫用化學製品,,氧氣,,120.431122,23.47209
萬盈興業股份有限公司,99672615,08110020089058,嘉義市東區後湖里保義路246巷41號,嘉義市東區後湖里,顏瑋廷　　,23938900,股份有限公司,0810417,0810424,生產中,25金屬製品製造業,259其他金屬製品,,金屬製品,鐵材、鋼材,120.454582,23.50634
繼順鐵工廠股份有限公司,99672775,07910020089007,嘉義市西區下埤里北港路７４６巷３１號,嘉義市西區下埤里,呂文貴　　　,84987179,股份有限公司,0790116,0790901,生產中,30汽車及其零件製造業、31其他運輸工具及其零件製造業,319未分類其他運輸工具及其零件、301汽車、302車體、303汽車零件、339未分類其他製品,,各種拖車汽車之車體，汽車零件（鋼板車箱附件）,,120.416893,23.48727
廣定國際企業有限公司,20000065,,嘉義市西區新西里平等街３２號,嘉義市西區新西里,葉俊良,56661360,有限公司,,1070507,生產中,22塑膠製品製造業、33其他製造業,220塑膠製品、339未分類其他製品,,化學原材料,,120.435608,23.4729748
壽元化學工業股份有限公司,99672853,07510000331697,嘉義市西區湖內里新民路１２８號,嘉義市西區湖內里,張秀慧,66289377,股份有限公司,0751222,0770906,生產中,20藥品及醫用化學製品製造業、33其他製造業,200藥品及醫用化學製品、332醫療器材及用品,,西藥,,120.434486,23.45419
源昌木業製材股份有限公司嘉義廠,99672838,06010000114033,嘉義市西區劉厝里玉山路７０３號,嘉義市西區劉厝里,林欽榮　　,51710996,股份有限公司,0601101,0630620,生產中,14木竹製品製造業、32家具製造業,140木竹製品、321非金屬家具、322金屬家具,,木材製品、乾燥木材、傢俱,松木、黃樺木,120.4135,23.46882
聖賢機械有限公司,99672590,07710020089286,嘉義市西區保安里保安一路３８１號,嘉義市西區保安里,林國華　　　,84675605,有限公司,0770831,0770906,生產中,29機械設備製造業,292其他專用機械設備,,攪拌機,,120.431709,23.49085
水美製冰廠,99699036,,嘉義市東區後湖里保忠三街６２巷１２０號,嘉義市東區後湖里,吳湘怡,21624349,獨資,,0940518,生產中,33其他製造業,339未分類其他製品,,其他工業製品,,120.452347,23.51382
韋揚電子有限公司一廠,99672610,08310020022662,嘉義市東區新店里義教街５６巷９號,嘉義市東區新店里,趙瑞榮,22601111,有限公司,0830427,0830511,生產中,27電腦、電子產品及光學製品製造業、26電子零組件製造業、27電腦、電子產品及光學製品製造業,272通訊傳播設備、273視聽電子產品、269其他電子零組件,,音響組件,,120.467583,23.49446
勤億蛋品科技股份有限公司,99672558,07610000122431,嘉義市西區紅瓦里新民路３７號,嘉義市西區紅瓦里,古榮海　　　,66557154,股份有限公司,0760320,0770615,生產中,08食品製造業,089其他食品,http://www.chinyieggs.com,蛋黃，蛋白，全蛋液，蛋捲,,120.431313,23.45203
茶月食品有限公司,20000042,,嘉義市東區後湖里保順路３２７號,嘉義市東區後湖里,陳勝泉,24406873,有限公司,,1040701,生產中,08食品製造業,083蔬果加工、089其他食品,,豆漿製造,,120.449951,23.511095
建光工業有限公司,99672636,08010020089273,嘉義市西區磚磘里友忠路３０７號,嘉義市西區磚磘里,許麗品　,86746252,有限公司,0801206,0801219,生產中,25金屬製品製造業,259其他金屬製品,,電器控制箱、機械板金,,120.430229,23.47344
全瑩農產加工廠,99672987,07810020089239,嘉義市東區後湖里保成路466號1樓,嘉義市東區後湖里,林美慧　　　,76818621,獨資,0781110,0781226,生產中,18化學原材料、肥料、氮化合物、塑橡膠原料及人造纖維製造業、08食品製造業,183肥料及氮化合物、087動物飼品,,黃豆篩選,,120.455086,23.5105686
康諾生物科技有限公司,20000017,,嘉義市東區荖藤里忠孝北街１８０號,嘉義市東區荖藤里,張維駿,53303593,有限公司,,1010111,生產中,08食品製造業,089其他食品,,冬蟲夏草粉、乳酸菌粉、膠囊、膠囊,,120.444168,23.5164089
佳德美術印刷有限公司,99672746,08710020037163,嘉義市西區美源里世賢路四段１６３號,嘉義市西區美源里,魏宏達　　　,23210794,有限公司,0870520,0870629,生產中,16印刷及資料儲存媒體複製業,160印刷及資料儲存媒體複製,,高標、派書、彩色刊物,,120.448158,23.4625
品佳金屬建材有限公司嘉義廠,99672729,07710020089415,嘉義市西區大溪里大溪路２０號,嘉義市西區大溪里,許文德　　　,34540646,有限公司,0771215,0781201,生產中,25金屬製品製造業、25金屬製品製造業,259其他金屬製品,,幃幕牆、欄杆,,120.416191,23.48567
老樹有限公司,99672985,07610020089216,嘉義市西區湖內里嘉義巿民生南路７９５巷１號,嘉義市西區湖內里,謝郭菊子　　,22500438,有限公司,0760617,0770322,生產中,22塑膠製品製造業,220塑膠製品,,塑膠零件,,120.439034,23.4538612
同偉興業股份有限公司嘉義二廠,20000006,,嘉義市東區後湖里保成路４５６號,嘉義市東區後湖里,李枝鍊,97226644,有限公司,,1000125,生產中,25金屬製品製造業,253金屬容器,,鋼瓶,,120.455269,23.51001
協錩鋼鐵興業有限公司,S2000022,,嘉義市東區鹿寮里彌陀路１２號一樓,嘉義市東區鹿寮里,曾盈通,28932428,有限公司,,1090529,生產中,25金屬製品製造業,252金屬結構及建築組件,,,,,
蔚麗家具有限公司嘉義廠,20000092,,嘉義市西區大溪里北港路８０７號一樓,嘉義市西區大溪里,李秋冬,28034678,有限公司,,1090326,生產中,32家具製造業,321非金屬家具,,,,,
新臺灣久保田股份有限公司嘉義廠,99673000,08410020034822,嘉義市西區大溪里大溪路１４７號,嘉義市西區大溪里,田中伸明,75652307,股份有限公司,0840527,0840606,生產中,29機械設備製造業,292其他專用機械設備,,插秧機、聯合收穫機、曳引機、引擎,,120.414268,23.48456
世川行企業有限公司嘉義廠,99672983,08810020160028,嘉義市西區湖內里湖子內路１９４巷６１號,嘉義市西區湖內里,劉守仁,84365854,有限公司,0881025,0890529,生產中,32家具製造業,321非金屬家具、322金屬家具,,家具及裝設品,,120.440071,23.4522
巨裕五金鐵鍊有限公司,99672805,07410020070987,嘉義市東區後湖里保忠一街１００巷３２號,嘉義市東區後湖里,廖曼伶,22058194,有限公司,0741224,0750623,生產中,25金屬製品製造業,259其他金屬製品,,鐵鍊、狗鍊、鏈條、Ｙ鎖、金屬線製品,,120.453369,23.51374
大東羊食品工業股份有限公司,99699061,,嘉義市西區紅瓦里新民路１１１號,嘉義市西區紅瓦里,黃國軒,28103034,有限公司,,0960919,生產中,08食品製造業,083蔬果加工,,蒟蒻製品,,120.433022,23.453476
騰力門控股份有限公司,99672716,06110000117115,嘉義市東區後湖里忠孝一街６２號,嘉義市東區後湖里,蔡瑞育,53654823,股份有限公司,0611103,0630417,生產中,25金屬製品製造業,259其他金屬製品,,,,,
長圓食品有限公司,99672919,08810020160004,嘉義市西區新厝里保安二路１８號,嘉義市西區新厝里,廖萬昌,89681303,有限公司,0880914,0881111,生產中,08食品製造業,089其他食品、083蔬果加工,,麵包、蛋糕、麻糬、年糕、生仁糖,,120.439018,23.48939
明輝鐵工廠,99672540,06810000148904,嘉義市東區後湖里保順路１９１號,嘉義市東區後湖里,郭溪明　　　,66387102,獨資,0680927,0690825,生產中,25金屬製品製造業、29機械設備製造業,259其他金屬製品、293通用機械設備,,不銹鋼門窗、鐵門窗,,120.45018,23.50934
廣達晟實業有限公司,99672995,06510000123221,嘉義市東區後湖里保義路３１５號,嘉義市東區後湖里,蔡文仁　　,16703202,有限公司,0650803,0651119,生產中,22塑膠製品製造業,220塑膠製品,,,,,
徠達有限公司,99672832,08510020070134,嘉義市西區湖內里民生南路８４１巷１５號,嘉義市西區湖內里,王秀達　　　,16991409,有限公司,0850930,0880630,生產中,12成衣及服飾品製造業,121成衣,https://sites.google.com/site/laidayouxiangongsi/h,男女內褲,,120.437729,23.45373
振興鋼模工業社三廠,S2000001,,嘉義市西區劉厝里世賢路二段５３８巷１０１號,嘉義市西區劉厝里,黃蔡琮花,66504853,獨資,,1090408,生產中,25金屬製品製造業、29機械設備製造業,259其他金屬製品、293通用機械設備,,,,,
遠東機械工業股份有限公司,99672738,0AA100AA000026,嘉義市東區後湖里忠孝路７５２號,嘉義市東區後湖里,莊惠美,65818201,股份有限公司,0580101,0580101,生產中,24基本金屬製造業、25金屬製品製造業、29機械設備製造業,241鋼鐵、249其他基本金屬、254金屬加工處理、259其他金屬製品、291金屬加工用機械設備,http://femco.com.tw,ＡＰＩ鋼管、黑鋼管、方形管、鋅鋼管,,120.446907,23.5089741
仙農有限公司嘉義廠,20000059,,嘉義市東區後湖里保順路２５１號,嘉義市東區後湖里,蘇建安,53050892,有限公司,,1060306,生產中,18化學原材料、肥料、氮化合物、塑橡膠原料及人造纖維製造業,183肥料及氮化合物,,有機肥料,,120.449661,23.5113525
金昂興業有限公司,99699050,,嘉義市西區湖內里新民路１３２號,嘉義市西區湖內里,洪淑珍,28338068,有限公司,,0950727,生產中,23非金屬礦物製品製造業,239其他非金屬礦物製品,,五金零件,,120.434837,23.45456
福豐鋸木工廠,99672783,,嘉義市西區湖邊里博愛路一段２９４號,嘉義市西區湖邊里,蔡俊欣　,65863205,獨資,,0590901,生產中,14木竹製品製造業,140木竹製品,,鋸木加工,,120.445557,23.48896
天然品興業股份有限公司,99699047,,嘉義市西區榮檜里民生北路３３２號三樓,嘉義市西區榮檜里,陳榮達,27375418,股份有限公司,,0950517,生產中,19其他化學製品製造業,194化粧品,,洗面霜,,120.446,23.48253
皇東工業社,99672520,07410020069813,嘉義市西區大溪里大溪路２７９巷１３號一樓,嘉義市西區大溪里,黃韋賓　　　,06238585,獨資,0741227,0750307,生產中,25金屬製品製造業,259其他金屬製品,,模具、五金、白金,,120.410507,23.48288
巨裕五金鐵鍊有限公司二廠,99672804,07610020089126,嘉義市東區後湖里保忠一街１００巷４６號,嘉義市東區後湖里,廖曼伶,22058194,有限公司,0760423,0770720,生產中,25金屬製品製造業,259其他金屬製品,,鐵鍊,,120.453369,23.51405
昶技企業股份有限公司三廠,20000094,,嘉義市東區後湖里保忠一街３１７號,嘉義市東區後湖里,侯憲沛,22481657,股份有限公司,,1090609,生產中,22塑膠製品製造業、22塑膠製品製造業,220塑膠製品,,,,,
沛特立股份有限公司,20000070,,嘉義市東區後湖里忠孝二街５８號,嘉義市東區後湖里,黃長卿,58025850,股份有限公司,,1070815,生產中,27電腦、電子產品及光學製品製造業、27電腦、電子產品及光學製品製造業,275量測、導航、控制設備及鐘錶,,壓力表,,120.451935,23.5042076
圓匯科技有限公司嘉義廠,99672944,06610000130668,嘉義市西區下埤里保福路１２２巷３０號,嘉義市西區下埤里,蕭博仁　,16182441,有限公司,0660805,0661103,生產中,31其他運輸工具及其零件製造業、28電力設備及配備製造業、31其他運輸工具及其零件製造業,284照明設備及配備、319未分類其他運輸工具及其零件,,電動車,,120.406815,23.4913731
威鋼工業有限公司,S2000019,,嘉義市西區下埤里下埤路１９９號,嘉義市西區下埤里,李瑛美,27849838,有限公司,,1090521,生產中,25金屬製品製造業、25金屬製品製造業,251金屬刀具、手工具及模具、252金屬結構及建築組件、254金屬加工處理,,,,,
三益泵浦有限公司,99672809,06810000138111,嘉義市西區新西里平等街５５號,嘉義市西區新西里,詹宗諺,25032943,有限公司,0680801,0680810,生產中,25金屬製品製造業、25金屬製品製造業,259其他金屬製品,,抽水機,,120.4358,23.47234
晟達工業股份有限公司,99672616,08710020042450,嘉義市西區北新里文化路１０５９號一樓,嘉義市西區北新里,江慶哲,23264600,股份有限公司,0870612,0870624,生產中,25金屬製品製造業,252金屬結構及建築組件,,錏輕型鋼、烤漆鋼板、鐵板,,120.436882,23.5063076
弘泰鋼鐵股份有限公司,99672578,06810000124591,嘉義市東區後湖里保忠三街５０號,嘉義市東區後湖里,李嘉祥　　　,66523367,股份有限公司,0680523,0690425,生產中,25金屬製品製造業、29機械設備製造業、32家具製造業、28電力設備及配備製造業,322金屬家具、285家用電器、252金屬結構及建築組件、253金屬容器、321非金屬家具、293通用機械設備、251金屬刀具、手工具及模具,http://www.htsc.com.tw,實驗室設備、鐵管製品、各種鐵製品、鋼片、鋼捲,,120.452881,23.51078
聯豐精密科技開發股份有限公司嘉義工廠,99672706,058100AA000014,嘉義市西區福全里北港路１５４號,嘉義市西區福全里,崔前明,27789748,股份有限公司,0580101,0580101,生產中,19其他化學製品製造業,199未分類其他化學製品,,氧氣、氮氣、氬氣,,120.436836,23.47629
鑫隆企業社,20000047,,嘉義市西區保生里永吉四街２０巷９號,嘉義市西區保生里,黃哲三,34979060,獨資,,1050604,生產中,11紡織業,115紡織品,,洗衣袋、洗衣網,,120.436478,23.49223
富大工業股份有限公司,99672575,08710020051686,嘉義市東區後湖里忠孝二街１３７號,嘉義市東區後湖里,蕭惟隆,23704776,股份有限公司,0870709,0870731,生產中,25金屬製品製造業、29機械設備製造業,259其他金屬製品、293通用機械設備,,油槽、邦浦,,120.450783,23.50349
大展研磨有限公司保忠廠,20000071,,嘉義市東區後湖里保忠一街３１５號,嘉義市東區後湖里,柴偉成,80467561,有限公司,,1070823,生產中,25金屬製品製造業、25金屬製品製造業、29機械設備製造業,254金屬加工處理、291金屬加工用機械設備、293通用機械設備,,其他金屬手工具製造,,120.449471,23.51252
樺興興業有限公司,99672753,08010020089055,嘉義市東區荖藤里文化路９８８巷６６號,嘉義市東區荖藤里,曾郁凱,28313480,有限公司,0800410,0800528,生產中,22塑膠製品製造業,220塑膠製品,,ＰＶＣ盒,,120.439133,23.5057
金添成金屬股份有限公司,99672914,08510020012528,嘉義市東區後湖里保忠三街６號,嘉義市東區後湖里,陳盈伶　　,89776194,股份有限公司,0850228,0850304,生產中,25金屬製品製造業,259其他金屬製品,,鋁鋅材料壓鑄、機械五金零配件,,120.45462,23.5107
迪泉木業有限公司,99672743,06410000088567,嘉義市西區北新里文化路７６９巷１９號,嘉義市西區北新里,呂立廸　　　,66473296,有限公司,0640702,0650122,生產中,14木竹製品製造業,140木竹製品,,製材，柳安製材,,120.4395,23.4983368
詠憶塑膠有限公司嘉義廠,99672572,08410020073964,嘉義市西區竹圍里北興街４７１號一樓,嘉義市西區竹圍里,李耀樺　　　,97045637,有限公司,0841021,0841030,生產中,22塑膠製品製造業,220塑膠製品,,塑膠製品,,120.4335,23.48812
士揚國際股份有限公司後湖廠,99699072,,嘉義市東區後湖里保忠一街１０５號,嘉義市東區後湖里,李宜黛,22170247,股份有限公司,,0971222,生產中,29機械設備製造業,293通用機械設備,,泵、壓縮機、活栓及活閥〈泵〉,,120.45327,23.512619
茂春碾米工廠,99672632,,嘉義市西區重興里北興街１６０號,嘉義市西區重興里,侯尊仁　　,65439905,獨資,,0611002,生產中,08食品製造業,084動植物油脂、086碾榖、磨粉及澱粉製品、089其他食品,,白米,,120.4415,23.48418
得力仕股份有限公司,20000019,,嘉義市西區紅瓦里新民路１１３號,嘉義市西區紅瓦里,鄭秀琴,27842595,股份有限公司,,1010514,生產中,11紡織業、12成衣及服飾品製造業,115紡織品、121成衣,,寢具,,120.433083,23.4535313
鴻毅精密有限公司,99672888,,嘉義市西區湖內里湖子內路１５０號,嘉義市西區湖內里,張東源,80599654,有限公司,,0911127,生產中,25金屬製品製造業、29機械設備製造業,252金屬結構及建築組件、291金屬加工用機械設備、293通用機械設備,,其他金屬模具製造,,120.44194,23.45222
克明企業社,99672651,07710020089338,嘉義市東區後湖里保義路１２３號,嘉義市東區後湖里,"陳長芳 　　　",66546116,獨資,0771027,0780303,生產中,22塑膠製品製造業,220塑膠製品,,塑膠製品,,120.452927,23.50275
俊德五金有限公司,99672622,07210000046542,嘉義市西區新西里青年街１４６號,嘉義市西區新西里,鄭俊生　　　,66618602,有限公司,0720404,0720310,生產中,25金屬製品製造業,259其他金屬製品,,電腦桌零件、抽屜配件、桌腳配件,,120.434578,23.47013
寶祥鋁門窗,99672902,08210020090071,嘉義市西區湖內里民生南路７４７號,嘉義市西區湖內里,羅全正,66534168,獨資,0820427,0820524,生產中,33其他製造業、25金屬製品製造業,252金屬結構及建築組件,,金屬門窗,,120.440063,23.45393
三合益有限公司,20000034,,嘉義市東區後湖里保忠三街３０號,嘉義市東區後湖里,盧淑美,27858370,有限公司,,1021223,生產中,25金屬製品製造業、25金屬製品製造業,254金屬加工處理,,鋼板裁剪,,120.453529,23.510725
上銘機械工業股份有限公司,99672663,058100AA000070,嘉義市東區後湖里保義路２５３號,嘉義市東區後湖里,郭木原　　　,65405308,股份有限公司,0580101,0580101,生產中,29機械設備製造業,293通用機械設備,,機械製造加工、方棒加工,,120.452553,23.5054588
立盛機械工廠,99672790,07010000167777,嘉義市西區新厝里合江街１９３號,嘉義市西區新厝里,黃林玉枝　　,66484456,獨資,0701107,0710112,生產中,25金屬製品製造業,259其他金屬製品,,機械零件、小型機械,,120.438988,23.49213
正隆特殊印刷廠,99672504,08710020037167,嘉義市東區後湖里嘉義市忠孝二街１３５號,嘉義市東區後湖里,廖萬來　　　,66390845,獨資,0870520,0890411,生產中,16印刷及資料儲存媒體複製業,160印刷及資料儲存媒體複製,,印刷品,,120.451004,23.5035477
嘉展機械鐵工廠有限公司,99672621,06310000153777,嘉義市西區福全里友忠路５４７號,嘉義市西區福全里,蕭政嘉　　　,86936915,有限公司,0631030,0641201,生產中,29機械設備製造業、25金屬製品製造業,293通用機械設備、253金屬容器、251金屬刀具、手工具及模具、252金屬結構及建築組件,,輸送機械設備,,120.435677,23.47964
大安機械股份有限公司,99672728,06310000156801,嘉義市西區福全里北港路２１２號,嘉義市西區福全里,周育生　　　,80122167,股份有限公司,0631101,0640416,生產中,25金屬製品製造業、29機械設備製造業,259其他金屬製品、293通用機械設備、251金屬刀具、手工具及模具,,零件、冷卻用機臺、工具機週邊設備,鐵、銅、鋁、ＰＵ、電池開關、馬達、過濾瓶、壓縮機、冷凝器,120.43499,23.4774
豐億木業股份有限公司,99672845,06010000110537,嘉義巿磚■里博愛路２段５６０號,嘉義市西區磚磘里,李金爐　　　,66480846,股份有限公司,0601125,0610615,生產中,14木竹製品製造業,140木竹製品,,木材,,120.43084,23.47172
永達鐵工廠,99672938,06410000148584,嘉義巿磚■里玉山路７８巷６號,嘉義市西區磚磘里,林金扇　　　,66386482,獨資,0641017,0641027,生產中,25金屬製品製造業,259其他金屬製品,,不銹鋼洗臉盆,,120.429832,23.473299
德隆機械廠,99672562,07810020089126,嘉義市西區新厝里撫順三街６７號,嘉義市西區新厝里,王淑女　　　,76813858,獨資,0780623,0780816,生產中,29機械設備製造業,293通用機械設備,,機械,,120.439392,23.49038
永發碾米工廠,99672641,,嘉義市東區安寮里吳鳳南路３１５號,嘉義市東區安寮里,郭先桐　　　,65120416,獨資,,0591101,生產中,08食品製造業,084動植物油脂、086碾榖、磨粉及澱粉製品,,白米米糠,,120.454872,23.46551
坤松玻璃有限公司,99672623,08310020011632,嘉義市西區美源里杭州六街６號,嘉義市西區美源里,吳坤松　　　,22392281,有限公司,0830309,0830322,生產中,23非金屬礦物製品製造業,231玻璃及其製品,,玻璃,玻璃,120.443893,23.46602
弘達企業社,99672880,08810020043621,嘉義市東區後湖里保義路246巷8號,嘉義市東區後湖里,何麗雪　　　,19403778,獨資,0880609,0891026,生產中,22塑膠製品製造業,220塑膠製品,,五金零件、塑膠製品,,120.453438,23.50565
德亨企業有限公司,99672635,0AA100AA000136,嘉義市西區北榮里向榮街２０１號,嘉義市西區北榮里,呂秀慧　　　,65870120,有限公司,0591111,0591101,生產中,14木竹製品製造業,140木竹製品,,木材,,120.4462,23.48849
德和碾米工廠,99672537,,嘉義市東區頂寮里吳鳳南路２９７號,嘉義市東區頂寮里,林協誠　　　,65881604,獨資,,0591127,生產中,08食品製造業,084動植物油脂、086碾榖、磨粉及澱粉製品、089其他食品,,白米,,120.454941,23.46629
大銓工業社,99672767,08310020014796,嘉義市東區後湖里忠孝二街１２號,嘉義市東區後湖里,黎淑津　　　,98057316,獨資,0830324,0830421,生產中,25金屬製品製造業,259其他金屬製品,,鐵窗,,120.452431,23.50466
新嘉餐盒食品工廠,99672827,08910000903728,嘉義市西區湖內里民生南路７９５巷８１號,嘉義市西區湖內里,洪淑芬,93936840,獨資,0890620,0910416,生產中,08食品製造業,089其他食品,,餐盒食品、團體膳食、壽司、三明治、油飯,,120.439178,23.45229
新寶製刀廠,99672709,08910020160028,嘉義市西區車店里蘭州五街２８號一樓,嘉義市西區車店里,張文寶,76816980,獨資,0890324,0891215,生產中,25金屬製品製造業,254金屬加工處理,,其他金屬手工具製造,,120.431763,23.46884
豐興汽車車體廠,99672609,08110020089243,嘉義市東區後湖里保康路２００號,嘉義市東區後湖里,陳炎生　　　,66520798,獨資,0811222,0820105,生產中,30汽車及其零件製造業,301汽車、302車體、303汽車零件,,車體打造，汽車零件,,120.448677,23.5075
綺展企業股份有限公司,99672950,07810020089174,嘉義市東區後湖里保義路３２９號,嘉義市東區後湖里,徐全金　　　,66622818,股份有限公司,0780826,0780901,生產中,32家具製造業、28電力設備及配備製造業,322金屬家具、285家用電器,,烤箱、保溫箱、油炸鍋、米香堡機,,120.45285,23.50713
隆友企業社,99699011,07510020026076,嘉義巿美源里仁愛路１３２號,嘉義市西區車店里,許秀絹　　　,66379497,獨資,0750505,0760620,生產中,16印刷及資料儲存媒體複製業,160印刷及資料儲存媒體複製,,印刷，紙張,,120.442123,23.46631
三能機械廠有限公司,99672761,07510020031886,嘉義市西區保安里通化二街８３號,嘉義市西區保安里,蕭美華　　,89584702,有限公司,0750529,0750704,生產中,29機械設備製造業、25金屬製品製造業,293通用機械設備、251金屬刀具、手工具及模具、259其他金屬製品,,手工具,,120.435287,23.49133
雙立機械有限公司,99672859,07510020027838,嘉義市東區後湖里保忠三街６２巷１４６號,嘉義市東區後湖里,林西專　　　,22594322,有限公司,0750510,0770115,生產中,25金屬製品製造業、29機械設備製造業,293通用機械設備、251金屬刀具、手工具及模具、259其他金屬製品,,皮帶、軸承,,120.45237,23.51442
嘉祥印刷廠,99672517,07610020089168,嘉義市西區光路里新民路５５５巷１６號,嘉義市西區光路里,賴瑞耀　　　,06261430,獨資,0760518,0760523,生產中,16印刷及資料儲存媒體複製業,160印刷及資料儲存媒體複製,,紙張印刷,,120.439636,23.4609
和氣企業社,99672780,07810020089276,嘉義市西區保安里安東一街５９號,嘉義市西區保安里,黃西斌　　　,76823531,獨資,0781227,0790524,生產中,33其他製造業,339未分類其他製品,,瓦斯（爐，熱水器，開關調整器）組配，排油,,120.433907,23.49343
昌昂有限公司嘉義廠,99672714,07910020089029,嘉義市東區後湖里保義路２４６巷４３號,嘉義市東區後湖里,黃志升　　　,23245457,有限公司,0790220,0790309,生產中,22塑膠製品製造業,220塑膠製品,,塑膠製品,,120.454292,23.50628
重盈企業社,99672974,07510020037698,嘉義市西區重興里新厝４７６號,嘉義市西區重興里,陳龍村　　　,06240175,獨資,0750606,0750628,生產中,25金屬製品製造業,259其他金屬製品,,機械零件、固定桿、連桿,,120.442848,23.48576
福興五金工業社,99672712,07910020089098,嘉義市西區車店里蘭州五街１１４號,嘉義市西區車店里,蘇慶福　　　,76820268,獨資,0790531,0790620,生產中,25金屬製品製造業,259其他金屬製品,,,,,
大億廠,99672696,07410020008436,嘉義市東區後湖里保忠三街６２巷５６號,嘉義市東區後湖里,朱建吉　　　,66657153,獨資,0740216,0740507,生產中,25金屬製品製造業、23非金屬礦物製品製造業、30汽車及其零件製造業,232耐火、黏土建材及其他陶瓷製品、239其他非金屬礦物製品、259其他金屬製品、301汽車、302車體、303汽車零件,,鐵板製品、鐵線製品,,120.452858,23.51193
達洋實業股份有限公司,99672802,07910020089247,嘉義市西區福民里重慶路１５０號,嘉義市西區福民里,曾昆玉　　　,23829781,股份有限公司,0791210,0791218,生產中,11紡織業,115紡織品,,桌巾，床單,布,120.436951,23.46567
福義軒食品廠有限公司嘉義廠,99672870,0AA100AA000097,嘉義市西區培元里成功街９８號,嘉義市西區培元里,曾華盈,66430446,有限公司,0590801,0590801,生產中,08食品製造業,089其他食品,,餅乾,,120.443527,23.47219
南興股份有限公司,99672683,07510020024092,嘉義市西區下埤里頂埤５０號,嘉義市西區下埤里,黃毓傑　　　,84240074,股份有限公司,0750430,0750605,生產中,,,,其他醫療器材及用品,,120.413147,23.4921551
信泰企業社,99699067,,嘉義市東區後湖里保順路２２０號,嘉義市東區後湖里,蔡宗賢,10199178,獨資,,0970408,生產中,25金屬製品製造業,259其他金屬製品,,千斤頂零件、五金零件、車床零件,,120.450386,23.5096836
盛達亞開發股份有限公司,99699026,,嘉義市東區荖藤里荖藤宅２２之２０號,嘉義市東區荖藤里,王文賢,80625772,股份有限公司,,0930416,生產中,25金屬製品製造業,251金屬刀具、手工具及模具,,塑膠製品、模具,,120.444008,23.51014
樺山玩具有限公司,99672607,08510020008417,嘉義市興村里過溪４４４號,嘉義市東區興安里,范乃仁　　,28903459,有限公司,0850207,0850305,生產中,33其他製造業,331育樂用品,,玩具槍（噴水及軟水塞槍裝配，發射ＢＢ彈用）,,120.454971,23.45197
順興機械廠,99672685,08110020089128,嘉義市西區新西里老吸街７０號,嘉義市西區新西里,周虹佑　　　,65663305,獨資,0810723,0810803,生產中,25金屬製品製造業,259其他金屬製品,,鑄皮帶輪、鑄銑件,,120.436081,23.47175
日隆印刷所,99672972,07610020089044,嘉義市西區育英里永安街２８７號,嘉義市西區育英里,陳國雄　　　,06267820,獨資,0770125,0770205,生產中,16印刷及資料儲存媒體複製業,160印刷及資料儲存媒體複製,,印刷品,,120.447639,23.47046
新大清潔用品廠,99672617,07510020080185,嘉義市西區長安里長安街１巷３３號,嘉義市西區長安里,洪新一　　　,66310913,獨資,0751008,0751023,生產中,25金屬製品製造業,259其他金屬製品,,鉛線,,120.445282,23.48429
日昕有限公司,99699074,,嘉義市東區後湖里保忠一街１００巷３０號,嘉義市東區後湖里,羅靜俊,24265000,有限公司,,0980205,生產中,30汽車及其零件製造業、29機械設備製造業,303汽車零件、293通用機械設備,,汽車零件,,120.453369,23.51374
國樹機械廠,99672932,07510020039925,嘉義市東區王田里林森東路３４２巷７號,嘉義市東區王田里,吳武秋　　　,06244377,獨資,0750711,0751027,生產中,29機械設備製造業,293通用機械設備,,機械零件、螺桿、五金機具,,120.465149,23.48929
良竹機器股份有限公司,99672967,07610020089444,嘉義市東區後湖里保順路１２６號,嘉義市東區後湖里,陳秉墘　　　,22681971,股份有限公司,0761217,0771118,生產中,29機械設備製造業,292其他專用機械設備,,竹蓆,,120.450523,23.50707
世凱有限公司,99672637,07410020046984,嘉義市西區新厝里保安一路１２０號,嘉義市西區新厝里,王國立　　　,66540942,有限公司,0740819,0741029,生產中,13皮革、毛皮及其製品製造業、22塑膠製品製造業,130皮革、毛皮及其製品、220塑膠製品,,動物用皮帶，玩具砂管及砂紙,,120.439011,23.49357
興昇工業社,99672785,07510020080041,嘉義市西區車店里貴州街７號,嘉義市西區車店里,蕭淑娥　　　,06239395,獨資,0750808,0750815,生產中,25金屬製品製造業,259其他金屬製品,,機械零件,,120.435448,23.46696
龍山鐵工廠,99672968,07710000173959,嘉義市東區龍山里民族路１４８號,嘉義市東區龍山里,賴國定　　　,65904705,獨資,0770301,0770301,生產中,25金屬製品製造業,259其他金屬製品,,其他金屬製品,,120.458023,23.47684
家美食品便當工廠,99672831,07710000271559,嘉義市東區後湖里忠孝二街６８號,嘉義市東區後湖里,陳慧青　　　,19397240,獨資,0770713,0771209,生產中,08食品製造業,089其他食品,,餐盒食品，團體餐食,,120.451874,23.504
進興精工股份有限公司,99672956,08010020089062,嘉義市西區福全里北港路１３８號,嘉義市西區福全里,張宏榮　　　,86091850,股份有限公司,0800413,0800416,生產中,25金屬製品製造業,259其他金屬製品,,,,,
嘉成塑膠有限公司,99672639,08010020089108,嘉義市保忠三街２７巷８７號,嘉義市東區後湖里,高華橋　　　,86800092,獨資,0800603,0820626,生產中,22塑膠製品製造業,220塑膠製品,,塑膠製品,,120.453194,23.50806
宏志鋼珠企業社,99672750,07710020089058,嘉義市東區後湖里保忠三街１６２號,嘉義市東區後湖里,許宏仁　　　,06271205,獨資,0770128,0770519,生產中,25金屬製品製造業,259其他金屬製品,,鋼珠、鐵珠,,120.449409,23.51043
三愛鐵工廠,99672771,08010020089173,嘉義市東區後湖里保忠三街２７巷８３號,嘉義市東區後湖里,莊基地　　　,98052608,獨資,0800810,0821019,生產中,25金屬製品製造業,259其他金屬製品,,五金零件、瓦斯爐、模具,,120.453743,23.50804
祥銘機械有限公司,99672554,,嘉義市西區西平里永春二街３６號,嘉義市西區西平里,洪張玉蘭　　,16515980,有限公司,,0770324,生產中,25金屬製品製造業,259其他金屬製品,,各式機械加工零組件,,120.426239,23.47846
振豐碾米工廠,99672631,,嘉義市西區保安里北興街４３２號,嘉義市西區保安里,蕭傑夫　　,65526801,獨資,,0611117,生產中,08食品製造業,084動植物油脂、086碾榖、磨粉及澱粉製品、089其他食品,,白米、糙米,,120.4352,23.48736
得貿興業股份有限公司,99699080,,嘉義巿保忠一街１０５號,嘉義市東區後湖里,李榮貴　　　,22232834,股份有限公司,,0980601,生產中,29機械設備製造業,293通用機械設備,,車輛用製品,,120.45327,23.51262
新福聯機械廠,99672793,07510020080181,嘉義市東區後庄里林森東路３１５–１號,嘉義市東區後庄里,吳和東　　　,66279342,合夥,0751004,0751015,生產中,29機械設備製造業,292其他專用機械設備,,鑄造機械、震動器,球墨鑄鐵、鑄鋼、銑鐵、鐵管,120.466919,23.4902
元記企業股份有限公司,99672977,06110000030537,嘉義市西區保安里自由路３８０號,嘉義市西區保安里,洪榮隆　　,65056821,股份有限公司,0610407,0611012,生產中,14木竹製品製造業,140木竹製品,,雕刻木器、木器加工,,120.434,23.49134
金泰昌機械有限公司,99699085,,嘉義市西區福民里世賢路三段３７３號,嘉義市西區福民里,謝明章,25021116,有限公司,,0990810,生產中,29機械設備製造業,292其他專用機械設備,,工業皮帶,,120.43586,23.46165
臺灣井筒化學工業股份有限公司,99672667,058100AA000149,嘉義市西區福全里博愛路二段２９７號,嘉義市西區福全里,黃吳秋美,65865409,股份有限公司,0580101,0600101,生產中,19其他化學製品製造業、22塑膠製品製造業,194化粧品、220塑膠製品,,杳水、瓶、蓋,,120.436752,23.47785
繁榮工業股份有限公司嘉義廠,99699084,,嘉義市東區後湖里保忠三街６２巷２２號,嘉義市東區後湖里,王秀梅,16906451,有限公司,,0990106,生產中,14木竹製品製造業,140木竹製品,,水泥板,,120.452553,23.51148
宙洋股份有限公司,99699089,,嘉義市西區港坪里大同路６３３號一樓,嘉義市西區港坪里,鄭暐騰,53061103,股份有限公司,,0990908,生產中,08食品製造業,087動物飼品,,畜牧用品,,120.418228,23.4749851
廣春生物科技有限公司,99699087,,嘉義市東區後湖里保順路１４２號,嘉義市東區後湖里,陳朝春,24350441,有限公司,,0990902,生產中,08食品製造業,089其他食品,,食品製造業,,120.450417,23.50786
泰祥鐵工廠,99672600,08010020089174,嘉義市東區後湖里保忠三街２７巷８５號,嘉義市東區後湖里,黃豐彥　　　,98052591,獨資,0800810,0821019,生產中,25金屬製品製造業,259其他金屬製品,,銅製品,,120.453392,23.50806
嘉義五金工業有限公司,99672847,08010020089175,嘉義市東區後湖里保忠三街２７巷８１號,嘉義市東區後湖里,林國榮　　　,23961465,有限公司,0800810,0820521,生產中,25金屬製品製造業、29機械設備製造業,259其他金屬製品、293通用機械設備,,工業用針,,120.454094,23.5080471
順泰印花社,99672934,07510020080124,嘉義市東區後湖里保忠一街１００巷３６號,嘉義市東區後湖里,郭文彬　　　,78561132,獨資,0750916,0750925,生產中,11紡織業,114染整,,衣服印花,,120.453362,23.51389
崧喬橡膠工業有限公司,99699033,,嘉義市東區後湖里保康路１９８號,嘉義市東區後湖里,吳松秋,27444457,有限公司,,0940114,生產中,21橡膠製品製造業,210橡膠製品,,橡膠製品,橡膠,120.44886,23.50749
協盛汽車修理有限公司,99699034,,嘉義市東區後湖里忠孝二街76號,嘉義市東區後湖里,李錦鳳,80057270,有限公司,,0940204,生產中,30汽車及其零件製造業,301汽車、302車體、303汽車零件,,汽車及其零件,,120.451729,23.503849
名凱科技產業股份有限公司,99672931,07910020089147,嘉義市東區後湖里保忠三街２７巷７９號,嘉義市東區後湖里,林家陞,89670283,股份有限公司,0790815,0801023,生產中,25金屬製品製造業、29機械設備製造業,259其他金屬製品、293通用機械設備,,金屬加工,,120.453491,23.50824
調洋彈簧有限公司二廠,99699086,,嘉義市東區後湖里保忠一街140號,嘉義市東區後湖里,陳調洋,22965631,有限公司,,0990826,生產中,25金屬製品製造業,259其他金屬製品,,五金類彈簧,鋼、鐵,120.451355,23.5139
天台塑膠加工廠,99672534,,嘉義市西區西榮里民族路５５６巷１號,嘉義市西區西榮里,陳偉正,65058237,獨資,,0600402,生產中,22塑膠製品製造業,220塑膠製品,,塑膠製品,,120.44751,23.47607
同偉興業股份有限公司嘉義廠,99672511,07510020080251,嘉義市東區後湖里保忠三街６２巷９５號,嘉義市東區後湖里,李枝鍊　　　,97226644,股份有限公司,0751103,0760623,生產中,25金屬製品製造業,253金屬容器、259其他金屬製品,,鋼瓶,,120.452087,23.51368
重億興業股份有限公司,99672988,07510020080274,嘉義市東區後庄里東義路１７６巷２號,嘉義市東區後庄里,盧再傳　　　,22228803,股份有限公司,0751121,0751213,生產中,29機械設備製造業、25金屬製品製造業,293通用機械設備、259其他金屬製品,,珠磨機、研磨機、攪拌機,,120.469429,23.49562
偉達企業社,99672599,07710020089139,嘉義市東區後湖里保義路２４６巷４７號,嘉義市東區後湖里,蔡崇傑　　　,06279425,獨資,0770409,0771006,生產中,25金屬製品製造業,259其他金屬製品,,五金零件,,120.454918,23.50625
永德齒輪機械廠,99672758,07710020089168,嘉義巿磚■里玉山路７８巷２８號,嘉義市西區磚磘里,吳葉秀鴻　　,06277735,獨資,0770509,0771206,生產中,25金屬製品製造業,259其他金屬製品,,機械零件，齒輪,,120.429764,23.47375
宏金塑膠工廠,99672557,07510000269396,嘉義市西區垂楊里建成街７５巷１６號,嘉義市西區垂楊里,蘇錦源　　　,66317872,獨資,0751002,0751002,生產中,22塑膠製品製造業,220塑膠製品,,塑膠製品,,120.4403,23.4706
禎遠機械有限公司第一廠,99672669,07510020080328,嘉義市東區後湖里保忠三街６２巷１８號,嘉義市東區後湖里,魏欽榮　,66628382,有限公司,0751130,0751231,生產中,29機械設備製造業、25金屬製品製造業,291金屬加工用機械設備、293通用機械設備、259其他金屬製品,,鋼板、鐵材、鋁材、鑄件,,120.452507,23.5113
興遠螺絲有限公司,99672872,07710020089225,嘉義市東區後湖里９鄰保忠二街１３７號,嘉義市東區後湖里,蔡宗　　　　,84846690,有限公司,0770705,0780228,生產中,25金屬製品製造業,259其他金屬製品,,螺絲、螺帽,,120.454788,23.51112
益誠工業股份有限公司,99672837,07710020089250,嘉義市東區荖藤里荖藤宅４６之１號,嘉義市東區荖藤里,郭議銘　　　,22951088,股份有限公司,0770722,0771201,生產中,30汽車及其零件製造業、31其他運輸工具及其零件製造業、29機械設備製造業,292其他專用機械設備、301汽車、303汽車零件,,未分類其他通用機械設備製造,,120.443588,23.50931
永信五金工廠,99672951,07710020089262,嘉義市西區車店里蘭州五街４３號,嘉義市西區車店里,劉景峯　　　,66601784,獨資,0770730,0770802,生產中,25金屬製品製造業、29機械設備製造業,251金屬刀具、手工具及模具、291金屬加工用機械設備、292其他專用機械設備,,五金零件加工,,120.431564,23.4679813
崇焜工業有限公司,99672698,08110020089044,嘉義市西區車店里蘭州五街４２號,嘉義市西區車店里,葉崇昆　　　,86428307,有限公司,0810323,0810327,生產中,25金屬製品製造業,259其他金屬製品、293通用機械設備,,五金零件,,120.431511,23.46856
慶昌不■鋼廚具工廠,99672612,08110020089097,嘉義市東區後湖里保忠一街１１７號,嘉義市東區後湖里,吳啟文　　　,78554060,獨資,0810619,0820422,生產中,25金屬製品製造業,253金屬容器,,,,,
瑞祥企業社,99672613,08110020089098,嘉義市東區後湖里保順路２２６號,嘉義市東區後湖里,王水胡　　　,78569351,獨資,0810623,0820518,生產中,28電力設備及配備製造業,289其他電力設備及配備,,汽車零件,,120.450378,23.50993
大將國際開發股份有限公司,99672508,,嘉義市西區湖內里民生南路９３５號一樓,嘉義市西區湖內里,林宗勳,12736202,股份有限公司,,0900627,生產中,12成衣及服飾品製造業、13皮革、毛皮及其製品製造業、33其他製造業,121成衣、130皮革、毛皮及其製品、339未分類其他製品,,成衣、皮包、自行車衣、手提袋,,120.435638,23.45442
世凰食品有限公司,S2000003,,嘉義市西區光路里民生南路４６６巷１３號,嘉義市西區光路里,羅偉誠,16974788,有限公司,,1090410,生產中,08食品製造業、08食品製造業,089其他食品,,,,,
金恩企業社,99672918,07710020089346,嘉義市西區保安里永吉三街５３號,嘉義市西區保安里,姜林啟祥　　,66506579,獨資,0771024,0771109,生產中,25金屬製品製造業,259其他金屬製品,,機械組件,,120.436417,23.49254
柏松紙業股份有限公司,99672679,07510020005628,嘉義市西區光路里新民路４９９巷３１號,嘉義市西區光路里,蕭黃秋鑾　　,86529229,有限公司,0750213,0750319,生產中,15紙漿、紙及紙製品製造業,152瓦楞紙板及紙容器,,紙箱，紙盒,,120.439857,23.45996
蘭潭彩色印刷股份有限公司,99672759,07610020089023,嘉義市西區車店里興業西路５００號,嘉義市西區車店里,沈豐裕　　　,22377417,股份有限公司,0751231,0760616,生產中,16印刷及資料儲存媒體複製業,160印刷及資料儲存媒體複製,,海報，表格，印刷品,,120.434311,23.46879
欣豪金屬股份有限公司,99672933,07710020089367,嘉義市東區後湖里保忠三街２７巷９０號,嘉義市東區後湖里,王春聯　　　,84515328,股份有限公司,0771110,0781130,生產中,32家具製造業,322金屬家具,,鋼製桌椅，鋼製鐵櫃,鐵材,120.45285,23.50807
居德工業有限公司,99672523,07710020089371,嘉義市東區後湖里保忠三街１４６號,嘉義市東區後湖里,黃文雄　　　,22931598,有限公司,0771111,0771122,生產中,29機械設備製造業、25金屬製品製造業,293通用機械設備、253金屬容器、259其他金屬製品,,鍋爐、鐵桶、不銹鋼桶,,120.45005,23.51047
鑫琪企業股份有限公司,99672881,07710020089400,嘉義市西區重興里自由路１１號,嘉義市西區重興里,王振福　　　,23096061,股份有限公司,0771206,0771209,生產中,24基本金屬製造業,241鋼鐵,,鋼（品，線，條）,,120.441391,23.48488
男榮塑膠企業股份有限公司,99672691,07610020089069,嘉義市東區後湖里保忠三街６２巷７７號,嘉義市東區後湖里,黃振男　　　,22376233,股份有限公司,0760302,0761224,生產中,22塑膠製品製造業、33其他製造業,220塑膠製品、332醫療器材及用品,,塑膠製品,,120.452171,23.51313
仁宏印刷企業社,99672851,07610020089068,嘉義市西區自治里蘭井街３６７號,嘉義市西區自治里,蕭育宏　,06243406,獨資,0760303,0760622,生產中,16印刷及資料儲存媒體複製業,160印刷及資料儲存媒體複製,,燙金印刷,,120.444862,23.47697
三峰鐵工廠,99672801,07310020053921,嘉義市東區後湖里保義路２４６巷１５號,嘉義市東區後湖里,余秋慧　　　,66658651,獨資,0731024,0750116,生產中,25金屬製品製造業,259其他金屬製品,,機械零組件加工,,120.453651,23.50576
品鋒工業股份有限公司,99672591,08110020089115,嘉義市西區湖內里湖子內路９２巷４１號,嘉義市西區湖內里,何忠堃　　　,86677662,股份有限公司,0810708,0821129,生產中,25金屬製品製造業,259其他金屬製品,http://www.pinfeng.com.tw/,金屬沖壓零件，燈具零件、金屬模具,,120.4412,23.45338
永耀鑫精密企業有限公司,99672926,08110020089122,嘉義市西區竹圍里興雅路３０號,嘉義市西區竹圍里,胡永吉　　　,89717891,有限公司,0810710,0810711,生產中,25金屬製品製造業,259其他金屬製品,,機械零件，小五金,,120.435158,23.48318
益美食品行,99672629,08910020160116,嘉義市西區保安里北鎮街５６巷１６號一樓,嘉義市西區保安里,莊進財,67884965,獨資,0891208,0891215,生產中,08食品製造業,089其他食品,,糖果,,120.431152,23.48788
成晟工業有限公司,99672774,09010020160005,嘉義市東區後湖里保忠三街６２巷６２號,嘉義市東區後湖里,蕭永松,12617373,有限公司,0900206,0900220,生產中,25金屬製品製造業、29機械設備製造業,291金屬加工用機械設備,,金屬加工,,120.452568,23.51197
中光機械廠股份有限公司,99672916,,嘉義市西區重興里北興街３０６號,嘉義市西區重興里,鄭榮欽　　　,66270052,股份有限公司,,0600101,生產中,29機械設備製造業,292其他專用機械設備,,專用生產機械,,120.438606,23.48561
振茂木業有限公司,99672529,,嘉義市西區香湖里文化路７１６號,嘉義市西區香湖里,黃振鵬,16580399,有限公司,,0901012,生產中,14木竹製品製造業,140木竹製品,,木竹製品,,120.44252,23.49763
新驛精密工業有限公司,99672830,,嘉義市東區後湖里保忠三街１３３號一樓,嘉義市東區後湖里,葉麗娟,16496055,有限公司,,0910418,生產中,25金屬製品製造業,259其他金屬製品,,線切割,鐵、鋼材,120.449707,23.51031
茂華包裝有限公司二廠,99672873,,嘉義市東區後湖里保康路１６６號,嘉義市東區後湖里,陳永良,66514297,有限公司,,0910926,生產中,14木竹製品製造業,140木竹製品,,木竹製品,,120.451149,23.50757
金和工程企業有限公司,99672885,,嘉義市東區後湖里保忠三街６２巷４６號,嘉義市東區後湖里,王金和,66383289,有限公司,,0911115,生產中,33其他製造業,339未分類其他製品,,其他工業製品,工業製品零件,120.452873,23.51179
信道印刷企業股份有限公司,99672598,0AA100AA000164,嘉義市東區東山里光彩街１０８巷５號,嘉義市東區東山里,陳惠美　　　,65409959,股份有限公司,0600201,0600201,生產中,16印刷及資料儲存媒體複製業,160印刷及資料儲存媒體複製,,印刷品，簿本，帳冊,,120.459579,23.47966
德記水泥製品廠,99672579,,嘉義市東區雲霄里林森東路６１號,嘉義市東區雲霄里,王曾炎貴　　,65870275,獨資,,0600315,生產中,23非金屬礦物製品製造業,233水泥及其製品,,水泥製品,,120.455727,23.4868
千億機器企業有限公司,99699015,,嘉義市東區後湖里保忠三街６２巷１２７號,嘉義市東區後湖里,周玉芩,27605093,有限公司,,0920515,生產中,29機械設備製造業,291金屬加工用機械設備、293通用機械設備,,油壓機,,120.452171,23.51473
合凱企業社,99699039,,嘉義市西區磚■里玉山７８巷２１、２３號一樓,嘉義市西區磚磘里,李政晃,98865197,獨資,,0940808,生產中,25金屬製品製造業,251金屬刀具、手工具及模具,,金屬手工業,,120.4297,23.4724331
南綜塑膠股份有限公司,99672864,,嘉義市東區後湖里保忠三街１６號,嘉義市東區後湖里,梁武松,13066692,股份有限公司,,0910722,生產中,18化學原材料、肥料、氮化合物、塑橡膠原料及人造纖維製造業,184塑膠及合成橡膠原料,,合成樹脂，塑膠及橡膠,,120.454239,23.51086
瑞興機械廠,99672862,07510020025253,嘉義市西區竹圍里中興路２４６號,嘉義市西區竹圍里,侯信瑞,66652811,獨資,0750426,0750903,生產中,25金屬製品製造業,259其他金屬製品,,機械及零件,,120.4331,23.48239
允大統企業有限公司,99672684,08310020090016,嘉義市西區福全里德明路４２巷１７號,嘉義市西區福全里,劉淑華　　,66611832,有限公司,0830117,0830131,生產中,25金屬製品製造業、29機械設備製造業,259其他金屬製品、293通用機械設備、251金屬刀具、手工具及模具,,立銑刀、強力彈簧、刀片、零件加工,,120.4325,23.48016
振成機器廠,99672566,08410020016060,嘉義市西區湖內里民生南路８９７巷２５號,嘉義市西區湖內里,洪國賓　　　,93940339,獨資,0840310,0851101,生產中,29機械設備製造業,292其他專用機械設備,,泵浦,,120.436768,23.45372
昌利企業有限公司,99672891,,嘉義市東區長竹里大雅路二段４３３巷３８號,嘉義市東區長竹里,蔡麗玉,84223645,有限公司,,0911227,生產中,19其他化學製品製造業,194化粧品,,粉餅,,120.472618,23.47628
昱承工業社,99672973,,嘉義市東區後湖里保忠三街６２巷１２號,嘉義市東區後湖里,涂金城,14522058,獨資,,0920324,生產中,25金屬製品製造業,259其他金屬製品,,手工具、機器用工具金屬製品,,120.452538,23.5111
振興鋼模工業社二廠,99699016,,嘉義市西區福全里北港路１０２號,嘉義市西區福全里,黃蔡琮花,66504853,獨資,,0920801,生產中,29機械設備製造業,293通用機械設備,,鋼模、機械零件,,120.435806,23.47667
金宏昇機械有限公司,99699020,,嘉義市西區福全里興達路７２２號,嘉義市西區福全里,陳素慧,80250900,有限公司,,0921009,生產中,29機械設備製造業,293通用機械設備,,回爐材擠斷機、破斷機,,120.425293,23.48474
勝一鐵工廠,99672848,07610020089114,嘉義市東區後湖里忠孝二街１６１號,嘉義市東區後湖里,何進利　　,06266694,獨資,0760404,0770107,生產中,25金屬製品製造業,259其他金屬製品,,鏌刀,,120.450111,23.5035
春誠紙器工廠,99672647,06310000045695,嘉義市東區仁和里成仁街１８１號,嘉義市東區仁和里,林俊穎　　　,66316542,獨資,0630412,0630906,生產中,15紙漿、紙及紙製品製造業,152瓦楞紙板及紙容器,,紙盒、紙箱,,120.452019,23.48026
卡布其生物科技有限公司,99699029,,嘉義市東區頂寮里芳德街１０８號,嘉義市東區頂寮里,郭銘堯,89791266,有限公司,,0930716,生產中,08食品製造業,089其他食品,,糖果及烘培食品,麵粉、庶糖,120.458366,23.46703
利光機工廠股份有限公司,99672742,06110000016827,嘉義市東區後湖里忠孝二街１５５號,嘉義市東區後湖里,廖太郎　　　,66271138,股份有限公司,0610223,0611107,生產中,29機械設備製造業、25金屬製品製造業,259其他金屬製品、293通用機械設備、292其他專用機械設備,,柴油引擎、水機、割稻機,,120.450508,23.50354
大裕刷子有限公司,99672752,06510000056801,嘉義市東區短竹里彌陀路７０巷１０號,嘉義市東區短竹里,洪文簧　　　,66446995,有限公司,0640419,0650429,生產中,33其他製造業,339未分類其他製品,,毛刷,,120.468369,23.46639
大榮機械廠,99672556,06610000020356,嘉義市西區福全里僑嘉二街１２號,嘉義市西區福全里,鄭茂雄　　　,66469552,合夥,0660208,0661206,生產中,29機械設備製造業、25金屬製品製造業,292其他專用機械設備,,零件加工,,120.427849,23.4802589
華實興業股份有限公司,99672505,07210000058795,嘉義市東區後湖里保忠一街１２０巷２號,嘉義市東區後湖里,何勇魏　　　,66622084,股份有限公司,0720510,0721027,生產中,19其他化學製品製造業,193清潔用品、194化粧品,,各種環境清潔劑、洗衣乳、沐浴乳、洗髮乳、給皂機、飄香機、芳香,,120.452782,23.51302
新港軒食品有限公司,99672673,06510000135992,嘉義市西區保安里竹圍路９９號,嘉義市西區保安里,莊闊宇　　　,66420720,有限公司,0650825,0651109,生產中,08食品製造業,089其他食品,,杏仁片、花生餡,,120.4311,23.48681
嘉強電子股份有限公司,99672501,08410020072013,嘉義市下埤里北港路８１４號,嘉義市西區竹圍里,張仁正　　　,89586639,股份有限公司,0841014,0860120,生產中,27電腦、電子產品及光學製品製造業、26電子零組件製造業、28電力設備及配備製造業,271電腦及其週邊設備、272通訊傳播設備、275量測、導航、控制設備及鐘錶、269其他電子零組件、273視聽電子產品、289其他電力設備及配備,http://www.mipro.com.tw,麥克風、接收機、擴音機,,120.414932,23.48699
新欣涼製冰廠,99699025,,嘉義市西區菜園里康樂街２４８號,嘉義市西區竹文里,張王美卿,98867250,獨資,,0930326,生產中,08食品製造業,089其他食品,,其他食品（冰塊）,,120.441811,23.4743
麗琪化工社,99699023,,嘉義市西區劉厝里大忠街52號一樓,嘉義市西區劉厝里,楊柳樠,66660489,獨資,,0930308,生產中,19其他化學製品製造業,194化粧品,,化妝品,,120.417625,23.4643536
中合生物科技有限公司,99699028,,嘉義市東區芳草里彌陀路２０１巷２５號,嘉義市東區芳草里,黃泰彬,80473493,有限公司,,0930705,生產中,08食品製造業,083蔬果加工、089其他食品,,青草茶包、其他食品,,120.466171,23.46708
高群印刷廠,99699030,,嘉義市西區湖內里湖子內路３４號,嘉義市西區湖內里,施烈銘,66559673,獨資,,0930719,生產中,16印刷及資料儲存媒體複製業,160印刷及資料儲存媒體複製,,印刷,,120.442871,23.45446
吉偉砂模企業社,99699048,,嘉義市磚■里玉山路１５８巷１９號,嘉義市西區磚磘里,盧明傳　　　,76825735,獨資,,0950609,生產中,25金屬製品製造業、33其他製造業,259其他金屬製品、339未分類其他製品,,鑄造用砂心,,120.427032,23.473
賴信成香業有限公司,99672784,08410020058125,嘉義市西區光路里民生南路４８１號,嘉義市西區光路里,賴隆毅　　　,84621171,有限公司,0840826,0840905,生產中,33其他製造業,339未分類其他製品,,香,,120.4439,23.45802
炯億塑膠有限公司一廠,99672992,08410020079383,嘉義市西區下埤里北港路７４６巷１０１號,嘉義市西區下埤里,蔡輝洲　　　,89578589,有限公司,0841114,0841123,生產中,22塑膠製品製造業,220塑膠製品,,蜂巢板,,120.416908,23.48843
立豐被服廠,99672749,,嘉義市東區社口里北門街１１０號,嘉義市東區社口里,林宗浚　　　,65182003,獨資,,0610708,生產中,11紡織業、12成衣及服飾品製造業,121成衣、123服飾品、115紡織品,,軍警制服、制帽、帆布、團體服,,120.449127,23.48395
啟蒙企業有限公司,99699001,07610020089276,嘉義市西區福全里博愛路二段３３３號,嘉義市西區福全里,陳富三　　　,22563432,有限公司,0760731,0760811,生產中,13皮革、毛皮及其製品製造業,130皮革、毛皮及其製品,,鞋類（海灘鞋）,,120.435417,23.47634
偉凱工業社,99672772,07510020080055,嘉義市東區後湖里保成路１８５號,嘉義市東區後湖里,何健標　　　,66660495,獨資,0750813,0760220,生產中,25金屬製品製造業,259其他金屬製品,,瓦斯爐臺,不銹鋼板白鐵,120.454872,23.50559
銧隆機械工廠有限公司,99672800,06210000000563,嘉義市西區湖邊里友忠路８１２號,嘉義市西區湖邊里,陳金壽　　　,66375318,有限公司,0620109,0620119,生產中,29機械設備製造業、22塑膠製品製造業,292其他專用機械設備、220塑膠製品,,塑膠機械,,120.443359,23.4884052
佳錩紙器股份有限公司一廠,99672625,06610000113542,嘉義市西區車店里貴州街２號,嘉義市西區車店里,張顯維　　　,22512440,有限公司,0660712,0660809,生產中,15紙漿、紙及紙製品製造業,152瓦楞紙板及紙容器,,紙箱．紙盒,,120.435539,23.46696
三越油廠,99672611,06710000002632,嘉義市東區初陽里興中街８６號,嘉義市東區初陽里,趙國雄　　　,65362407,獨資,0670118,0670118,生產中,08食品製造業,084動植物油脂、086碾榖、磨粉及澱粉製品,,麻油、花生油,,120.451561,23.47723
嘉豐工業社,99672997,07210000109253,嘉義市東區後湖里保順路２０５號,嘉義市東區後湖里,陳嘉成　　　,66634737,獨資,0720728,0730525,生產中,25金屬製品製造業,259其他金屬製品,,不銹鋼製品,,120.45015,23.50969
台灣流體控制股份有限公司,99699024,,嘉義市西區劉厝里大平街47號,嘉義市西區劉厝里,陳宗仁,80459513,股份有限公司,,0930324,生產中,25金屬製品製造業,259其他金屬製品,,其他金屬製品,,120.417427,23.46902
均豪興業有限公司,99699049,,嘉義市東區後湖里保康路７７號,嘉義市東區後湖里,黃建豪,28311223,有限公司,,0950710,生產中,22塑膠製品製造業、25金屬製品製造業、29機械設備製造業,220塑膠製品、259其他金屬製品、293通用機械設備,,冷凍庫零件子母掛鉤,,120.454575,23.5073547
大方廣企業有限公司一廠,99672524,08410020082072,嘉義市興村里過溪１１３號,嘉義市東區興安里,蔡瑞玲　　　,84577029,有限公司,0841123,0841127,生產中,08食品製造業、09飲料製造業,083蔬果加工、089其他食品,,各種茶葉乾燥，粉碎,,120.455696,23.4520817
正揚機械廠,99672723,08510020012540,嘉義市中■里台斗街２９號,嘉義市東區中庄里,洪志揚　　　,93945778,獨資,0850301,0850308,生產中,29機械設備製造業,292其他專用機械設備,,伸線機裝配、收線機裝配,,120.451424,23.4909
弘名塑膠有限公司,99672856,,嘉義市西區湖內里民生南路９１６巷３２弄３０號,嘉義市西區湖內里,葉清奇　,23257571,有限公司,,0580101,生產中,22塑膠製品製造業,220塑膠製品,,塑膠袋,,120.439468,23.45537
台榮釀造食品工廠,99672535,,嘉義市西區民安里延平街４４２號,嘉義市西區民安里,黃蘇孟玲　　,65185445,獨資,,0681016,生產中,08食品製造業,089其他食品,,食醋,,120.4425,23.47619
義興醬園,S2000024,,嘉義市西區北新里許厝庄仔２６之７號,嘉義市西區北新里,鄭棋維,65775505,獨資,,1090612,生產中,08食品製造業,083蔬果加工、089其他食品,,,,,
新生印刷廠,99672854,07810020089050,嘉義市西區湖內里新民路１２６號,嘉義市西區湖內里,呂淑華　,65673577,獨資,0780313,0790201,生產中,16印刷及資料儲存媒體複製業,160印刷及資料儲存媒體複製,,活版印刷，日曆，簿本,,120.434052,23.45399
日安機械廠,99672755,08510020020228,嘉義市西區湖內里民生南路８９７巷１６號,嘉義市西區湖內里,黃宗男　　　,65060445,獨資,0850405,0861015,生產中,25金屬製品製造業,259其他金屬製品,,鐵板、鋼條、鐵管校正、橡膠輪,,120.436592,23.45392
嘉友電子股份有限公司,99672792,08510020046735,嘉義市東區後湖里忠孝二街８８號,嘉義市東區後湖里,孔德偉　　,66608323,股份有限公司,0850705,0861117,生產中,27電腦、電子產品及光學製品製造業、26電子零組件製造業,272通訊傳播設備、273視聽電子產品,,接收機、麥克風、擴音機,,120.451462,23.50373
南陽化學工業股份有限公司,99672676,,嘉義市西區西平里信義路４５巷６３號,嘉義市西區西平里,蔡爾健　　,65402941,股份有限公司,,0580101,生產中,22塑膠製品製造業,220塑膠製品,,塑膠網、網袋,,120.434891,23.47393
燕南農化工廠,99672819,06210000137607,嘉義市西區北新里文化路８３５號,嘉義市西區北新里,陳昭五　　　,66404812,獨資,0621013,0640808,生產中,08食品製造業,087動物飼品,,補助飼料，動物性飼料,,120.43998,23.5005531
卜大食品有限公司,99672588,07310000320139,嘉義市東區北門里吳鳳北路３３０號,嘉義市東區北門里,洪嘉鴻　　,23876518,有限公司,0731227,0740816,生產中,08食品製造業,083蔬果加工、089其他食品、086碾榖、磨粉及澱粉製品,,糕粿糬類製品、沙拉、其它冷凍食品,,120.452377,23.48431
振鍵產業股份有限公司中興廠,99672982,06210000046145,嘉義市西區竹圍里中興路７２號,嘉義市西區竹圍里,蕭坤松　,66530830,股份有限公司,0620424,0631014,生產中,25金屬製品製造業,259其他金屬製品,,,,,
立揚自動控制行,99672803,06210000052512,嘉義市西區大溪里北港路７１１號,嘉義市西區大溪里,黃詔揚　　　,66281348,獨資,0620501,0620823,生產中,28電力設備及配備製造業,281發電、輸電及配電機械、283電線及配線器材、289其他電力設備及配備,,機器零件,,120.417213,23.48564
全懋木業股份有限公司,99672661,06210000054226,嘉義市東區荖藤里文化路１１１２號,嘉義市東區荖藤里,洪清助　　　,66512869,股份有限公司,0620508,0620823,生產中,14木竹製品製造業,140木竹製品,,夾板、木製品、木心板,,120.438477,23.507082
新昇碾米行,99672841,06710000204093,嘉義市西區新厝里合江街９９號,嘉義市西區新厝里,許寶雲　　　,65678150,獨資,0670708,0670719,生產中,08食品製造業,086碾榖、磨粉及澱粉製品,,白米,,120.440689,23.49206
晉豐合板股份有限公司,99672765,06710000204392,嘉義市東區後湖里保康路１３７號,嘉義市東區後湖里,陳世雄　　　,66478861,有限公司,0670707,0671103,生產中,14木竹製品製造業,140木竹製品,,三夾板、木心板、家具、建築材料,原木,120.4521,23.50719
安全發機械廠股份有限公司嘉義廠,99672814,06210000068971,嘉義市西區下埤里北港路９２０號,嘉義市西區下埤里,郭榮欽　　　,84848091,股份有限公司,0620604,0621029,生產中,29機械設備製造業,292其他專用機械設備,,伸線機、收線機、切斷機、捲取機,,120.412361,23.48781
裕益塑膠企業股份有限公司,99672690,08510020053768,嘉義市東區後湖里保忠一街１３０號,嘉義市東區後湖里,黃振榮　　　,97054261,股份有限公司,0850729,0860613,生產中,22塑膠製品製造業,220塑膠製品,,塑膠製品,,120.451431,23.51298
得喜機電股份有限公司,99672863,08510020075083,嘉義市東區後湖里保忠三街１５２號,嘉義市東區後湖里,鄭竹成　　　,84235889,股份有限公司,0851018,0851030,生產中,29機械設備製造業、25金屬製品製造業,293通用機械設備、251金屬刀具、手工具及模具,,電梯,車廂、語音播報器、主機、馬達,120.449623,23.51045
山能機械廠,99672952,06210000138205,嘉義巿福民里錦州二街３３號,嘉義市西區車店里,許宗山　　　,66391295,獨資,0621022,0641110,生產中,29機械設備製造業,292其他專用機械設備、293通用機械設備,,配管工程零配件,,120.435089,23.46491
富國食品貿易有限公司,99699066,,嘉義市東區後湖里保順路１０６號,嘉義市東區後湖里,謝憲成,27382494,有限公司,,0961219,生產中,08食品製造業,089其他食品,,食品,,120.4506,23.50637
合楓企業有限公司嘉義廠,99672574,08510020093971,嘉義市西區湖內里民生南路８４１巷３１號,嘉義市西區湖內里,謝當伯　　　,23042256,有限公司,0851230,0861029,生產中,22塑膠製品製造業,220塑膠製品,,塑膠培養皿、樣品杯、採養瓶、血清瓶,,120.4377,23.45328
宏榮製衣有限公司,99672794,0AA100AA000073,嘉義市東區仁武里興中街１５０號,嘉義市東區仁武里,林秀貞　　　,89670220,有限公司,0590528,0590528,生產中,11紡織業、12成衣及服飾品製造業,123服飾品,,書包、衣服、帽子,,120.451172,23.4802551
嘉信藥品股份有限公司,99672519,,嘉義市西區劉厝里劉富街６０號,嘉義市西區劉厝里,徐　　　好　,65799794,股份有限公司,,0581101,生產中,20藥品及醫用化學製品製造業,200藥品及醫用化學製品,,西藥、動物藥,藥劑,120.4215,23.46316
宏吉度量衡器工廠有限公司嘉義廠,99699027,,嘉義市西區下埤里北港路７４６巷８３號,嘉義市西區下埤里,曾友吉,80614698,有限公司,,0930503,生產中,27電腦、電子產品及光學製品製造業,275量測、導航、控制設備及鐘錶,,精密儀器,,120.41642,23.48818
忠陽製材工廠,99672769,06210000068972,嘉義市西區榮檜里林森西路２２８號,嘉義市西區榮檜里,高春滿　　　,66468293,獨資,0620604,0620828,生產中,,,,木材,,120.447021,23.48372
新豐鋸木工廠,99672840,06210000097574,嘉義市西區湖邊里博愛新村５號,嘉義市西區湖邊里,郭任志　　　,66292605,獨資,0620730,0621220,生產中,14木竹製品製造業,140木竹製品,,木材,,120.443512,23.48728
吉成車料工廠,99672526,06210000107085,嘉義市東區頂庄里義教街７０３號,嘉義市東區頂庄里,林足　　　　,66289284,獨資,0620822,0630308,生產中,31其他運輸工具及其零件製造業,312機車及其零件、313自行車及其零件、319未分類其他運輸工具及其零件,,機車零件、自行車零件、各種車體,,120.4545,23.49826
超登特殊鋼材料行,99672906,08610020068052,嘉義市東區後湖里保忠三街196號,嘉義市東區後湖里,陳泓賓　　　,19391506,獨資,0860919,0881025,生產中,25金屬製品製造業,259其他金屬製品,,合金工具鋼、磨光鋼棒、中碳鋼板,,120.448471,23.5104
三太造機廠股份有限公司嘉義廠,99672942,07510020035165,嘉義市東區後湖里保忠三街２８號,嘉義市東區後湖里,陳敏政,65010305,股份有限公司,0750616,0760615,生產中,29機械設備製造業、25金屬製品製造業、24基本金屬製造業,293通用機械設備、259其他金屬製品、241鋼鐵、243銅、249其他基本金屬,,鑄件,,120.453766,23.5107384
嘉冠喜食品有限公司,99699064,,嘉義市西區湖內里湖子內路２６３號,嘉義市西區湖內里,陳文興,28762900,有限公司,,0961015,生產中,08食品製造業,089其他食品,,餅乾,,120.44149,23.4500961
龍億工業社,99672533,07310020052266,嘉義市西區竹村里竹子脚４３號,嘉義市西區竹村里,曾聖鈞　　,66653311,獨資,0731022,0731107,生產中,32家具製造業,322金屬家具,,瓦斯爐、茶爐,,120.395668,23.49534
佑昇企業社,99672713,08210020090045,嘉義市西區車店里蘭州五街１１８號,嘉義市西區車店里,陳惠娟　　　,78567234,獨資,0820312,0820322,生產中,25金屬製品製造業,259其他金屬製品,,其他金屬製品,,120.430382,23.46736
福興鋸木工廠,99672786,,嘉義市西區湖邊里文化路４６５號,嘉義市西區湖邊里,洪秀娥　　　,65859103,獨資,,0590101,生產中,14木竹製品製造業,140木竹製品,,鋸木,,120.445587,23.49026
榮華機械廠股份有限公司,99672807,0AA100AA000103,嘉義巿磚■里博愛路二段６２０號,嘉義市西區磚磘里,葉光華　　　,22582402,股份有限公司,0580101,0580101,生產中,29機械設備製造業,291金屬加工用機械設備、293通用機械設備、292其他專用機械設備,,自動定尺裁切機、分條機、整平機,,120.4296,23.47033
弘築企業股份有限公司,99672839,08210020090117,嘉義市東區後湖里保忠一街１２３號,嘉義市東區後湖里,陳明輝　　　,84402020,,0820629,0830606,生產中,22塑膠製品製造業、28電力設備及配備製造業,220塑膠製品、283電線及配線器材,,塑膠成型模具製造,,120.451157,23.51228
志上興業有限公司一廠,99672680,08710020072371,嘉義市福全里友愛路８號,嘉義市西區竹圍里,王純華　　,86634952,有限公司,0870918,0901212,生產中,11紡織業,113不織布,,不織（棉）布,,120.434662,23.47623
新明利五金加工廠,99672740,07010000141490,嘉義市東區後湖里保順路１５０號,嘉義市東區後湖里,李玉雲　　　,66565020,獨資,0700701,0710310,生產中,25金屬製品製造業,259其他金屬製品、254金屬加工處理,,金屬製品電鍍,,120.450378,23.5081
璿智國際寵物科技有限公司大富廠,20000068,,嘉義市西區劉厝里大富路２５８號,嘉義市西區劉厝里,林敬智,53290529,有限公司,,1070518,生產中,08食品製造業、08食品製造業,087動物飼品,,三色餅乾、ＯＫ棒,,120.415245,23.4657249
茂華包裝有限公司,99672719,06810000125365,嘉義市東區後湖里保康路１７０號,嘉義市東區後湖里,陳永良　　　,66514297,有限公司,0680528,0690207,生產中,14木竹製品製造業,140木竹製品,,包裝箱、棧板、木板、合板,,120.450493,23.50764
吉茂企業社,99672681,08710020073152,嘉義市西區湖內里民生南路897巷23號,嘉義市西區湖內里,關永盛　　　,67888913,獨資,0870922,0880115,生產中,25金屬製品製造業,259其他金屬製品,,座椅固定板、Ｕ型鐵片加工,,120.436752,23.45381
興大木業工廠,99672589,,嘉義市東區荖藤里文化路８６４巷３０號,嘉義市東區荖藤里,郭藜民　　　,66282965,獨資,,0620305,生產中,14木竹製品製造業,140木竹製品,,乾燥木材,,120.440964,23.50174
義發加工廠,99672820,08210020090200,嘉義市西區湖內里民生南路８９７巷２９號,嘉義市西區湖內里,林森茂　　　,65744004,獨資,0821115,0840801,生產中,,,,金屬製品,,120.436836,23.45353
金生机械所,99672882,08710020095094,嘉義市西區車店里建成街１５６號,嘉義市西區車店里,林金生　　　,67884780,獨資,0871214,0880331,生產中,25金屬製品製造業、29機械設備製造業,259其他金屬製品、293通用機械設備,,機械零件,,120.438019,23.46915
順發機械加工所,99672899,08810020000087,嘉義市西區垂楊里仁愛路２６３號,嘉義市西區垂楊里,王全成　　　,66421517,獨資,0880104,0880331,生產中,29機械設備製造業、25金屬製品製造業,293通用機械設備、251金屬刀具、手工具及模具,,昇降機,,120.4425,23.47176
三圓科技有限公司,99672570,08810020010152,嘉義市西區保安里竹圍四路１１０號１樓,嘉義市西區保安里,陳許玉霞　　,16694739,有限公司,0880206,0880222,生產中,27電腦、電子產品及光學製品製造業,272通訊傳播設備、275量測、導航、控制設備及鐘錶,,擴音器材、監視器材,,120.429031,23.48972
臺笙彩色印刷有限公司,99672587,08810020016010,嘉義市東區後湖里保忠三街２號,嘉義市東區後湖里,林俊男　　　,16737033,有限公司,0880309,0880317,生產中,16印刷及資料儲存媒體複製業,160印刷及資料儲存媒體複製,,其他印刷品、書籍印刷品,,120.454811,23.5107
調洋彈簧有限公司一廠,99672911,08810020032687,嘉義市後湖里保忠三街６２巷１３２號,嘉義市東區崇文里,陳調洋　　　,22965631,有限公司,0880507,0890111,生產中,25金屬製品製造業,259其他金屬製品,,五金類彈簧,鋼、鐵,120.45237,23.51397
萬鈺企業有限公司,99672958,08810020036324,嘉義市西區驛站里光彩街６０５號,嘉義市西區驛站里,王鐿蓁　　,66274326,有限公司,0880515,0880525,生產中,30汽車及其零件製造業、31其他運輸工具及其零件製造業,303汽車零件,,火車另配件、鐵軌,,120.441032,23.47733
金永發碾米廠,99672648,,嘉義市東區安寮里吳鳳南路１２６號,嘉義市東區安寮里,林先棟　　　,65282592,獨資,,0591101,生產中,08食品製造業,084動植物油脂、086碾榖、磨粉及澱粉製品,,白米米糠,,120.45462,23.46554
恒進實業有限公司,20000023,,嘉義市西區竹圍里北興街５２１號,嘉義市西區竹圍里,彭如菁,28126867,有限公司,,1011008,生產中,28電力設備及配備製造業,285家用電器,,快速爐,,120.432533,23.48873
豊富餐盒食品工廠,99672595,08710000909357,嘉義市西區新西里青年街１３５號,嘉義市西區新西里,趙任專　　　,67889666,獨資,0871015,0880125,生產中,08食品製造業,089其他食品,,餐盒食品,,120.434227,23.47074
祥暐企業有限公司,99672889,08710020087942,嘉義市西區車店里蘭州五街１１０號,嘉義市西區車店里,廖益群　　　,16654624,有限公司,0871117,0871123,生產中,16印刷及資料儲存媒體複製業,160印刷及資料儲存媒體複製,,印刷品,,120.430557,23.46748
調洋彈簧有限公司,99672909,07610020089439,嘉義市東區後湖里保忠三街６２巷１１３號,嘉義市東區後湖里,陳調洋　　　,22965631,有限公司,0761215,0770720,生產中,25金屬製品製造業,259其他金屬製品,,五金類彈簧,鋼、鐵,120.452141,23.51403
華實興業股份有限公司二廠,20000037,,嘉義市東區後湖里保忠一街３５９號,嘉義市東區後湖里,何勇魏,66622084,股份有限公司,,1030618,生產中,19其他化學製品製造業、19其他化學製品製造業、28電力設備及配備製造業,194化粧品、285家用電器,,香皂、洗面乳、修護霜等個人清潔用品、化粧品、給皂機、芳香機,,120.448395,23.5124912
金保安實業股份有限公司,99672816,07510020032294,嘉義市西區保安里永吉四街９號,嘉義市西區保安里,涂金城　　　,86350286,股份有限公司,0750602,0750628,生產中,25金屬製品製造業,259其他金屬製品,,機械組件,,120.436317,23.49166
聖保羅企業股份有限公司,S2000008,,嘉義市西區劉厝里劉富街２１號,嘉義市西區劉厝里,蘇勁威,53389851,股份有限公司,,1090501,生產中,08食品製造業,089其他食品,,,,,
大興茶葉有限公司,99672929,07010000142323,嘉義市東區林森里忠孝路３４６巷１１號,嘉義市東區林森里,黃德麟　,04474578,有限公司,0700630,0701001,生產中,08食品製造業,089其他食品,,烏龍茶、包種茶,,120.454727,23.4883
振興鋼模工業社,99672571,07410020012859,嘉義市西區福全里北港路１７８號,嘉義市西區福全里,黃蔡琮花　　,66504853,獨資,0740314,0740326,生產中,25金屬製品製造業,259其他金屬製品,,鋼模、機械零件,,120.436058,23.47671
世航塑膠企業有限公司嘉義廠,99699046,,嘉義市東區後湖里保義路２７８號,嘉義市東區後湖里,郭慶龍,89528081,有限公司,,0950420,生產中,22塑膠製品製造業,220塑膠製品,,膠膜,,120.453171,23.50672
霖松工業股份有限公司,99672852,07410020043194,嘉義市西區福安里北港路３７５號,嘉義市西區福安里,李庚懋　　,06233603,股份有限公司,0740805,0741009,生產中,28電力設備及配備製造業,283電線及配線器材,,柴油引擎,,120.427032,23.48169
奕寶國際有限公司,20000048,,嘉義市西區保生里保安一路３２０號,嘉義市西區保生里,林岳羽,53809880,有限公司,,1050721,生產中,33其他製造業,332醫療器材及用品,,烤燈,,120.433159,23.49263
勤日盛工業股份有限公司,S2000009,,嘉義市西區北新里海口寮路１７５巷１６號,嘉義市西區北新里,許崑山,89383607,股份有限公司,,1090505,生產中,29機械設備製造業,293通用機械設備,,,,,
億哲科技股份有限公司二廠,20000055,,嘉義市東區後湖里保順路１７８號,嘉義市東區後湖里,馮群翔,54122867,股份有限公司,,1051227,生產中,29機械設備製造業,293通用機械設備,,球閥．五金零件加工,,120.45076,23.50896
光昱實業有限公司,99672776,07310020043290,嘉義市西區福安里北港路３６２巷３號,嘉義市西區福安里,柯秀棉　　,66634265,有限公司,0730827,0730903,生產中,13皮革、毛皮及其製品製造業,130皮革、毛皮及其製品,,皮帶，皮包，皮夾,,120.4265,23.4829
丸茂度量衡專門廠,20000027,,嘉義市東區中央里中正路２６７號,嘉義市東區中央里,吳松齡,06237967,獨資,,1020418,生產中,27電腦、電子產品及光學製品製造業、27電腦、電子產品及光學製品製造業,275量測、導航、控制設備及鐘錶,,電子秤,,120.452713,23.4791
煜森科技有限公司一廠,99672900,08410020002753,嘉義市東區興村里興安街７９號,嘉義市東區興村里,康雯儷　　,27894544,有限公司,0840116,0840414,生產中,29機械設備製造業,292其他專用機械設備,,鐵材、鋼板,,120.453537,23.46003
泉溢開發有限公司嘉義廠,20000032,,嘉義市西區西平里博愛路二段９５３號,嘉義市西區西平里,李明華,28545828,有限公司,,1020906,生產中,23非金屬礦物製品製造業、23非金屬礦物製品製造業,233水泥及其製品,,預拌混凝土,,120.423767,23.46252
宣亨有限公司,99672947,08310020048448,嘉義市東區後湖里保忠一街１２６號,嘉義市東區後湖里,林暉翔,84956838,有限公司,0830823,0830826,生產中,33其他製造業,339未分類其他製品,,廣告看板、廣告鐵架、指示牌,,120.4524,23.51298
凱揚精密有限公司,20000046,,嘉義市西區紅瓦里新民路８７號,嘉義市西區紅瓦里,林森才,42563255,有限公司,,1050222,生產中,25金屬製品製造業,254金屬加工處理,,金屬,,120.43219,23.45269
茂發企業行,S2000006,,嘉義市西區大溪里育人路４３８巷５２０號,嘉義市西區大溪里,許材和,09517180,獨資,,1090423,生產中,14木竹製品製造業、14木竹製品製造業,140木竹製品,,,,,
正昇碾米工廠,99672582,07410020064672,嘉義市東區朝陽里民族路７７號,嘉義市東區朝陽里,蕭水西　　　,66446046,獨資,0741123,0750520,生產中,08食品製造業,086碾榖、磨粉及澱粉製品,,各項糙米白米,,120.459679,23.47677
婷婷生物科技有限公司,99699088,,嘉義市東區後湖里保順路１４２號,嘉義市東區後湖里,陳芳武,24382393,有限公司,,0990902,生產中,08食品製造業,089其他食品,,食品製造業,,120.450417,23.50786
盈詮科技股份有限公司,20000074,,嘉義市東區後湖里保忠一街１０５號,嘉義市東區後湖里,方彥凱,45118166,股份有限公司,,1081101,生產中,22塑膠製品製造業,220塑膠製品,,,,,
嘉義鐵線製品股份有限公司,99672878,07610020089413,嘉義市東區後湖里保忠三街６２巷６１號,嘉義市東區後湖里,江榮德　,66629397,股份有限公司,0761125,0780204,生產中,25金屬製品製造業,259其他金屬製品,,黑鐵絲,,120.4523,23.5123
旭輝鋼鐵材料行,99672905,08010020089132,嘉義市東區後湖里保順路２０９號,嘉義市東區後湖里,陳泓傑　,06277144,獨資,0800621,0800627,生產中,25金屬製品製造業,254金屬加工處理,,合金工具鋼、磨光鋼棒、中碳鋼板,,120.450127,23.50983
東成食品廠,99672871,06110000002435,嘉義市西區北新里文化路１０７１號,嘉義市西區北新里,康淵峻,66400007,獨資,0610114,0611103,生產中,08食品製造業,089其他食品,,糖果,,120.436462,23.50053
鴻鉒股份有限公司,99672722,07310020036983,嘉義市東區後湖里保成路500號,嘉義市東區後湖里,曲樹人　　　,16925324,股份有限公司,0730702,0740311,生產中,29機械設備製造業、25金屬製品製造業,259其他金屬製品、293通用機械設備、251金屬刀具、手工具及模具,,各式零組件及精密機械零件加工,鑄鐵、不銹鋼材、鑄件、鋁合金,120.455269,23.5112686
東輝生物科技有限公司,20000003,,嘉義市東區後湖里保順路２３６號,嘉義市東區後湖里,吳國誠,25089760,有限公司,,0991230,生產中,19其他化學製品製造業,193清潔用品,,清潔用品製造業,,120.450439,23.5106754
泓軒食品有限公司,S2000020,,嘉義市西區竹村里竹仔腳３之１００號一、二樓,嘉義市西區竹村里,陳居財,97018152,有限公司,,1090529,生產中,08食品製造業、08食品製造業,081肉類加工、083蔬果加工,,,,,
順元鐵工廠,99672601,06510000064196,嘉義市東區後湖里保忠三街１３５號,嘉義市東區後湖里,李百倉,66428976,獨資,0650504,0660429,生產中,25金屬製品製造業,259其他金屬製品,,金屬加工,,120.449661,23.51004
勇華機械股份有限公司,99672879,06010000029307,嘉義市西區車店里興業西路３４２號,嘉義市西區車店里,王麗燕　　,66455419,股份有限公司,0600413,0611124,生產中,29機械設備製造業,292其他專用機械設備,,五金零件,,120.437828,23.46793
鉅大有限公司,20000058,,嘉義市西區北新里文化路１０５９之１號一樓,嘉義市西區北新里,江東烜,42601103,有限公司,,1060302,生產中,25金屬製品製造業,252金屬結構及建築組件,,錏輕型鋼、烤漆鋼板,,120.43692,23.5062847
永勝瓦斯器材有限公司,99672943,08210020090073,嘉義市西區下埤里頂埤２１號,嘉義市西區下埤里,蕭政勝　　　,22569647,有限公司,0820427,0820827,生產中,25金屬製品製造業、29機械設備製造業,259其他金屬製品、293通用機械設備,,瓦斯調整器、瓦斯器材零件、鑄件,,120.414909,23.49191
三峯工業有限公司,99699051,,嘉義市東區後湖里保順路２３８號,嘉義市東區後湖里,張順貴,80622819,有限公司,,0950815,生產中,29機械設備製造業,293通用機械設備,,通用機械設備,,120.450439,23.5109043
茂生資源科技有限公司,20000054,,嘉義市東區後湖里保順路１７８號,嘉義市東區後湖里,陳茂生,25170261,有限公司,,1051221,生產中,22塑膠製品製造業、22塑膠製品製造業,220塑膠製品,,塑膠碎片,,120.45076,23.50896
昶技企業股份有限公司二廠,20000067,,嘉義市東區後湖里保忠一街３８８號,嘉義市東區後湖里,侯憲沛,22481657,股份有限公司,,1070514,生產中,22塑膠製品製造業、22塑膠製品製造業、25金屬製品製造業,220塑膠製品、251金屬刀具、手工具及模具,,塑膠製品、塑膠模具,,120.44915,23.51278
台灣微動股份有限公司,20000073,,嘉義市東區後湖里忠孝二街５０號三樓,嘉義市東區後湖里,王識鈞,27590704,股份有限公司,,1080930,生產中,33其他製造業、33其他製造業,332醫療器材及用品,http://www.micro-p.com.tw,醫療器材及用品,組裝零件、軸承、膠圈,120.452209,23.5042973
長楹食品股份有限公司,20000049,,嘉義市東區後湖里保忠一街１００巷６０號,嘉義市東區後湖里,龎睿超,45114226,股份有限公司,,1050818,生產中,08食品製造業,089其他食品,,薑母糖,,120.4511,23.5140457
千鎰鋼鐵材料行,S2000012,,嘉義市西區劉厝里劉厝路268之1號,嘉義市西區劉厝里,童美玲,18283584,獨資,,1090508,生產中,25金屬製品製造業,254金屬加工處理,,,,,
嘉華五金彈簧工廠,99672812,07410020023973,嘉義市東區後湖里保義路２４６巷１１號,嘉義市東區後湖里,蘇昭明,66395980,獨資,0740501,0741129,生產中,25金屬製品製造業,259其他金屬製品,,彈簧,,120.453484,23.50572
鵬騰寶業股份有限公司,99672506,07210000052889,嘉義市東區後湖里保忠三街１０１號,嘉義市東區後湖里,李愈彥　　　,66619546,股份有限公司,0720404,0721122,生產中,22塑膠製品製造業,220塑膠製品,,塑膠泡綿,,120.451553,23.51036
勁馨食品有限公司,20000015,,嘉義市東區後湖里保康路１２３號一樓,嘉義市東區後湖里,曾秀眞,53394989,有限公司,,1001209,生產中,08食品製造業,089其他食品,,黑胡椒、磨菇片、番茄糊、洋蔥、紅蘿蔔,,120.452827,23.50734
元富企業社,99672710,08910020160027,嘉義市西區磚磘里嘉義市磚磘里友忠路２９９號,嘉義市西區磚磘里,李淑娟,19402187,獨資,0890321,0901224,生產中,25金屬製品製造業,259其他金屬製品,,不銹鋼洗臉盆、水槽、等鐵材加工,,120.430252,23.47268
珍國華塑膠機械股份有限公司,99672724,06110000010476,嘉義市西區劉厝里自強街２８號,嘉義市西區劉厝里,羅國雄,65409830,股份有限公司,0610208,0610104,生產中,29機械設備製造業,292其他專用機械設備,,膠粒機、壓出機、密練機、變頻器,,120.423538,23.465
