工廠名稱,工廠登記編號,工廠設立許可案號,工廠地址,工廠市鎮鄉村里,工廠負責人姓名,統一編號,工廠組織型態,工廠設立核准日期,工廠登記核准日期,工廠登記狀態,產業類別,主要產品,WebURL,ProductName,Material,Longitude,Latitude
鴻杰鐵工廠,99667269,07510017010148,基隆市中正區社寮里和一路４１巷４弄１０號１樓,基隆市中正區社寮里,陳萬吉,00941143,獨資,0750705,0750710,生產中,31其他運輸工具及其零件製造業,311船舶及浮動設施,,機械零件，船舶機械修理,,121.767632,25.1545811
向瑒工業股份有限公司,99667360,,基隆市七堵區瑪西里大華三路8之1號2樓,基隆市七堵區瑪西里,曹永,97050624,股份有限公司,,0910826,生產中,29機械設備製造業,293通用機械設備,,空壓機,,121.68235,25.112915
隆勝機械有限公司,99667262,07410017010090,基隆市中正區和憲里和一路41巷４弄５－１號,基隆市中正區和憲里,郭騏烽,00757808,有限公司,0740619,0740702,生產中,29機械設備製造業、31其他運輸工具及其零件製造業,293通用機械設備、311船舶及浮動設施,,船舶機械修理,,121.767059,25.1544914
台灣愛米克有限公司,17000088,,基隆市安樂區內寮里武訓街74號1樓,基隆市安樂區內寮里,嚴惠馨,27597544,有限公司,,1070112,生產中,29機械設備製造業,292其他專用機械設備,,臭氧機．加藥機．控制器,,121.699379,25.1489487
華聯工程股份有限公司六堵機械工廠,99667371,05810000004125,基隆市七堵區六堵里工建路１１號,基隆市七堵區六堵里,鄭國勳,11722102,股份有限公司,0580101,0590501,生產中,25金屬製品製造業、29機械設備製造業、28電力設備及配備製造業,252金屬結構及建築組件、293通用機械設備、253金屬容器、291金屬加工用機械設備、292其他專用機械設備、283電線及配線器材、289其他電力設備及配備,http://www.ceai.com.tw,儲槽、壓力容器、塔槽、熱交換器、空氣冷卻器等,,121.701027,25.0906868
智慧光科技股份有限公司,17000037,,基隆市七堵區六堵里工建路2-1號1樓,基隆市七堵區六堵里,樵治管理顧問股份有限公司,80258993,股份有限公司,,1020417,生產中,26電子零組件製造業、27電腦、電子產品及光學製品製造業,269其他電子零組件、274資料儲存媒體,https://www.smartdisplayer.com,智能顯示卡片（ＳＭＡＲＴＤＩＳＰＬＡＹＥＲ　ＣＡＲＤ）,,121.70282,25.0880013
兆鑫科技有限公司基隆廠,17000063,,基隆市七堵區永安里俊賢路25號4樓,基隆市七堵區永安里,王俊生,27818342,有限公司,,1040501,生產中,26電子零組件製造業,269其他電子零組件,,電子零組件制造／電腦及其週邊制造／國際貿易,,121.7065,25.09477
美之因生技股份有限公司,17000026,,基隆市中正區平寮里平一路61巷13號,基隆市中正區平寮里,白鄭金櫻,24260151,股份有限公司,,1010719,生產中,08食品製造業,089其他食品,,魚鱗粉,,121.763382,25.15774
精華光學股份有限公司五堵廠,17000044,,基隆市七堵區堵南里堵南街46號及46號2樓、3樓、4樓、5樓、6樓,基隆市七堵區堵南里,陳明賢,22195654,股份有限公司,,1021118,生產中,33其他製造業,332醫療器材及用品,https://www.stshine.com.tw/,隱形眼鏡鏡片,,121.684914,25.0827961
禾全盈企業有限公司,99702564,,基隆市七堵區六堵里工建路１─３號,基隆市七堵區六堵里,江仁杰,28150628,有限公司,,0990714,生產中,33其他製造業,339未分類其他製品,,廢五金批發,,121.702766,25.0865612
台全造船有限公司,99667222,05710000003703,基隆市中正區中濱里中正路３７９號,基隆市中正區中濱里,黃竹,84698115,有限公司,0570208,0580903,生產中,25金屬製品製造業、28電力設備及配備製造業、31其他運輸工具及其零件製造業,252金屬結構及建築組件、254金屬加工處理、289其他電力設備及配備、311船舶及浮動設施,,船舶建造、船舶維修,,121.764572,25.1499844
超邁工業股份有限公司基隆三廠,99667125,08910017000019,基隆市七堵區六堵里工建北路９號２、３、４、５樓,基隆市七堵區六堵里,陳忠信,22017687,股份有限公司,0890320,0901003,生產中,22塑膠製品製造業、25金屬製品製造業、27電腦、電子產品及光學製品製造業,220塑膠製品、259其他金屬製品、271電腦及其週邊設備、272通訊傳播設備,,塑膠製品、其他金屬製品,,121.704521,25.08604
黑糖如有限公司,17000033,,基隆市七堵區永安里俊賢路53號5樓,基隆市七堵區永安里,李秀如,53701522,有限公司,,1020128,生產中,08食品製造業,089其他食品,,黑糖塊,糖,121.705887,25.0950165
福驥石材企業有限公司,99667114,06610000003158,基隆市安樂區內寮里武訓街７８號,基隆市安樂區內寮里,魏雅庵,01508384,有限公司,0660112,0670515,生產中,23非金屬礦物製品製造業,234石材製品,,石材、石材工程,,121.699249,25.1493969
華聯食品工業股份有限公司,99667199,06810000223117,基隆市七堵區自強里自強路１０２、１０２之１號,基隆市七堵區自強里,林榮吉,00713181,股份有限公司,0681120,0691028,生產中,08食品製造業,089其他食品,,魚板、仿蟹棒、蝦球、海鮮魚卵棒,魚漿,121.712952,25.11034
創昇股份有限公司,99667220,08010017020174,基隆市七堵區瑪南里大成街４９－４號,基隆市七堵區瑪南里,郭明彰,04799766,股份有限公司,0801220,0820612,生產中,25金屬製品製造業,252金屬結構及建築組件,,彩色樹脂鋼板捲門,,121.686386,25.1079159
昇達科技股份有限公司機械廠,99702551,,基隆市七堵區六堵里工建南路１３號,基隆市七堵區六堵里,陳淑敏,16999508,股份有限公司,,0981223,生產中,26電子零組件製造業,262被動電子元件,http://www.umt-tw.com,濾波器、雙工器、耦合元件、循環元件、傳輸元件及其他,,121.702774,25.08427
能誌機械工程有限公司,99702542,,基隆市七堵區六堵里工建南路１５號,基隆市七堵區六堵里,周德和,04832929,有限公司,,0980415,生產中,25金屬製品製造業,252金屬結構及建築組件、253金屬容器、254金屬加工處理,,金屬結構材料製造加工,,121.7028,25.0842056
有信國際股份有限公司,99702559,,基隆市七堵區六堵里工建北路１２號,基隆市七堵區六堵里,吳碧慧,96927582,股份有限公司,,0990610,生產中,26電子零組件製造業、28電力設備及配備製造業,262被動電子元件、269其他電子零組件、284照明設備及配備,,鋼材加工、鋁材加工,,121.704384,25.0852375
復成船舶機械工程有限公司,99667387,,基隆市安樂區中崙里武訓街１３號,基隆市安樂區中崙里,陳秀蔭,22298960,有限公司,,0920528,生產中,29機械設備製造業、31其他運輸工具及其零件製造業,293通用機械設備、311船舶及浮動設施,,船舶各種電焊、機械安裝、冷作、鉗工,,121.698257,25.1432323
奇研企業有限公司六堵廠,17000027,,基隆市七堵區六堵里工建南路2號,基隆市七堵區六堵里,顏秀芬,70481564,有限公司,,1010921,生產中,24基本金屬製造業、25金屬製品製造業,241鋼鐵、252金屬結構及建築組件、259其他金屬製品,,金屬結構及建築組件,,121.70179,25.0864964
柏肯有限公司,17000094,,基隆市七堵區六堵里工建路5之3號(1樓),基隆市七堵區六堵里,林麗梅,80292726,有限公司,,1071019,生產中,23非金屬礦物製品製造業、25金屬製品製造業,231玻璃及其製品、232耐火、黏土建材及其他陶瓷製品、252金屬結構及建築組件、254金屬加工處理,,玻璃加工,,121.701553,25.0889511
敦南科技股份有限公司基隆廠,99667272,07910000339042,基隆市安樂區中崙里武訓街２８之１號,基隆市安樂區中崙里,謝慶勲,23528103,股份有限公司,0791220,0791228,生產中,26電子零組件製造業,261半導體、269其他電子零組件,http://www.liteon-semi.com/_ch/,半導體、電子整流元件,,121.701851,25.14223
皇麒機械工程有限公司,99702538,,"基隆市七堵區六堵里工建南路５─ ４號",基隆市七堵區六堵里,余信統,23177161,有限公司,,0980205,生產中,29機械設備製造業,293通用機械設備,,機械設備,,121.701904,25.086832
唐威電子有限公司基隆廠,17000023,,基隆市中正區新富里新豐街135號,基隆市中正區新富里,韋素珍,22470928,有限公司,,1010614,生產中,26電子零組件製造業,269其他電子零組件,,空氣清淨機、負離子產生器、高壓產生器,,121.789711,25.1398525
福基創新材料股份有限公司,99667150,06910000136833,基隆市七堵區瑪南里大華二路１４４號,基隆市七堵區瑪南里,陳明聰,04807528,股份有限公司,0690626,0710226,生產中,11紡織業、13皮革、毛皮及其製品製造業,111紡紗、112織布、113不織布、114染整、130皮革、毛皮及其製品,http://www.fuchitex.com,牛皮、針織布、平織絨布、毛織布、染整,,121.690536,25.1103878
中華鐵工廠有限公司,99667252,06210000103794,基隆市七堵區堵南里大德路８號,基隆市七堵區堵南里,林念台,56606584,有限公司,0620814,0630108,生產中,29機械設備製造業,292其他專用機械設備、293通用機械設備,,電氣器具及毛紡、化學機械、造船機件,,121.690109,25.0798035
北都冷凍食品工業股份有限公司,99667163,05810000004671,基隆市中正區碧砂里北寧路２２３號,基隆市中正區碧砂里,黃世朋,02512007,股份有限公司,0580101,0591001,生產中,08食品製造業,082水產加工、089其他食品,,冷凍水產品，冷凍魚漿，冷藏調製,,121.7903,25.1421928
鈞詮實業有限公司,17000051,,基隆市七堵區八德里八德路13之2號,基隆市七堵區八德里,劉默雅,28504642,有限公司,,1030909,生產中,25金屬製品製造業,254金屬加工處理,,金屬加工處理,,121.722549,25.1035347
銓峰鋼鋁有限公司,99702539,,基隆市七堵區六堵里工建北路２０號,基隆市七堵區六堵里,王秀蘭,22860382,有限公司,,0980226,生產中,25金屬製品製造業,252金屬結構及建築組件,,家用大門、折疊門、室內門、鋁門窗,鋁料、鎖具,121.704422,25.0850468
富基鐵工廠股份有限公司,99667187,06610000055966,基隆市安樂區內寮里武訓街７１號,基隆市安樂區內寮里,蔡國智,00802260,股份有限公司,0660101,0700622,生產中,25金屬製品製造業、31其他運輸工具及其零件製造業,252金屬結構及建築組件、319未分類其他運輸工具及其零件,,金屬結構及建築組件、其他金屬製品,型鋼、鋼板,121.697662,25.1505127
南方金屬科技有限公司,17000103,,基隆市安樂區新崙里基金一路379巷25號,基隆市安樂區新崙里,陳宜湖,53089910,有限公司,,1090624,生產中,25金屬製品製造業、25金屬製品製造業,252金屬結構及建築組件,,,,,
信大機械工程有限公司,99667312,06610000199074,基隆市安樂區中崙里武訓街２５號,基隆市安樂區中崙里,林素銀,00705176,有限公司,0660101,0670801,生產中,25金屬製品製造業、29機械設備製造業,252金屬結構及建築組件、259其他金屬製品、293通用機械設備、291金屬加工用機械設備、292其他專用機械設備,,欄杆、修船、鋼板、客車維修鍍鋅鋼排水管,,121.699921,25.14356
幸孚預拌混凝土廠股份有限公司基隆廠,99667103,07210000162467,基隆市七堵區八德里八德路２之１０號,基隆市七堵區八德里,陳兩傳,84255792,股份有限公司,0720823,0721024,生產中,23非金屬礦物製品製造業,233水泥及其製品,http://www.luckygrp.com.tw,預拌混凝土,,121.723335,25.10369
順興工業股份有限公司,99667216,06110000068261,基隆市安樂區新崙里基金一路３３９號,基隆市安樂區新崙里,林煊舜,00305100,股份有限公司,0610717,0610911,生產中,,,,輪船機械零件,,121.706223,25.141468
順易利實業有限公司七堵廠,17000021,,基隆市七堵區永安里俊賢路53號2樓,基隆市七堵區永安里,王薇琦,16734752,有限公司,,1010523,生產中,33其他製造業、11紡織業,332醫療器材及用品、115紡織品,,口罩、拖把、過濾網,不織布、口罩ＡＢ基布、水針布、粘扣帶、鍍鋅鋼帶,121.705887,25.0950165
聯力工業股份有限公司,99667116,08710017020017,基隆市七堵區六堵里工建北路11-1號,基隆市七堵區六堵里,陳登溪,22609211,股份有限公司,0870302,0870624,生產中,27電腦、電子產品及光學製品製造業、25金屬製品製造業,271電腦及其週邊設備、259其他金屬製品,,硬碟機，軟碟機,,121.704681,25.0854683
恒羣電子有限公司,17000068,,基隆市七堵區永安里俊賢路21號3樓,基隆市七堵區永安里,徐道義,54800465,有限公司,,1040727,生產中,27電腦、電子產品及光學製品製造業,275量測、導航、控制設備及鐘錶,,電子零件加工,,121.706474,25.0950127
瑞昶貿易股份有限公司基隆廠,99667104,07310000124275,基隆市安樂區內寮里武訓街６５號,基隆市安樂區內寮里,劉宏銘,04310533,股份有限公司,0730526,0730618,生產中,09飲料製造業,092非酒精飲料,,咖啡分裝,,121.698769,25.1494637
中國端子電業股份有限公司,99702523,,基隆市七堵區六堵里工建路１－７號,基隆市七堵區六堵里,謝春輝,04698269,股份有限公司,,0960926,生產中,28電力設備及配備製造業、30汽車及其零件製造業、31其他運輸工具及其零件製造業,283電線及配線器材、303汽車零件、312機車及其零件、313自行車及其零件、319未分類其他運輸工具及其零件,,機汽車配線、充電器、儀錶,,121.702766,25.0865612
嘉澤端子工業股份有限公司,99667151,08210000073448,基隆市安樂區中崙里武訓街１５號,基隆市安樂區中崙里,朱德祥,22244141,股份有限公司,0820506,0850430,生產中,26電子零組件製造業,269其他電子零組件,http://www.lotes.com.cn,電子零組件,,121.698479,25.1432686
欣德芮股份有限公司,17000069,,基隆市七堵區瑪南里大華二路33之7號(1樓),基隆市七堵區瑪南里,郭俊政,24690899,股份有限公司,,1041111,生產中,33其他製造業,332醫療器材及用品,,醫療滅菌袋,,121.689667,25.1047134
萬通企業有限公司,17000030,,基隆市七堵區永安里俊賢路59號4樓,基隆市七堵區永安里,劉瓔漣,84196746,有限公司,,1011210,生產中,26電子零組件製造業、28電力設備及配備製造業,269其他電子零組件、283電線及配線器材,,電線及電纜製造,,121.705986,25.0948429
台灣力一股份有限公司,17000083,,基隆市中山區和平里中山三路28號(2樓),基隆市中山區和平里,施畯助,43903133,股份有限公司,,1051124,生產中,29機械設備製造業,293通用機械設備,,保鮮冷藏冷凍機組,,121.751587,25.142
全得工程有限公司,99667396,,基隆市暖暖區暖東里東勢街６９之３號,基隆市暖暖區暖東里,陳黃鈐杏,84684528,有限公司,,0921203,生產中,29機械設備製造業、31其他運輸工具及其零件製造業,293通用機械設備、311船舶及浮動設施,,減速機、其他專用機械設備、吊門機主箱,,121.744171,25.0868225
順郁建材股份有限公司基隆廠,99667183,08810017020037,基隆市暖暖區過港里興隆街２９之３號,基隆市暖暖區過港里,王文貴,20857615,股份有限公司,0880422,0880503,生產中,23非金屬礦物製品製造業、23非金屬礦物製品製造業,233水泥及其製品,,預拌混凝土,,121.748764,25.1009827
利安工業計器有限公司,17000043,,基隆市七堵區永安里俊賢路47號6樓,基隆市七堵區永安里,詹謹華,23312173,有限公司,,1020820,生產中,27電腦、電子產品及光學製品製造業,275量測、導航、控制設備及鐘錶,,機械器具批發,,121.706123,25.0950241
長興造船股份有限公司,99667287,05310017036281,基隆市中正區中濱里中正路３７７號,基隆市中正區中濱里,蕭龍達,00759897,股份有限公司,0530918,0540717,生產中,31其他運輸工具及其零件製造業,311船舶及浮動設施,,木鋼船,,121.764359,25.1498566
大順鑄造股份有限公司,99667217,06210000046359,基隆市安樂區新崙里基金一路３４１號,基隆市安樂區新崙里,林煊舜,00654438,股份有限公司,0620420,0620822,生產中,25金屬製品製造業,259其他金屬製品,,機械及零件鑄造，鋼鐵鑄品及銅鑄品，其他金屬製品，,,121.706223,25.141468
威聯通科技股份有限公司七堵二廠,17000096,,基隆市七堵區六堵里工建北路26號1樓,基隆市七堵區六堵里,郭博達,80682695,股份有限公司,,1080201,生產中,25金屬製品製造業、26電子零組件製造業、27電腦、電子產品及光學製品製造業,259其他金屬製品、269其他電子零組件、272通訊傳播設備、271電腦及其週邊設備,,網路儲存設備,,121.70433,25.0848217
台灣肥料股份有限公司基隆廠,99667158,05810000000888,基隆市中山區文化里中華路171號,基隆市中山區文化里,邵豪華,03795101,股份有限公司,0580101,0581101,生產中,18化學原材料、肥料、氮化合物、塑橡膠原料及人造纖維製造業,183肥料及氮化合物,,過磷酸鈣,,121.736778,25.1496754
信榮電子股份有限公司,99667121,07510000206887,基隆市安樂區內寮里武訓街７０號,基隆市安樂區內寮里,古淑慧,00780619,股份有限公司,0750731,0750826,生產中,26電子零組件製造業,269其他電子零組件,,電子零組件製造業,磁棒、銅絲、鐵帽,121.699677,25.1483765
建寶食品股份有限公司,99667173,08510000404734,基隆市中正區海濱里北寧路６９號,基隆市中正區海濱里,劉錫虎,00784930,股份有限公司,0850628,0870824,生產中,08食品製造業,082水產加工,,蝦乾,,121.783287,25.1482925
滿城食品冷凍股份有限公司八斗子分廠,99667193,08810000061992,基隆市中正區海濱里北寧路６７號,基隆市中正區海濱里,陳慶珍,22507848,股份有限公司,0880312,0880708,生產中,33其他製造業,339未分類其他製品,,冷凍倉庫出租,,121.783066,25.1487427
兆隆實業有限公司,99667235,08210000074900,基隆市安樂區中崙里武訓街９號,基隆市安樂區中崙里,張鵬基,00763533,股份有限公司,0820609,0820713,生產中,24基本金屬製造業、25金屬製品製造業,241鋼鐵、254金屬加工處理,,鋼筋成型加工、鐵材裁剪加工,,121.697258,25.1430588
長春貨櫃儲運股份有限公司,99667176,06710000300538,基隆市七堵區堵南里明德三路九十六號,基隆市七堵區堵南里,陳致超,00655979,股份有限公司,0671122,0690604,生產中,31其他運輸工具及其零件製造業,319未分類其他運輸工具及其零件,,貨櫃及冷凍貨櫃修造、貨櫃修運,,121.685127,25.0761738
銓揚工業股份有限公司,17000017,,基隆市七堵區六堵里工建南路7─1號,基隆市七堵區六堵里,黃素燕,27367563,股份有限公司,,1001221,生產中,33其他製造業,339未分類其他製品,,清潔槍及其零件,鋁料,121.702347,25.0857868
山弘冷凍食品有限公司,99667277,05010017014409,基隆市仁愛區玉田里愛四路１０巷１號,基隆市仁愛區玉田里,尤一成,00860351,有限公司,0500417,0600506,生產中,08食品製造業,089其他食品,,冰淇淋,,121.7435,25.12783
毅太企業股份有限公司大武崙廠,99667319,08610000810891,基隆市安樂區內寮里武訓街４９ˋ５１號,基隆市安樂區內寮里,洪團樟,12264131,股份有限公司,0861118,0861204,生產中,25金屬製品製造業,252金屬結構及建築組件、259其他金屬製品,http://www.itai.com.tw/,淋浴拉門生產及安裝、衛浴設備、衛浴掛件,,121.699585,25.1472511
德乙企業股份有限公司,17000055,,基隆市安樂區內寮里武訓街50號,基隆市安樂區內寮里,張潄芬,20783993,股份有限公司,,1031209,生產中,,,,汽車零件,,121.700821,25.14561
元璋玻璃股份有限公司五廠,99702541,,基隆市安樂區內寮里武訓街６９號,基隆市安樂區內寮里,鄭文煜,22035355,股份有限公司,,0980401,生產中,23非金屬礦物製品製造業,231玻璃及其製品,http://www.stanleyglass.com.tw/,玻璃,,121.698006,25.1501427
慶暐醫療器材科技股份有限公司,99702543,,基隆市安樂區內寮里武訓街８０號,基隆市安樂區內寮里,廖李曲,23969353,股份有限公司,,0980428,生產中,33其他製造業,332醫療器材及用品,,洗牙器材,,121.699089,25.1497784
台敭耐力機電股份有限公司,17000074,,基隆市七堵區六堵里工建北路3號2、3樓,基隆市七堵區六堵里,張文揚,42616632,股份有限公司,,1050121,生產中,30汽車及其零件製造業、31其他運輸工具及其零件製造業,303汽車零件、319未分類其他運輸工具及其零件,,汽車開關,,121.703918,25.0873661
台灣宇通車業股份有限公司基隆廠,17000007,,基隆市七堵區堵南里明德三路111之1號,基隆市七堵區堵南里,魏應博,53122615,股份有限公司,,1000307,生產中,30汽車及其零件製造業,301汽車、302車體、303汽車零件,,大客車組裝,,121.687645,25.0740623
藍傑有限公司,17000081,,基隆市中正區社寮里和一路224號,基隆市中正區社寮里,唐榮貴,45128571,有限公司,,1051117,生產中,25金屬製品製造業,259其他金屬製品,,造船廠外包勞務業務,,121.764137,25.155077
神通資訊科技股份有限公司七堵廠,17000012,,基隆市七堵區永安里崇孝街2、2-1號,基隆市七堵區永安里,蘇亮,53000774,股份有限公司,,1000711,生產中,27電腦、電子產品及光學製品製造業、29機械設備製造業,271電腦及其週邊設備、272通訊傳播設備、273視聽電子產品、274資料儲存媒體、293通用機械設備,http://mitac.com.tw,筆記型電腦,,121.710556,25.0972824
桓和實業有限公司,17000048,,基隆市七堵區永安里俊賢路37號6樓,基隆市七堵區永安里,余長利,24207142,有限公司,,1030508,生產中,09飲料製造業,092非酒精飲料,,非酒精飲料,咖啡豆,121.706505,25.0944786
利華羊毛工業股份有限公司六堵廠,99667206,05810000000583,基隆市七堵區六堵里工建南路２號,基隆市七堵區六堵里,應柔爾,02018408,股份有限公司,0580101,0580930,生產中,11紡織業,115紡織品,,羊毛毛條，炭化羊毛,,121.70179,25.0864964
威強電工業電腦股份有限公司七堵廠,17000098,,基隆市七堵區六堵里工建北路22號2、3、5樓,基隆市七堵區六堵里,張明智,97445303,股份有限公司,,1080423,生產中,25金屬製品製造業、26電子零組件製造業、27電腦、電子產品及光學製品製造業,259其他金屬製品、269其他電子零組件、271電腦及其週邊設備、272通訊傳播設備,,主機板,,121.70443,25.08492
鑫法機械工程有限公司,99702527,,基隆市安樂區中崙里武訓街２之２號,基隆市安樂區中崙里,潘榮富,89546362,有限公司,,0961121,生產中,31其他運輸工具及其零件製造業,311船舶及浮動設施,,金屬裁剪，焊接處理,,121.696892,25.14267
威聯通科技股份有限公司,99702556,,基隆市七堵區六堵里工建北路22號2、4樓,基隆市七堵區六堵里,郭博達,80682695,股份有限公司,,0990504,生產中,26電子零組件製造業、27電腦、電子產品及光學製品製造業,269其他電子零組件、271電腦及其週邊設備、272通訊傳播設備、273視聽電子產品、274資料儲存媒體,http://www.qnap.com,網路伺服器、監控系統,,121.70443,25.08492
元昌一機械工廠有限公司大武崙廠,99702553,,基隆市安樂區外寮里武訓街５２號,基隆市安樂區外寮里,呂春益,89993896,有限公司,,0990127,生產中,31其他運輸工具及其零件製造業、28電力設備及配備製造業、29機械設備製造業,311船舶及浮動設施、319未分類其他運輸工具及其零件、289其他電力設備及配備、293通用機械設備,,船舶機械零件製造修理、各種機械配件自動潛,,121.700584,25.1458416
元璋玻璃股份有限公司六廠,99702562,,基隆市安樂區內寮里武訓街６７號,基隆市安樂區內寮里,鄭文煜,22035355,股份有限公司,,0990708,生產中,23非金屬礦物製品製造業,231玻璃及其製品,http://www.stanleyglass.com.tw/,玻璃,,121.698204,25.1498375
洋民機械工程有限公司,17000086,,基隆市安樂區中崙里武訓街36號,基隆市安樂區中崙里,張清嵐,27835834,有限公司,,1060511,生產中,29機械設備製造業,291金屬加工用機械設備,,Ｄ型掛環，滑車，救生艇艇架及支撐柱,鐵材，橡膠，鐵環，玻璃纖維,121.701363,25.1439514
超邁工業股份有限公司基隆二廠,99667124,08910017000018,基隆市七堵區六堵里工建北路９號,基隆市七堵區六堵里,陳忠信,22017687,股份有限公司,0890320,0901003,生產中,22塑膠製品製造業,220塑膠製品,,電腦電話零配件,,121.704521,25.08604
佳美嬰兒用品股份有限公司,99667336,07210000250453,基隆市七堵區六堵里工建南路１０號,基隆市七堵區六堵里,俞洪雪月,04469821,股份有限公司,0721217,0730612,生產中,11紡織業、12成衣及服飾品製造業、22塑膠製品製造業,115紡織品、121成衣、123服飾品、220塑膠製品,,奶瓶、奶嘴、嬰兒（各種禮盒、嬰兒被服）,,121.702469,25.0833511
國昌綜合工廠有限公司,99667141,07510000130860,基隆市七堵區泰安里泰安路１１１之１號,基隆市七堵區泰安里,李貴發,00700019,有限公司,0750513,0750513,生產中,26電子零組件製造業,269其他電子零組件,,變壓器、整流器,,121.710075,25.0853519
樺帥企業有限公司,17000042,,基隆市七堵區六堵里工建路21號2樓,基隆市七堵區六堵里,吳詠欽,22294021,有限公司,,1020819,生產中,26電子零組件製造業、27電腦、電子產品及光學製品製造業,269其他電子零組件、271電腦及其週邊設備,,電子零件,,121.699226,25.0918541
昇達科技股份有限公司六堵一廠,99702534,,基隆市七堵區六堵里工建路１號,基隆市七堵區六堵里,陳淑敏,16999508,股份有限公司,,0971106,生產中,26電子零組件製造業、27電腦、電子產品及光學製品製造業,262被動電子元件、264光電材料及元件、269其他電子零組件、272通訊傳播設備、275量測、導航、控制設備及鐘錶、277光學儀器及設備,http://www.umt-tw.com/,濾波器、雙工器、耦合元件、循環元件、傳輸元件及其他,,121.702766,25.0865612
江倫企業股份有限公司,99667143,06610000160864,基隆市安樂區中崙里武訓街２６號,基隆市安樂區中崙里,李信宏,12141096,股份有限公司,0660101,0680829,生產中,25金屬製品製造業,259其他金屬製品,,其他金屬製品,,121.701218,25.1422958
溢彩生技股份有限公司,17000062,,基隆市七堵區六堵里工建南路21號(B棟二樓、三樓及一、四樓部分使用),基隆市七堵區六堵里,盧繼張,24636713,股份有限公司,,1040407,生產中,19其他化學製品製造業,194化粧品,http://www.stellarbeauty.com.tw,化妝品,化學類原物料、布紙類原物料、包材類原物料,121.702965,25.0835381
永塑國際物流股份有限公司西16庫加工製造廠,17000022,,基隆市中山區和平里中山三路28號1樓,基隆市中山區和平里,簡耀宗,22460132,股份有限公司,,1010529,生產中,25金屬製品製造業、30汽車及其零件製造業、33其他製造業,259其他金屬製品、303汽車零件、339未分類其他製品,,,,,
鉅正企業股份有限公司,17000073,,基隆市七堵區瑪南里大華二路33-9號2樓,基隆市七堵區瑪南里,林晃正,24972010,股份有限公司,,1050111,生產中,30汽車及其零件製造業,302車體、303汽車零件,,安裝工資,,121.690086,25.1047783
瑋睿國際有限公司,17000082,,基隆市七堵區實踐里實踐路76號1樓,基隆市七堵區實踐里,胡台貞,53359717,有限公司,,1051118,生產中,,,,樂戀迷你智能溫控儀（無線熱敷墊及加熱溫控器）,,121.694176,25.0812588
樹森開發股份有限公司基隆廠,17000028,,基隆市七堵區六堵里工建南路23號,基隆市七堵區六堵里,周明昭,23148363,股份有限公司,,1011023,生產中,08食品製造業,081肉類加工、089其他食品,,肉品切割加工,,121.7034,25.0834484
天祐食品股份有限公司,99702568,,基隆市七堵區六堵里工建南路2之3號,基隆市七堵區六堵里,吳雲英,25009990,股份有限公司,,0990903,生產中,08食品製造業,082水產加工、089其他食品,,魚漿製品、蛋類製品,,121.70179,25.0864964
奇鎂科技股份有限公司,99702536,,基隆市安樂區中崙里武訓街47號3樓,基隆市安樂區中崙里,葛艾苓,13083762,股份有限公司,,0980108,生產中,16印刷及資料儲存媒體複製業、26電子零組件製造業、27電腦、電子產品及光學製品製造業,160印刷及資料儲存媒體複製、264光電材料及元件、269其他電子零組件、271電腦及其週邊設備、274資料儲存媒體,,ＳＴＮ　＆ＣＳＴＮＬＣＭ、ＴＦＴＬＣＭ、Ｒ＆Ｃ＆紅外線式（１５吋－４２吋）ＴＯＵＣＨＰＡＮＥＬ、ＳＭＴ打件加工,,121.69973,25.1465931
元璋玻璃股份有限公司二廠,99667257,07910000173686,基隆市安樂區中崙里武訓街３１號,基隆市安樂區中崙里,鄭文煜,22035355,股份有限公司,0790813,0800418,生產中,23非金屬礦物製品製造業,231玻璃及其製品,http://www.stanleyglass.com.tw/,玻璃,,121.700653,25.1440315
創睿企業股份有限公司,17000065,,基隆市七堵區瑪南里大華二路33-9號3樓,基隆市七堵區瑪南里,廖進錄,24321903,股份有限公司,,1040604,生產中,33其他製造業,332醫療器材及用品,,軀幹四肢固定裝置,,121.689667,25.1047134
滿城食品冷凍股份有限公司,99667379,07610000255551,基隆市信義區孝岡里深澳坑路３１０號,基隆市信義區孝岡里,陳慶珍,22507848,股份有限公司,0760724,0771012,生產中,08食品製造業,082水產加工、089其他食品,,冷凍倉庫出租,,121.794693,25.1209984
錮得偉有限公司,99667232,08210017020158,基隆市七堵區永安里俊賢路２１號６樓,基隆市七堵區永安里,增田大志,23679755,有限公司,0821001,0821005,生產中,31其他運輸工具及其零件製造業,311船舶及浮動設施,,船舶另件及加工（調連器，陰極防護裝置）,,121.706474,25.0950127
耀集食品工廠股份有限公司,99667293,08610000804287,基隆市安樂區中崙里武訓街8號,基隆市安樂區中崙里,陳麗香,84407030,股份有限公司,0860526,0880909,生產中,08食品製造業,082水產加工、089其他食品,,冷凍魚漿加工品,,121.698204,25.142725
國昌綜合工廠有限公司(食品廠),17000078,,基隆市七堵區泰安里泰安路111之1號,基隆市七堵區泰安里,李貴發,00700019,有限公司,,1050805,生產中,09飲料製造業,092非酒精飲料,,,,,
松磐企業有限公司,99702549,,基隆市七堵區六堵里工建南路７之２號,基隆市七堵區六堵里,陳清安,23953964,有限公司,,0981204,生產中,21橡膠製品製造業、22塑膠製品製造業、25金屬製品製造業,210橡膠製品、220塑膠製品、254金屬加工處理,,防撞條,,121.702347,25.0857868
安心工程行,17000080,,基隆市安樂區中崙里武訓街35號,基隆市安樂區中崙里,顏曾安,37756653,獨資,,1050822,生產中,25金屬製品製造業,251金屬刀具、手工具及模具、252金屬結構及建築組件、253金屬容器、254金屬加工處理、259其他金屬製品,,鋼購工程,,121.700844,25.1445866
南京資訊股份有限公司,17000077,,基隆市七堵區六堵里明德二路24-1號,基隆市七堵區六堵里,吳宗寶,20928029,股份有限公司,,1050509,生產中,27電腦、電子產品及光學製品製造業,271電腦及其週邊設備,http://www.protech.com.tw,工業電腦,,121.705025,25.08691
台灣荒川化學工業股份有限公司,99667275,05610000020385,基隆市七堵區六堵里工建南路４號,基隆市七堵區六堵里,王廣成,02003502,股份有限公司,0560415,0561124,生產中,18化學原材料、肥料、氮化合物、塑橡膠原料及人造纖維製造業,184塑膠及合成橡膠原料,http://arakawachem.com.tw,製紙用強化松香皂、乳化膠劑、合成上膠劑,美國松香、印尼松香、日本松香,121.702194,25.0844078
新峰機械工業股份有限公司,99667184,05810000015069,基隆市安樂區內寮里武訓街７３號,基隆市安樂區內寮里,蔡國智,00371109,股份有限公司,0580101,0650628,生產中,25金屬製品製造業、29機械設備製造業、31其他運輸工具及其零件製造業,252金屬結構及建築組件、259其他金屬製品、293通用機械設備、292其他專用機械設備、319未分類其他運輸工具及其零件,,金屬結構及建築組件其他金屬製品,型鋼、鋼板,121.697289,25.15145
倍碟科技股份有限公司七堵廠,99667197,08810017000585,基隆市七堵區六堵里工建南路２１號(A棟、B棟1、4樓部份使用、5、6樓),基隆市七堵區六堵里,盧繼張,16847670,股份有限公司,0881230,0890414,生產中,16印刷及資料儲存媒體複製業、27電腦、電子產品及光學製品製造業、28電力設備及配備製造業,160印刷及資料儲存媒體複製、274資料儲存媒體、284照明設備及配備,,唯讀光碟片、空白光碟片（壓片）,,121.702965,25.0835381
峰隆鐵工廠股份有限公司,99667186,07110017060111,基隆市安樂區內寮里武訓街９０號,基隆市安樂區內寮里,蔡盧貴美,00847560,股份有限公司,0710817,0710903,生產中,25金屬製品製造業、29機械設備製造業、31其他運輸工具及其零件製造業,252金屬結構及建築組件、259其他金屬製品、293通用機械設備、292其他專用機械設備、319未分類其他運輸工具及其零件,,金屬製品,Ｈ型鋼、鋼板、鋼管,121.698273,25.1507568
休斯頓有限公司,17000093,,基隆市七堵區六堵里工建路5之2號(1樓),基隆市七堵區六堵里,林亞頡,24352721,有限公司,,1071016,生產中,23非金屬礦物製品製造業、25金屬製品製造業,231玻璃及其製品、232耐火、黏土建材及其他陶瓷製品、252金屬結構及建築組件、254金屬加工處理,,金屬加工,,121.701561,25.0889015
大東先進股份有限公司,99667120,06410000140929,基隆市安樂區內寮里武訓街７６號,基隆市安樂區內寮里,王文徽,02502009,股份有限公司,0641008,0660211,生產中,28電力設備及配備製造業、22塑膠製品製造業、29機械設備製造業、26電子零組件製造業,220塑膠製品、283電線及配線器材、292其他專用機械設備、269其他電子零組件、282電池,,蓄電池、極板乾燥機,,121.699394,25.14927
宗華實業有限公司,99702510,,基隆市安樂區中崙里武訓街２９號,基隆市安樂區中崙里,吳曄,86433110,有限公司,,0940905,生產中,25金屬製品製造業、29機械設備製造業,252金屬結構及建築組件、292其他專用機械設備、293通用機械設備,,營建用鋼模，鋼架，各式水閘門及撈污機，貨櫃起重機軌道基礎及附屬設施，水工機械,,121.7005,25.1437454
啟基機械工程股份有限公司,99667185,07710000176280,基隆市安樂區內寮里武訓街８６號,基隆市安樂區內寮里,蔡國智,22770761,股份有限公司,0770412,0770503,生產中,25金屬製品製造業,252金屬結構及建築組件,,金屬結構及建築組件,型鋼、Ｈ型鋼、小五金,121.6985,25.1504631
生銘混凝土有限公司,99667268,07910000163534,基隆市安樂區中崙里武訓街２－１號,基隆市安樂區中崙里,游春木,80561735,有限公司,0790803,0801227,生產中,23非金屬礦物製品製造業,233水泥及其製品,,混凝土製品,,121.696892,25.14267
元璋玻璃股份有限公司模具廠,99702563,,基隆市安樂區中崙里武訓街３３號１樓,基隆市安樂區中崙里,鄭文煜,22035355,股份有限公司,,0990708,生產中,23非金屬礦物製品製造業,231玻璃及其製品,http://www.stanleyglass.com.tw/,玻璃,,121.700951,25.14366
公元有限公司六堵廠,99702531,,基隆市七堵區六堵里工建南路５之１號１至２樓,基隆市七堵區六堵里,郭秋金,22340405,有限公司,,0970611,生產中,22塑膠製品製造業,220塑膠製品,,塑膠製品（ＰＶＣ真空盒）,,121.701904,25.086832
順易利實業有限公司七堵二廠,17000102,,基隆市七堵區永安里俊賢路29號1樓、35號2樓、47號4樓、55號4樓,基隆市七堵區永安里,王薇琦,16734752,有限公司,,1090421,生產中,11紡織業、11紡織業、33其他製造業,115紡織品、332醫療器材及用品,,,,,
台灣國際造船股份有限公司基隆廠,99667145,05210000020863,基隆市中正區平寮里和一路２２４號,基隆市中正區平寮里,唐榮貴,04695235,股份有限公司,0520531,0590401,生產中,31其他運輸工具及其零件製造業,311船舶及浮動設施、319未分類其他運輸工具及其零件,,造船，修船，製機，鋼架工程,,121.762833,25.1549282
紹惠股份有限公司,99702533,,基隆市安樂區中崙里武訓街３９之１號,基隆市安樂區中崙里,邱光輝,20900922,股份有限公司,,0971001,生產中,19其他化學製品製造業,192塗料、染料及顏料、199未分類其他化學製品,http://shawhuow.com,接著劑、環氧樹脂、硬化劑、ＵＶ塗料,接著劑、環氧樹脂、硬化劑、ＵＶ塗料,121.700684,25.1450119
宏彰食品工業有限公司,99702565,,基隆市信義區孝岡里深澳坑路３１０之１號１樓,基隆市信義區孝岡里,林瑪莉,53041873,有限公司,,0990726,生產中,08食品製造業,082水產加工,,魚片、熟小卷、蝦排,,121.794693,25.1209984
大禹鋼鐵企業股份有限公司,99667210,06310000098932,基隆市安樂區中崙里武訓街１８號,基隆市安樂區中崙里,鄭君秀,00668073,股份有限公司,0630101,0640514,生產中,24基本金屬製造業、24基本金屬製造業,241鋼鐵、249其他基本金屬,,特殊鋼、鑄鋼、不銹鋼、合金鑄鋼、高錳鋼,,121.700233,25.1431046
協同造船廠股份有限公司,99667260,04810000049874,基隆市中正區社寮里和一路１２３號,基隆市中正區社寮里,洪紹勛,02521104,股份有限公司,0481205,0590423,生產中,,,,修理漁船、修理其他船舶,,121.765793,25.15485
正信機械工業有限公司,99667196,08810017000562,基隆市七堵區百福里百七街３８號,基隆市七堵區永安里,謝啟文,02011833,有限公司,0881011,0881019,生產中,28電力設備及配備製造業,281發電、輸電及配電機械、289其他電力設備及配備,,繼電箱、配電箱,,121.696075,25.0864983
玖俊企業有限公司基隆廠,99667246,08510017020145,基隆市七堵區永安里俊賢路２７號,基隆市七堵區永安里,蔡誠一,89293063,有限公司,0851029,0851104,生產中,29機械設備製造業,292其他專用機械設備,,氣密檢查專用機,,121.706558,25.0947113
騰普科技有限公司,17000076,,基隆市安樂區中崙里武訓街23號,基隆市安樂區中崙里,黃舜,16153810,有限公司,,1050509,生產中,,,,泡棉床墊；泡棉枕頭,,121.699417,25.1435051
富煜科技股份有限公司,17000072,,基隆市安樂區內寮里武訓街48號,基隆市安樂區內寮里,戰振威,54805882,股份有限公司,,1041223,生產中,22塑膠製品製造業、33其他製造業,220塑膠製品、339未分類其他製品,,塑膠製造品清洗粉碎,,121.701073,25.1453686
光美洗衣有限公司,99667380,07610000196175,基隆市安樂區中崙里武訓街２號,基隆市安樂區中崙里,林欣佩,00867143,有限公司,0760604,0760804,生產中,11紡織業,114染整,,床巾，枕套，被套，桌巾等洗衣業,,121.696892,25.14267
明映塑膠工業有限公司,17000099,,基隆市七堵區堵南里堵南街44-1號,基隆市七堵區堵南里,陳明展,82903619,有限公司,,1080802,生產中,22塑膠製品製造業,220塑膠製品,,,,,
金正利食品廠有限公司,99667391,,基隆市安樂區中崙里武訓街４２號１樓,基隆市安樂區中崙里,蔡式毅,12640142,有限公司,,0921020,生產中,08食品製造業,089其他食品,,麵條,其他食品,121.701241,25.14485
元璋玻璃股份有限公司,99667256,08010000073179,基隆市安樂區中崙里武訓街４０號,基隆市安樂區中崙里,鄭文煜,22035355,股份有限公司,0800523,0800913,生產中,23非金屬礦物製品製造業,231玻璃及其製品,http://www.stanleyglass.com.tw/,玻璃,,121.701332,25.1445847
葳翔精密機械股份有限公司七堵廠,99702557,,基隆市七堵區永安里俊賢路４５號５樓,基隆市七堵區永安里,柯漢松,84867272,股份有限公司,,0990511,生產中,25金屬製品製造業、29機械設備製造業,259其他金屬製品、291金屬加工用機械設備,,各種幫浦製造加工及模具加工,鋼料及鋁料,121.7062,25.095026
杬力龍實業有限公司,17000090,,基隆市七堵區六堵里工建南路2號(2樓),基隆市七堵區六堵里,葉柏宣,52519053,有限公司,,1070306,生產中,31其他運輸工具及其零件製造業、32家具製造業,312機車及其零件、313自行車及其零件、321非金屬家具,,自行車,,121.701759,25.08646
立榮企業股份有限公司,99667329,05810000003976,基隆市安樂區新崙里基金一路２３０號,基隆市安樂區新崙里,李豪士,00094105,股份有限公司,0580101,0580101,生產中,11紡織業,111紡紗、112織布、113不織布、115紡織品,,塑膠製品,,121.706619,25.1421223
鑫鼎晟實業有限公司,17000092,,基隆市七堵區永安里俊賢路35號3樓,基隆市七堵區永安里,郭孝蒲,53619919,有限公司,,1070711,生產中,30汽車及其零件製造業、25金屬製品製造業,303汽車零件、259其他金屬製品,http://www.sdcbrake.com,汽車剎車片,,121.706528,25.0943928
吉翁企業有限公司,99702569,,基隆市七堵區六堵里工建路17、19號,基隆市七堵區六堵里,陳政緯,04800807,有限公司,,0990913,生產中,25金屬製品製造業,252金屬結構及建築組件、259其他金屬製品,http://www.scaffold.com.tw/,鋼管鷹架,,121.699593,25.0917549
居磁工業股份有限公司,99702503,,基隆市安樂區內寮里武訓街98號一樓,基隆市安樂區內寮里,沈學榮,96925228,股份有限公司,,0931126,生產中,26電子零組件製造業、24基本金屬製造業,262被動電子元件、241鋼鐵、249其他基本金屬,http://www.curie.com.tw,被動電子元件,,121.6988,25.1522827
立榮企業股份有限公司第二廠,99667327,06810000309605,基隆市安樂區新崙里基金一路２４６號,基隆市安樂區新崙里,李豪士,00094105,股份有限公司,0680104,0680609,生產中,11紡織業,111紡紗、112織布、113不織布、115紡織品,,塑膠製品,,121.707191,25.14207
德弈肉品有限公司,17000105,,基隆市七堵區永安里俊賢路27號2樓,基隆市七堵區永安里,陳弈翰,83499638,有限公司,,1091106,生產中,08食品製造業、08食品製造業,081肉類加工,,,,,
承炘有限公司,17000015,,基隆市七堵區永安里俊賢路39號1樓,基隆市七堵區永安里,詹棋閔,53366127,有限公司,,1001114,生產中,08食品製造業,089其他食品,,咖啡豆,,121.706451,25.0945473
品安科技股份有限公司七堵二廠,17000104,,基隆市七堵區六堵里工建北路16號1樓,基隆市七堵區六堵里,謝吳沛,84750054,股份有限公司,,1090720,生產中,26電子零組件製造業、26電子零組件製造業,269其他電子零組件,,,,,
鼎饌食品有限公司,17000003,,基隆市七堵區六堵里工建南路7之3號,基隆市七堵區六堵里,陳聖泰,53160125,有限公司,,0991213,生產中,08食品製造業,089其他食品,,麻辣鍋底調味品,,121.702347,25.0857868
上紅科技有限公司,17000091,,基隆市七堵區六堵里工建北路3號1樓,基隆市七堵區六堵里,鄭華倫,28546951,有限公司,,1070409,生產中,26電子零組件製造業,269其他電子零組件,,電子產品代工,,121.703941,25.0873985
尚鴻開發科技資訊有限公司,17000014,,"基隆市七堵區六堵里工建北路3 號1樓",基隆市七堵區六堵里,鄭穎謙,80452650,有限公司,,1001114,生產中,26電子零組件製造業,269其他電子零組件,,晶片電阻,,121.703941,25.0873985
中華機械鐵工廠,99667160,05810000010797,基隆市中正區入船里中正路１５８號,基隆市中正區入船里,林念台,00057609,獨資,0580101,0600101,生產中,31其他運輸工具及其零件製造業、29機械設備製造業,293通用機械設備、311船舶及浮動設施、319未分類其他運輸工具及其零件,,船舶機械修造及電焊，氣焊工程,,121.751259,25.13835
三中精機有限公司新廠,17000049,,基隆市安樂區中崙里武訓街34號1樓,基隆市安樂區中崙里,林朝昇,00688129,有限公司,,1030528,生產中,29機械設備製造業、31其他運輸工具及其零件製造業,293通用機械設備、311船舶及浮動設施,,通用機械設備，船舶及其零件、安裝修理,,121.700951,25.14366
樺鋒鋼鐵五金行,99702506,,基隆市中正區和憲里和一路４１巷４弄１１號,基隆市中正區和憲里,謝孟宏,82219547,獨資,,0940505,生產中,24基本金屬製造業,249其他基本金屬,,鋼板裁剪、其他金屬,,121.76757,25.154604
台松科技股份有限公司,99667305,05810000091388,基隆市七堵區六堵里工建西路３號,基隆市七堵區六堵里,王廣志,24016707,股份有限公司,0581031,0591208,生產中,28電力設備及配備製造業、33其他製造業、25金屬製品製造業,282電池、339未分類其他製品、254金屬加工處理,http://www.taimatsu.com.tw/,炭精棒、開槽炭精、汽車用蓄電池、鋰電池封裝,石墨、銅、汽車蓄電池、鋰電池、基板,121.699211,25.0929565
台松科技股份有限公司六堵廠,99667323,05910000033805,基隆市七堵區六堵里工建西路２ˋ４號及工建路２１號,基隆市七堵區六堵里,王廣志,24016707,股份有限公司,0590626,0590701,生產中,25金屬製品製造業、28電力設備及配備製造業、33其他製造業,254金屬加工處理、282電池、339未分類其他製品,http://www.taimatsu.com.tw/,炭精棒、開槽炭精、汽車用蓄電池、鋰電池封裝,石墨、銅、汽車蓄電池、鋰電池、基板,121.698959,25.0919762
菓蓮有限公司大武崙廠,17000100,,基隆市安樂區中崙里武訓街54號1樓及56號1、2樓,基隆市安樂區中崙里,陳宇軒,53222086,有限公司,,1081015,生產中,08食品製造業、08食品製造業,083蔬果加工,,蔬果加工,,121.700447,25.1459179
居德精機股份有限公司,99667161,07710017000133,基隆市中正區入船里中船路１１４巷３號１樓,基隆市中正區入船里,林念台,22919399,股份有限公司,0770601,0770607,生產中,29機械設備製造業、25金屬製品製造業,259其他金屬製品、293通用機械設備,,切削工具機零件,,121.751289,25.1382866
可取國際股份有限公司,17000045,,基隆市七堵區六堵里工建路2-1號2樓,基隆市七堵區六堵里,許仁豪,27976720,股份有限公司,,1030304,生產中,27電腦、電子產品及光學製品製造業、33其他製造業,272通訊傳播設備、339未分類其他製品,,安控監視器,,121.70282,25.0880013
吉羿實業股份有限公司,99667378,08710017020072,基隆市七堵區永安里俊賢路４９號２樓,基隆市七堵區永安里,賴振興,84202199,股份有限公司,0870516,0870522,生產中,26電子零組件製造業,269其他電子零組件,,電子零組件,,121.706047,25.09502
川欣企業股份有限公司,99667200,08310000150672,基隆市信義區孝岡里深澳坑路２７７號,基隆市信義區孝岡里,周美琴,23557660,股份有限公司,0830125,0870211,生產中,08食品製造業,082水產加工,http://www.topseafood.com.tw,冷凍水產品加工劍蝦市肉透抽小卷,,121.797028,25.1203423
億元食品股份有限公司七堵廠,99702501,,基隆市七堵區六堵里工建路５之1號及５之４號,基隆市七堵區六堵里,林田一,22160732,股份有限公司,,0930714,生產中,08食品製造業,089其他食品,http://www.yihyuan.com.tw,食品原料、食品添加物及調味料進出口及買賣,味素、鹽、麵粉、乳糖等,121.701622,25.0888271
登御實業股份有限公司,99667394,,基隆市暖暖區過港里興隆街１０之６號１樓,基隆市暖暖區過港里,李麗琴,80482090,股份有限公司,,0921202,生產中,22塑膠製品製造業,220塑膠製品,,塑膠膜,,121.746925,25.1035
品安科技股份有限公司七堵廠,99702507,,基隆市七堵區六堵里工建南路２－２號１、２、３、４樓,基隆市七堵區六堵里,謝吳沛,84750054,股份有限公司,,0940516,生產中,26電子零組件製造業、27電腦、電子產品及光學製品製造業,261半導體、269其他電子零組件、271電腦及其週邊設備,,記憶體、ＭＰ隨身聽、隨身碟、記憶卡、半導體、電腦及其週邊設備,,121.70179,25.0864964
僑法有限公司,99667267,07210017070083,基隆市信義區孝岡里深澳坑路３４０之１號,基隆市信義區孝岡里,駱振林,00724482,有限公司,0720613,0730307,生產中,29機械設備製造業,292其他專用機械設備,http://www.chyaufar.com,食品機械零件、魚漿煉製品機（關東煮火鍋料機器）,,121.797485,25.118084
上泉混凝土股份有限公司,99702505,,基隆市安樂區中崙里武訓街１７號,基隆市安樂區中崙里,李劉月琴,16878286,有限公司,,0940118,生產中,23非金屬礦物製品製造業,233水泥及其製品,,水泥及水泥製品,水泥、沙石、碎石,121.698639,25.14328
泳富程科技開發有限公司,17000024,,基隆市七堵區六堵里工建南路1號,基隆市七堵區六堵里,葉紫仙,53632005,有限公司,,1010704,生產中,19其他化學製品製造業、17石油及煤製品製造業,199未分類其他化學製品、170石油及煤製品,,石油及煤製品製造業,,121.702141,25.0871239
協鑫造船股份有限公司,99667309,05710000060580,基隆市中正區中濱里中正路３７３號,基隆市中正區中濱里,汪國駿,02521815,股份有限公司,0570923,0571018,生產中,31其他運輸工具及其零件製造業,311船舶及浮動設施,,鋼船、木船機械裝配．遊艇修造,,121.763733,25.1494465
釀酒人酒廠股份有限公司,99702558,,基隆市中正區砂灣里正榮街１１２巷１號１樓，８號１樓,基隆市中正區砂灣里,吳語渲,25021663,股份有限公司,,0990511,生產中,08食品製造業、09飲料製造業,083蔬果加工、091酒精飲料、092非酒精飲料,,酵素、酒,,121.7636,25.14304
昂慶有限公司二廠,99702516,,基隆市七堵區永安里俊賢路３７號３樓,基隆市七堵區永安里,蘇添進,89248357,有限公司,,0951227,生產中,27電腦、電子產品及光學製品製造業、26電子零組件製造業,271電腦及其週邊設備、269其他電子零組件,,電腦及其周邊設備、其他電子零組件,,121.706505,25.0944786
頌琦工業股份有限公司,99667123,08910017000017,基隆市七堵區六堵里工建北路９－１號,基隆市七堵區六堵里,熊光宙,86596330,股份有限公司,0890320,0901003,生產中,,,,電子、電器塑膠製品加工及塑膠模具製造,,121.704521,25.08604
國產建材實業股份有限公司基隆廠,99667253,08210000077590,基隆市七堵區八德里八德路２之２號,基隆市七堵區八德里,張金淼,24060203,股份有限公司,0820813,0831108,生產中,23非金屬礦物製品製造業,233水泥及其製品,,預拌混凝土,水泥、砂、石,121.723335,25.10369
佳美開發美食有限公司,17000025,,基隆市安樂區新崙里基金一路379巷23號1樓,基隆市安樂區新崙里,林瑀晨,53502045,有限公司,,1010719,生產中,08食品製造業,089其他食品,,便當,,121.703964,25.1409569
一原汽車有限公司,17000064,,基隆市七堵區瑪南里大華二路33-8號,基隆市七堵區瑪南里,歐慶仁,16568199,有限公司,,1040528,生產中,30汽車及其零件製造業,302車體,,汽車零件組裝,,121.689667,25.1047134
中國電子股份有限公司六堵總廠第二廠,99667238,06110000005815,基隆市七堵區六堵里工建西路１１號,基隆市七堵區六堵里,蘇美春,11132909,股份有限公司,0610131,0620313,生產中,26電子零組件製造業,269其他電子零組件,,影印前／影印後加工設備及相關零組件,,121.7026,25.09535
連合發企業股份有限公司六堵廠,17000087,,基隆市七堵區六堵里工建南路2號(食品廠),基隆市七堵區六堵里,譚福民,89965054,股份有限公司,,1060828,生產中,08食品製造業,089其他食品,,餐盒製造,,121.701767,25.0864639
元昌鐵工廠,99667264,07510000273395,基隆市中正區正砂里中正路119巷36號,基隆市中正區正砂里,呂春益,02515166,獨資,0751002,0751002,生產中,31其他運輸工具及其零件製造業,311船舶及浮動設施,,船舶機械修理、零件製造,,121.76,25.1419258
台灣長新股份有限公司,99667338,06510000156625,基隆市七堵區六堵里工建南路１９號,基隆市七堵區六堵里,長保行,00706219,股份有限公司,0650929,0660301,生產中,29機械設備製造業,293通用機械設備,,自動包裝機，工業用縫紉機，縫袋,,121.702858,25.0840263
金壽砂石股份有限公司基隆水泥製品廠,17000020,,基隆市七堵區堵南里長安街20號(通訊處：花蓮市中山路412巷12號1樓),基隆市七堵區堵南里,許堯棟,27297103,股份有限公司,,1010323,生產中,23非金屬礦物製品製造業,233水泥及其製品,,水泥方塊,,121.690948,25.07722
祥昌商行,99667348,07610017050055,基隆市中山區中山里中山一路213號1樓,基隆市中山區中山里,林李秀鳳,31402633,有限公司,0760425,0760513,生產中,12成衣及服飾品製造業,123服飾品,,成衣加工,,121.739357,25.1342583
大隆冷凍食品股份有限公司,99667152,06210000141069,基隆市中正區砂子里調和街１１８號,基隆市中正區砂子里,張學崇,00653780,股份有限公司,0620105,0620816,生產中,08食品製造業,082水產加工、089其他食品,,冰塊,,121.795876,25.1351662
季通實業股份有限公司,99667218,08310017030011,基隆市暖暖區過港里興隆街１０之３號,基隆市暖暖區過港里,吳進財,89899689,股份有限公司,0840113,0840523,生產中,22塑膠製品製造業,220塑膠製品,,塑膠膜,,121.746925,25.1035
三中精機有限公司,99667299,06110000096909,基隆市中山區通化里復旦路１９巷１號,基隆市中山區通化里,林朝昇,00688129,有限公司,0610101,0620517,生產中,25金屬製品製造業、29機械設備製造業、31其他運輸工具及其零件製造業,254金屬加工處理、293通用機械設備、251金屬刀具、手工具及模具、311船舶及浮動設施,,柴油機之燃油噴射泵固特柱塞,,121.739647,25.14627
台灣正煬股份有限公司基隆一廠,99702520,,基隆市七堵區永安里俊賢路７號,基隆市七堵區永安里,長芳正,27523375,股份有限公司,,0960424,生產中,29機械設備製造業,292其他專用機械設備,,五金零件、零件加工等,,121.707527,25.0943851
本峰鐵工廠有限公司,99667209,06410000092704,基隆市七堵區自強里自強路２５號,基隆市七堵區自強里,張明煌,00660678,有限公司,0640716,0640925,生產中,29機械設備製造業、31其他運輸工具及其零件製造業,293通用機械設備、311船舶及浮動設施,,陸上機械船舶機械之修造、輪油管修配,,121.712128,25.1048641
松豐木材廠有限公司,99667278,07110017060136,基隆市安樂區中崙里武訓街４號,基隆市安樂區中崙里,張清寧,20936837,有限公司,0710921,0710930,生產中,14木竹製品製造業,140木竹製品,,木材加工,,121.697357,25.142746
吉信衡器廠有限公司,99667181,07410000158915,基隆市七堵區富民里明德一路一二六號,基隆市七堵區富民里,張正達,00711851,有限公司,0740612,0741007,生產中,29機械設備製造業,293通用機械設備,,度量衡器、各種秤類,,121.71582,25.0985756
維生食品工廠,99667128,07210017010017,基隆市中正區正砂里中正路４０２、４０４號,基隆市中正區正砂里,陸長元,00429708,合夥,0720218,0740216,生產中,08食品製造業,089其他食品,,方糖,,121.761635,25.1459961
興業金屬股份有限公司,99667167,07310000036518,基隆市安樂區內寮里基金三路３０號,基隆市安樂區內寮里,呂效賓,33845634,股份有限公司,0730424,0741228,生產中,24基本金屬製造業,249其他基本金屬,,鉛錠,,121.70002,25.1503525
裕興實業社,99667212,08710017010094,基隆市中正區武昌街１０４巷４５號地下層１樓,基隆市中正區中濱里,劉明昌,98113400,獨資,0870529,0870604,生產中,27電腦、電子產品及光學製品製造業、26電子零組件製造業,271電腦及其週邊設備、272通訊傳播設備、269其他電子零組件,,電腦及其週邊設備、通信機械器材、視聽電子產品、其他電子零組件,錫絲、錫棒、ＰＣ板,121.76519,25.14869
福源機器工業股份有限公司,99667313,05810000000205,基隆市暖暖區八南里八堵路１７１號,基隆市暖暖區八南里,楊政信,02055108,股份有限公司,0580101,0580809,生產中,29機械設備製造業,292其他專用機械設備、293通用機械設備,,排氣風管、水泵、翻車機、輸送機,,121.72644,25.1043377
怡信股份有限公司,99667306,06710000222209,基隆市中山區中和里中和路６號,基隆市中山區中和里,楊添福,00147145,股份有限公司,0671014,0671205,生產中,08食品製造業,089其他食品,,食品包裝及冷藏食品,,121.7229,25.14406
馗佑國際貿易有限公司,17000029,,基隆市安樂區中崙里武訓街47號1樓,基隆市安樂區中崙里,王慶璉,53070068,有限公司,,1011126,生產中,23非金屬礦物製品製造業,234石材製品、239其他非金屬礦物製品,,岩鹽，玉器，石器,岩鹽，密迪板，油漆,121.69973,25.1465931
鈺鼎實業股份有限公司,99667270,07710017020088,基隆市暖暖區暖西里暖暖街３７９巷１２０號,基隆市暖暖區暖西里,林啟培,22368183,股份有限公司,0770331,0770408,生產中,26電子零組件製造業,269其他電子零組件,,電源連接線、插頭,,121.737816,25.0934429
新茂鐵工廠有限公司,99667156,05810000000616,基隆市中正區入船里中船路１３０號,基隆市中正區入船里,賴慧全,00366909,有限公司,0580101,0580923,生產中,29機械設備製造業、30汽車及其零件製造業、31其他運輸工具及其零件製造業,291金屬加工用機械設備、293通用機械設備、292其他專用機械設備、311船舶及浮動設施、303汽車零件、319未分類其他運輸工具及其零件,,機械零件,,121.751152,25.1380959
協和船舶修理工程廠,99667177,06810000100534,基隆市中正區港通里義二路１７９巷２４號,基隆市中正區港通里,應明亮,00159900,獨資,0680115,0681012,生產中,31其他運輸工具及其零件製造業,311船舶及浮動設施,,船舶機械修造,,121.747322,25.1348228
隆湧機械有限公司,99667361,07010000064569,基隆市中山區協和里文化路９６號,基隆市中山區協和里,張王春金,00820295,有限公司,0700130,0700519,生產中,29機械設備製造業,293通用機械設備,,小型機械零件之修理,,121.734619,25.1536541
聯華食品工業股份有限公司基隆廠,99667117,08910000960581,基隆市安樂區中崙里武訓街４３號,基隆市安樂區中崙里,李開源,07569627,股份有限公司,0890719,0890809,生產中,08食品製造業,089其他食品,,便當、飯糰、壽司,,121.700073,25.1459122
儀燿企業有限公司,99667367,,基隆市安樂區中崙里武訓街39號,基隆市安樂區中崙里,陳英華,80053372,有限公司,,0911204,生產中,21橡膠製品製造業,210橡膠製品,,玩具印章,,121.700684,25.1450119
嘉文實業有限公司,99667203,08810017000571,基隆市七堵區永安里俊賢路５５、５７、５９號２樓,基隆市七堵區永安里,周嘉文,22603504,有限公司,0881116,0881120,生產中,26電子零組件製造業,269其他電子零組件,,玩具代工,ＯＰＰ封箱膠帶、打包帶,121.705986,25.0948429
自立鐵工廠股份有限公司,99667281,05810000010776,基隆市中正區港通里信三路２８巷３號,基隆市中正區港通里,張陳碧珠,00103408,股份有限公司,0580101,0590801,生產中,29機械設備製造業、31其他運輸工具及其零件製造業,293通用機械設備、311船舶及浮動設施,,其他專用生產機械維修及安裝,,121.745171,25.1331425
信嶸工業有限公司,99667245,05810000010912,基隆市中正區港通里信七路１８號,基隆市中正區港通里,李黃素貞,00330305,有限公司,0580101,0600101,生產中,30汽車及其零件製造業,303汽車零件,,船舶陸上及冷凍機械修造交通器材汽車修配,,121.748215,25.1361427
寬勇工程行,99667271,05810000005368,基隆市中正區中正里中正路５１５號,基隆市中正區正濱里,王煌榮,74847946,合夥,0580101,0590701,生產中,31其他運輸工具及其零件製造業,311船舶及浮動設施,,漁船機器，甲板修造，拆卸工程,,121.767838,25.15282
楓佩生技食品有限公司,99667400,,基隆市七堵區永安里俊賢路３７號２樓,基隆市七堵區永安里,周秀鳳,80445075,有限公司,,0930623,生產中,09飲料製造業,092非酒精飲料,,飲料,,121.706505,25.0944786
重光義肢裝具器材有限公司基隆廠,99702522,,基隆市七堵區永安里俊賢路２７號３樓,基隆市七堵區永安里,黃嘉瑩,28545307,有限公司,,0960727,生產中,33其他製造業,332醫療器材及用品,,義肢零件、成品買賣,,121.706558,25.0947113
明星醬油工廠,99667242,07510000284845,基隆市安樂區永康里樂一路２８巷３２號,基隆市安樂區安和里,翁黃秀蓮,00166206,獨資,0751205,0751205,生產中,08食品製造業,089其他食品,,醬油膏，醬油，辣椒醬，甜辣醬,,121.733749,25.1314526
振發造船廠,99667169,05810000002042,基隆市中正區正濱路一一六巷三弄七號,基隆市中正區海濱里,林宜得,98094163,獨資,0580101,0580101,生產中,31其他運輸工具及其零件製造業,311船舶及浮動設施,,各種船舶、修配,,121.770348,25.1543331
佳達機械工業有限公司,99667135,07610017030177,基隆市暖暖區過港里興隆街１０之５號,基隆市暖暖區過港里,王忠達,00710327,有限公司,0761021,0770704,生產中,31其他運輸工具及其零件製造業、25金屬製品製造業,252金屬結構及建築組件、254金屬加工處理、311船舶及浮動設施,,船用（直梯、冷凍架、電裝品、欄杆、艙口蓋）,,121.746925,25.1035
嘉億碾米廠,99667201,07610017040198,基隆市仁愛區光華里華二街１７－１號,基隆市仁愛區光華里,何彩雲,00920082,獨資,0761109,0770408,生產中,08食品製造業,086碾榖、磨粉及澱粉製品,,白米,,121.736946,25.1266041
鑫禾科技股份有限公司,17000084,,基隆市七堵區六堵里工建北路11號,基隆市七堵區六堵里,蘇丁鴻,13012009,股份有限公司,,1060302,生產中,25金屬製品製造業、26電子零組件製造業、27電腦、電子產品及光學製品製造業、28電力設備及配備製造業,259其他金屬製品、269其他電子零組件、271電腦及其週邊設備、272通訊傳播設備、285家用電器,http://www.sinher.com.tw/,凸輪、墊片,,121.704659,25.0854359
尚愷有限公司七堵廠,99702544,,基隆市七堵區瑪南里大華二路３３─６號,基隆市七堵區瑪南里,陳敏德,20947052,有限公司,,0980605,生產中,25金屬製品製造業,254金屬加工處理、259其他金屬製品,http://www.sunkaiser.com.tw,商品展示架,,121.689667,25.1047134
旭騰股份有限公司,99702545,,基隆市七堵區瑪南里大華二路３３之５號,基隆市七堵區瑪南里,郭炳源,23882048,股份有限公司,,0980707,生產中,29機械設備製造業,293通用機械設備,,通用機械設備－洗窗機設備／軌道工程,,121.689667,25.1047134
建和冰凍股份有限公司,99667347,05810000001279,基隆市中正區和憲里和一路４１巷４弄９號,基隆市中正區和憲里,焦威聯,02528802,股份有限公司,0580101,0581015,生產中,08食品製造業,082水產加工、089其他食品,,冰冷藏等,,121.766647,25.1544552
泉利米香食品有限公司,99702560,,基隆市信義區仁壽里信二路２１７巷１號,基隆市信義區仁壽里,簡許泉,24215614,有限公司,,0990623,生產中,08食品製造業,089其他食品,,西點，麵包，糖果，餅乾，蛋糕，米製品，米香系列產品,,121.749016,25.1295948
濬聚精密有限公司,17000047,,基隆市安樂區內寮里武訓街62號2樓,基隆市安樂區內寮里,柯月妹,25027054,有限公司,,1030501,生產中,25金屬製品製造業,252金屬結構及建築組件,,金屬結構及建築組件,,121.70002,25.14691
大中福國企業有限公司,17000085,,基隆市安樂區內寮里武訓街63號,基隆市安樂區內寮里,魏雅痷,00005700,有限公司,,1060510,生產中,23非金屬礦物製品製造業,234石材製品,,石材,,121.698822,25.1492329
臺陽儲運股份有限公司,99667191,08010017020129,基隆市七堵區堵南里明德三路５１號,基隆市七堵區堵南里,陳正文,04448299,股份有限公司,0800920,0810317,生產中,31其他運輸工具及其零件製造業,319未分類其他運輸工具及其零件,,貨櫃箱修理,,121.6893,25.0775185
創為精密材料股份有限公司,99702573,,基隆市安樂區內寮里武訓街８４號,基隆市安樂區內寮里,趙書華,70515157,股份有限公司,,0990930,生產中,26電子零組件製造業、27電腦、電子產品及光學製品製造業,264光電材料及元件、269其他電子零組件、271電腦及其週邊設備、274資料儲存媒體,http://amtouch.com.tw,電腦及其週邊設備,,121.698593,25.1503429
合順複合科技有限公司,99702571,,基隆市七堵區六堵里工建西路9號,基隆市七堵區六堵里,陳炎進,53045934,有限公司,,0990929,生產中,11紡織業、30汽車及其零件製造業,114染整、303汽車零件,http://hi-suit.com.tw,布疋貼合加工,,121.702271,25.0950241
聯成工程行,99702572,,基隆市七堵區永安里自治北街31號,基隆市七堵區永安里,余文竣,78413935,獨資,,0990930,生產中,24基本金屬製造業,249其他基本金屬,,不銹鋼門窗及欄杆工程,,121.712006,25.0979347
裕興實業社信義廠,99702511,,基隆市信義區東信里正信路２２７巷２３弄６號,基隆市信義區東信里,劉明昌,98113400,合夥,,0940906,生產中,27電腦、電子產品及光學製品製造業、26電子零組件製造業,271電腦及其週邊設備、272通訊傳播設備、269其他電子零組件、273視聽電子產品,,電腦及其週邊設備、通信機械器材、視聽電子產品、其他電子零組件,錫絲、錫棒、ＰＣ板,121.76442,25.1345253
印提諾有限公司,99667226,08910017000085,基隆市七堵區永安里俊賢路３５號５樓,基隆市七堵區永安里,游瑞隆,97289318,有限公司,0890818,0890902,生產中,27電腦、電子產品及光學製品製造業,271電腦及其週邊設備、273視聽電子產品,,主機板加工,,121.706551,25.0944233
向揚工業有限公司,99667358,08910017000097,基隆市七堵區瑪西里大華三路８之１號１樓,基隆市七堵區瑪西里,曹博鈞,22462949,有限公司,0891113,0910822,生產中,29機械設備製造業,293通用機械設備,http://www.dyna-compressor.com,空壓機,,121.68235,25.112915
容昌工程有限公司,99667139,,基隆市安樂區新西里新西街２１３號,基隆市安樂區新西里,黃懇,23542858,有限公司,,0901214,生產中,25金屬製品製造業,259其他金屬製品,,各種金屬製品,,121.724915,25.14171
昇和工程行,99667147,,基隆市中山區中山里中山一路１９９號,基隆市中山區中山里,賴淑華,00677072,合夥,,0910115,生產中,22塑膠製品製造業,220塑膠製品,,端子絕緣套管、各式軟性膠套,,121.739166,25.1339378
欣揚海產有限公司,99667140,08910000901342,基隆市暖暖區過港里興隆街２７號,基隆市暖暖區過港里,余次雄,89296863,有限公司,0890314,0901221,生產中,08食品製造業,082水產加工、089其他食品,,冷凍食品：魚漿煉製品（蝦排，蝦捲，魚排，魷魚條）,,121.747421,25.1017914
尚吉康興業有限公司,99667101,,基隆市七堵區長興里東新街９１號,基隆市七堵區長興里,張珮茹,12734696,有限公司,,0900516,生產中,08食品製造業,089其他食品,,其他食品,,121.721153,25.0948162
溫莎堡食品股份有限公司,99667261,07910000183199,基隆市安樂區興寮里基金一路５４、５４之１號,基隆市安樂區興寮里,林志羽,23821660,有限公司,0790907,0801207,生產中,08食品製造業,089其他食品,http://www.windsor.com.tw,麵包、蛋糕,,121.721512,25.136158
鋐原能源股份有限公司,99702519,,基隆市安樂區中崙里武訓街２７號,基隆市安樂區中崙里,施長寬,23455642,股份有限公司,,0960327,生產中,25金屬製品製造業、28電力設備及配備製造業、29機械設備製造業,252金屬結構及建築組件、253金屬容器、259其他金屬製品、281發電、輸電及配電機械、292其他專用機械設備,,ＰＵＬＬ　ＢＯＸ　ＦＩＴＴＩＮＧ,,121.700172,25.1435528
宗助化油器工業社,99667370,07510017070041,基隆市信義區禮儀里東明路１２２號,基隆市信義區禮儀里,陳宗助,00905982,獨資,0750321,0750327,生產中,30汽車及其零件製造業,303汽車零件,,專利Ｈ型汽車化油器,鋅合金、化油器下座,121.759918,25.1279449
齊魯麻油店,99667153,07610000101705,基隆市信義區禮東里東明路１７巷２２號,基隆市信義區禮東里,馬楊美愛,00425506,獨資,0760204,0760204,生產中,08食品製造業,084動植物油脂,,製油、製粉及碾穀,,121.763885,25.1273
琦信企業有限公司基隆廠,17000095,,基隆市安樂區興寮里基金一路56號,基隆市安樂區興寮里,簡恩賜,00861160,有限公司,,1071214,生產中,08食品製造業,087動物飼品,,動物潔牙骨,,121.72139,25.1361561
尚昱機械有限公司,99667276,08010017020114,基隆市暖暖區碇祥里碇內街６７號,基隆市暖暖區碇和里,張信良,22572002,有限公司,0800823,0800827,生產中,29機械設備製造業、25金屬製品製造業、31其他運輸工具及其零件製造業,293通用機械設備、253金屬容器、311船舶及浮動設施,,鍋爐，輸送機，船舶機械修護,,121.754623,25.0926247
大瀚印刷事業有限公司,99667298,07810017060187,基隆市安樂區慈仁里安一路２３４號１樓,基隆市安樂區慈仁里,林茂青,23976811,有限公司,0781114,0790220,生產中,16印刷及資料儲存媒體複製業,160印刷及資料儲存媒體複製,,各種印刷品,,121.731186,25.1328869
元璋玻璃股份有限公司三廠,99667258,08810000064104,基隆市安樂區中崙里武訓街１２號,基隆市安樂區中崙里,鄭文煜,22035355,股份有限公司,0880525,0890627,生產中,23非金屬礦物製品製造業,231玻璃及其製品,http://www.stanleyglass.com.tw/,玻璃,,121.699074,25.1430264
新發製鋼股份有限公司,99667102,06210000080998,基隆市七堵區堵南里明德三路１１１號,基隆市七堵區堵南里,張添澄,20668001,股份有限公司,0580101,0690930,生產中,24基本金屬製造業,241鋼鐵,,鋼板’鎂合金錠,,121.687645,25.0740623
宏隆鐵工廠,99667190,05910000021274,基隆市中正區正濱里正濱路１５號,基隆市中正區正濱里,吳沅修,02518311,獨資,0590227,0600311,生產中,31其他運輸工具及其零件製造業,311船舶及浮動設施,,船舶機械甲板、冷作電焊工程、船舶修配,,121.77034,25.1524029
汎得自動化企業股份有限公司,99667175,08210017020118,基隆市七堵區永安里俊賢路５７ˋ５９號５樓,基隆市七堵區永安里,簡淑慧,23042100,股份有限公司,0820722,0820727,生產中,27電腦、電子產品及光學製品製造業,271電腦及其週邊設備,,自動倉儲系統設備,,121.705986,25.0948429
大順工業有限公司,99667231,08610017010010,基隆市中正區正濱里正濱路３２號１樓,基隆市中正區正濱里,張武雄,02503513,有限公司,0860123,0860127,生產中,31其他運輸工具及其零件製造業,311船舶及浮動設施,,船舶機械修造,,121.770477,25.1526
元昌一機械工廠有限公司,99667263,08610017010066,基隆市中正區正砂里中正路１４３號１樓,基隆市中正區港通里,呂春益,89993896,有限公司,0860728,0860808,生產中,29機械設備製造業、28電力設備及配備製造業、31其他運輸工具及其零件製造業,293通用機械設備、289其他電力設備及配備、311船舶及浮動設施,,船舶機械零件製造修理，各種機械配件自動潛,,121.760017,25.1418
和昇企業社,99667213,08110017020159,基隆市七堵區堵南里長安街２３９巷１８號１樓,基隆市七堵區堵南里,郭王裕,00936970,獨資,0811212,0811222,生產中,33其他製造業,331育樂用品,,玩具加工（管制品除外），裝飾品加工,,121.696838,25.0748234
隆昌工程行,99667342,08110017030084,基隆市暖暖區暖東里東勢街７１之３號,基隆市暖暖區暖東里,陳泉,00293322,獨資,0810730,0821228,生產中,29機械設備製造業,293通用機械設備,,其他專用機械設備,,121.744957,25.0863075
杰成企業有限公司,99667164,08610017020015,基隆市七堵區俊賢路５５ˋ５７ˋ５９號３樓,基隆市七堵區永安里,林明智,04803282,有限公司,0860221,0860226,生產中,26電子零組件製造業,269其他電子零組件,http://www.ccheng.com.tw,配線組立、連接線,,121.705986,25.0948429
興侖企業有限公司,99667334,08410017020096,基隆市七堵區永安里俊賢路２３號３樓,基隆市七堵區永安里,潘豪宗,89360908,有限公司,0840707,0840816,生產中,27電腦、電子產品及光學製品製造業,273視聽電子產品,,導線、導線接頭、組合,,121.70639,25.0950069
錦文鋼鐵有限公司,99702550,,基隆市七堵區永安里俊賢路７號,基隆市七堵區永安里,陳清德,22614832,有限公司,,0981204,生產中,25金屬製品製造業,252金屬結構及建築組件,,電動捲門、防洪匣門、鋼板門、隔音門,,121.707527,25.0943851
杭特電子股份有限公司六堵廠,17000016,,基隆市七堵區六堵里工建路15號3樓、4樓、5樓、6樓,基隆市七堵區六堵里,鄭子釗,23133690,股份有限公司,,1001205,生產中,27電腦、電子產品及光學製品製造業,273視聽電子產品,http://www.hunt.com.tw,電眼、閉路監視系統,,121.700264,25.091301
貝思得國際股份有限公司,99702524,,基隆市七堵區永安里俊賢路４９號４樓,基隆市七堵區永安里,周明福,23598260,股份有限公司,,0961108,生產中,33其他製造業,332醫療器材及用品,http://www.beautistyle.com.tw,貝思得超音波治療儀,,121.706047,25.09502
松鼎工業股份有限公司,17000039,,基隆市安樂區內寮里武訓街96號,基隆市安樂區內寮里,葉長松,86526047,股份有限公司,,1020703,生產中,24基本金屬製造業、25金屬製品製造業,241鋼鐵、251金屬刀具、手工具及模具,https://tw.ttnet.net/co/gotohtm-piughquwjivzprl.ht,閥件,,121.699196,25.1519413
淳鐿企業社,17000066,,基隆市七堵區永安里俊賢路35號4樓,基隆市七堵區永安里,李俊德,98088752,獨資,,1040609,生產中,25金屬製品製造業、29機械設備製造業,251金屬刀具、手工具及模具、259其他金屬製品、293通用機械設備,,ＰＣ板半成品加工,,121.706551,25.0944233
士緯科技股份有限公司,17000046,,基隆市七堵區永安里俊賢路11號,基隆市七堵區永安里,邱文金,53762365,股份有限公司,,1030324,生產中,24基本金屬製造業、24基本金屬製造業、25金屬製品製造業、29機械設備製造業、21橡膠製品製造業、22塑膠製品製造業、23非金屬礦物製品製造業,241鋼鐵、242鋁、243銅、249其他基本金屬、254金屬加工處理、291金屬加工用機械設備、292其他專用機械設備、293通用機械設備、210橡膠製品、220塑膠製品、233水泥及其製品、239其他非金屬礦物製品,,鋼鐵，鋁，銅，其他基本金屬，金屬加工處理，金屬加工用機械設備，其他專用機械設備，通用機械設備,,121.70752,25.09498
和泰製冰有限公司,99667194,07810000317491,基隆市信義區孝岡里深澳坑路３３０號,基隆市信義區孝岡里,曾毅,22059763,有限公司,0781023,0781023,生產中,33其他製造業,339未分類其他製品,,漁用冰,,121.79567,25.1200428
上可實業股份有限公司,99667144,07310000129020,基隆市安樂區中崙里武訓街２４號,基隆市安樂區中崙里,李信宏,09431557,股份有限公司,0730620,0731013,生產中,25金屬製品製造業,259其他金屬製品,,鋼捲尺,,121.700935,25.1427345
原益企業有限公司,99667254,07810017020172,基隆市七堵區自強里自強路１２４之１號,基隆市七堵區自強里,高嘉遠,22945278,有限公司,0781017,0801021,生產中,14木竹製品製造業,140木竹製品,,木材,,121.713051,25.1109371
晟鈺智能全球有限公司,17000011,,基隆市安樂區新崙里基金一路382號,基隆市安樂區新崙里,王瑞汶,89869192,有限公司,,1000614,生產中,25金屬製品製造業,252金屬結構及建築組件,,鋁門窗,,121.704,25.1427689
聯同鐵材有限公司,99667126,06610000161233,基隆市安樂區中崙里武訓街２０號,基隆市安樂區中崙里,簡德和,00691784,有限公司,0660101,0671130,生產中,24基本金屬製造業,241鋼鐵,,鋼筋,,121.700623,25.1430836
浩綸實業股份有限公司基隆廠,17000019,,基隆市七堵區友一里華新一路110-1號,基隆市七堵區友一里,郭澤煌,89725317,股份有限公司,,1010322,生產中,15紙漿、紙及紙製品製造業,152瓦楞紙板及紙容器,,紙杯、紙盤、木筷、吸管,,121.67041,25.0971851
展華造船股份有限公司基隆造船廠,17000018,,基隆市中正區正砂里中正路371-1號,基隆市中正區正砂里,楊林彊,53647627,股份有限公司,,1010204,生產中,31其他運輸工具及其零件製造業,311船舶及浮動設施,,船舶新建船舶維修,,121.763504,25.1492844
信孚壓鑄企業股份有限公司基隆廠,99667244,07510000265674,基隆市安樂區中崙里武訓街１０號,基隆市安樂區中崙里,陳吉輝,45097824,股份有限公司,0750901,0751204,生產中,25金屬製品製造業、24基本金屬製造業,254金屬加工處理、259其他金屬製品、241鋼鐵、242鋁、243銅、249其他基本金屬、251金屬刀具、手工具及模具、252金屬結構及建築組件、253金屬容器,http://www.trustdce.com,音響喇叭殼，道路標誌殼，馬達殼，工業用電腦機殼,鋁合金,121.698578,25.1428871
璉宥企業有限公司,99702532,,基隆市七堵區永安里俊賢路２３號５樓,基隆市七堵區永安里,林光峯,23365614,有限公司,,0970618,生產中,26電子零組件製造業,269其他電子零組件,,電子線、電腦連接線,,121.70639,25.0950069
香港商標鎰汽車有限公司台灣分公司加工製造廠,17000038,,基隆市中山區和平里中山三路28號1樓,基隆市中山區和平里,謝才敏,27254998,外國公司之分公司,,1020603,生產中,30汽車及其零件製造業、33其他製造業,301汽車、302車體、303汽車零件、339未分類其他製品,,救護車改裝,,121.743088,25.1420441
沅溢冷凍製冰廠,99702566,,基隆市安樂區內寮里武訓街８２號,基隆市安樂區內寮里,李和永,26138584,合夥,,0990819,生產中,33其他製造業,339未分類其他製品,,其他食用冰製品,,121.69883,25.15018
台灣東洋藥品工業股份有限公司六堵廠,17000005,,基隆市七堵區六堵里工建西路5號,基隆市七堵區六堵里,林全,11821341,股份有限公司,,0991231,生產中,20藥品及醫用化學製品製造業,200藥品及醫用化學製品,,摩舒胃清膜衣錠、艾胃逆服咀嚼錠、滅咳康複合膠囊、滅咳康複合錠、針劑類產品,,121.700287,25.0939
總合溶劑股份有限公司,99667105,08210000084903,基隆市安樂區內寮里武訓街６４、６４－１號,基隆市安樂區內寮里,何信仁,00711705,股份有限公司,0821103,0821210,生產中,19其他化學製品製造業、33其他製造業,192塗料、染料及顏料、199未分類其他化學製品、339未分類其他製品,,化學品製造,,121.699921,25.1472683
昇達科技股份有限公司六堵二廠,17000001,,基隆市七堵區六堵里工建路1-1號,基隆市七堵區六堵里,陳淑敏,16999508,股份有限公司,,0991209,生產中,26電子零組件製造業,262被動電子元件,http://www.umt-tw.com,濾波器、雙工器、耦合元件、循環元件、傳輸元件及其他,,121.702766,25.0865612
台灣淺沼股份有限公司,99667162,06610000040890,基隆市安樂區中崙里武訓街３８號,基隆市安樂區中崙里,李勝貴,23525921,股份有限公司,0660323,0670503,生產中,27電腦、電子產品及光學製品製造業,272通訊傳播設備、273視聽電子產品、277光學儀器及設備、332醫療器材及用品,,照相機用三腳架,,121.701172,25.1441784
上珍有限公司,99702509,,基隆市信義區孝岡里深澳坑路３４６之１、２、３號,基隆市信義區孝岡里,林銀杏,23335020,有限公司,,0940623,生產中,08食品製造業,086碾榖、磨粉及澱粉製品、089其他食品,,其他食品,,121.773445,25.1347942
矽谷能源股份有限公司,17000101,,基隆市安樂區中崙里武訓街76號1樓,基隆市安樂區中崙里,王文輝,24749414,股份有限公司,,1090414,生產中,28電力設備及配備製造業、28電力設備及配備製造業,282電池,,,,,
東齊金屬工業股份有限公司,17000006,,基隆市七堵區堵南里大德路10號,基隆市七堵區堵南里,林慶宗,22757562,股份有限公司,,1000120,生產中,25金屬製品製造業,252金屬結構及建築組件、254金屬加工處理,,金屬天花板及天花板組件,,121.689934,25.0802422
晨耕食品有限公司,17000097,,基隆市安樂區興寮里基金一路2之6號2、3樓,基隆市安樂區興寮里,高鴻猶,42960466,有限公司,,1080214,生產中,08食品製造業、09飲料製造業,089其他食品、092非酒精飲料,,其他食品，非酒精飲料,,121.7245,25.135767
世嘉工業股份有限公司,99667341,07310000243884,基隆市七堵區八德里八德路２之９號,基隆市七堵區八德里,郭飛麟,54968689,股份有限公司,0731002,0741021,生產中,23非金屬礦物製品製造業、22塑膠製品製造業,239其他非金屬礦物製品、233水泥及其製品、220塑膠製品,,預拌混凝土,,121.723335,25.10369
大阡電子股份有限公司,99667129,08310017020183,基隆市七堵區實踐里基隆市七堵區百二街６３號１樓及地下層（部份使用）,基隆市七堵區實踐里,余悉彰,22568598,股份有限公司,0831227,0840121,生產中,26電子零組件製造業、27電腦、電子產品及光學製品製造業,271電腦及其週邊設備、269其他電子零組件,,電腦主機板及週邊設備及零組件加工,,121.696861,25.08077
昌晟企業股份有限公司,17000010,,基隆市安樂區內寮里武訓街82之1號,基隆市安樂區內寮里,王宏明,12311535,股份有限公司,,1000408,生產中,29機械設備製造業,291金屬加工用機械設備、292其他專用機械設備、293通用機械設備,http://www.bonitaco.com.tw,輸送機及儲存系統製作安裝、集塵灰輸送系統製作安裝、籃式輸送機製作安裝、活性碳再生爐系統製作安裝,,121.69883,25.15018
