工廠名稱,工廠登記編號,工廠設立許可案號,工廠地址,工廠市鎮鄉村里,工廠負責人姓名,統一編號,工廠組織型態,工廠設立核准日期,工廠登記核准日期,工廠登記狀態,產業類別,主要產品,WebURL,ProductName,Material,Longitude,Latitude
元祖礦業開發有限公司,13000053,,屏東縣高樹鄉泰山村山下路11-9號,屏東縣高樹鄉泰山村,張宏駿,27382380,有限公司,,1000715,生產中,23非金屬礦物製品製造業,239其他非金屬礦物製品,,,,,
廣筌有限公司,13000341,,屏東縣屏東市清溪里15鄰和生路三段850號、850-1號,屏東縣屏東市清溪里,陳德勲,53400096,有限公司,,1050903,生產中,08食品製造業,089其他食品,,加工,,120.466866,22.6633644
冠統實業企業有限公司,S1300186,,屏東縣萬丹鄉萬生村萬壽路一段32號,屏東縣萬丹鄉萬生村,李徐惠絹,97365379,有限公司,,1090616,生產中,25金屬製品製造業,252金屬結構及建築組件,,,,,
宜孟企業有限公司屏南廠,99666129,08410099651429,屏東縣枋寮鄉東海村研發路77號,屏東縣枋寮鄉東海村,廖益,23542098,有限公司,0840830,0850424,生產中,22塑膠製品製造業,220塑膠製品,,塑膠粒,,120.573982,22.4078789
合禹車體興業有限公司,99665959,08810013068757,屏東縣屏東市長安里光復路219號,屏東縣屏東市長安里,謝東州,70679398,有限公司,0881126,0881206,生產中,30汽車及其零件製造業,302車體,,車斗、車框昇降設備,,120.480713,22.6702461
競陽清潔科技有限公司,13000649,,屏東縣屏東市前進里大溪路335-22號,屏東縣屏東市前進里,蔡森堯,50881182,有限公司,,1091005,生產中,19其他化學製品製造業,193清潔用品,,,,,
俊利企業行,S1300159,,屏東縣麟洛鄉新田村民族路新圍巷22-1號,屏東縣麟洛鄉新田村,簡鈺霖,40790108,獨資,,1090609,生產中,08食品製造業,083蔬果加工,,,,,
穩發行,S1300232,,屏東縣屏東市玉成里公成路513巷92-1號,屏東縣屏東市玉成里,張智慧,10192386,獨資,,1090620,生產中,08食品製造業,089其他食品,,,,,
至茂企業股份有限公司屏東廠,99665961,08510013056872,屏東縣屏東市清溪里建國路332巷44弄51號「食用澱粉廠區」,屏東縣屏東市清溪里,林柯端陽,23356734,股份有限公司,0850423,0851228,生產中,08食品製造業,086碾榖、磨粉及澱粉製品、089其他食品,,食品用澱粉,,120.467682,22.663805
淯勝鋼構工程有限公司,13000001,,屏東縣新園鄉南龍村南龍路426號,屏東縣新園鄉南龍村,洪育男,80379075,有限公司,,0991011,生產中,25金屬製品製造業、25金屬製品製造業,252金屬結構及建築組件、254金屬加工處理,,鋼構工程業,,120.448586,22.4820881
吉品膠業有限公司,13000339,,屏東縣新園鄉新園村媽祖路407巷1弄13號,屏東縣新園鄉新園村,傅子訓,42786690,有限公司,,1050826,生產中,21橡膠製品製造業,210橡膠製品,,ＭＯＣＡ（鄰氯苯胺）,,120.448326,22.5165043
興禽食品股份有限公司,99699680,,屏東縣高樹鄉新南村大和路1-10號,屏東縣高樹鄉新南村,林永麗,56701362,股份有限公司,,0941117,生產中,08食品製造業,081肉類加工,,冷凍禽肉、罐頭、醃漬食品,,120.565948,22.78493
冠泓食品股份有限公司,13000263,,屏東縣屏東市橋南里工業路14號一、二樓,屏東縣屏東市橋南里,李思瑩,54023260,股份有限公司,,1040504,生產中,08食品製造業,081肉類加工、089其他食品,,調理肉品,,120.498871,22.6614742
久堂工業股份有限公司,99665958,08010013056767,屏東縣長治鄉崙上村中興路328號,屏東縣長治鄉崙上村,李秀珍,23693243,股份有限公司,0800514,0801210,生產中,14木竹製品製造業,140木竹製品,,窗簾（木質）、木片,,120.529884,22.6892014
屏東縣恆春鎮農會分廠,99666125,08010013000688,屏東縣恆春鎮仁壽里仁壽路104號,屏東縣恆春鎮仁壽里,林順和,91604802,農會組織,0800110,0810901,生產中,08食品製造業、08食品製造業,086碾榖、磨粉及澱粉製品、084動植物油脂,,糙米，白米,,120.738907,22.0270252
翊萱生技有限公司,13000648,,屏東縣里港鄉中和村中和路3-33號,屏東縣里港鄉中和村,余昭穎,54974795,有限公司,,1090929,生產中,08食品製造業,083蔬果加工,,,,,
眾宏實業有限公司,13000553,,屏東縣里港鄉載興村載南路270號,屏東縣里港鄉載興村,湯志強,84586723,有限公司,,1080603,生產中,23非金屬礦物製品製造業,239其他非金屬礦物製品,,其他非金屬礦物製品,,120.544922,22.7974682
福鑫農具有限公司泰山廠,13000556,,屏東縣高樹鄉泰山村7鄰山下路11-33號,屏東縣高樹鄉泰山村,張嘉芸,12826098,有限公司,,1080619,生產中,25金屬製品製造業,251金屬刀具、手工具及模具,,金屬刀具、手工具及模具,,120.616814,22.79138
城普股份有限公司,99699697,,屏東縣屏東市瑞光里民福路76號,屏東縣屏東市瑞光里,鄭志明,16519199,股份有限公司,,0950329,生產中,26電子零組件製造業,269其他電子零組件,,濾波器,,120.503242,22.6627216
聯夏食品工業股份有限公司屏東廠,99699701,,屏東縣麟洛鄉新田村民生路134號,屏東縣麟洛鄉新田村,林慧美,80677588,股份有限公司,,0950504,生產中,08食品製造業,081肉類加工、083蔬果加工、089其他食品,,豆類精選磨光、冷藏蔬果、加糖可,,120.540474,22.65144
宇洲食品工業股份有限公司,99665788,08910099903062,屏東縣內埔鄉竹圍村福壽路225號,屏東縣內埔鄉竹圍村,許文駿,23666745,股份有限公司,0890825,0910715,生產中,08食品製造業,081肉類加工,,豬肉、排骨、內臟、豬油脂（冷凍）,,120.555359,22.6473236
正牌食品行,99699788,,屏東縣竹田鄉泗洲村平洋路108-1號,屏東縣竹田鄉泗洲村,潘德文,90975565,獨資,,0970902,生產中,33其他製造業,339未分類其他製品,,衛生冰塊,,120.518272,22.571907
永發麵麶食品加工場,S1300122,,屏東縣屏東市大湖里大湖路461號,屏東縣屏東市大湖里,林祐伸,90397283,獨資,,1090604,生產中,08食品製造業,086碾榖、磨粉及澱粉製品,,,,,
皇龍門銅器有限公司,99699847,,屏東縣萬丹鄉社上村萬丹路3段332巷46、48號,屏東縣萬丹鄉社上村,林真嫻,25151927,有限公司,,0990203,生產中,25金屬製品製造業,254金屬加工處理,,銅爐,,120.480972,22.6228752
活那凌生技股份有限公司,81100031,,屏東縣長治鄉德和村園西二路18號4樓,屏東縣長治鄉德和村,陳思汝,27680331,股份有限公司,,1011221,生產中,19其他化學製品製造業,193清潔用品,,漱口水,１、薄荷２、香料３、水,120.5335,22.7148361
台灣常溫股份有限公司,13000115,,屏東縣屏東市橋南里工業三路18號,屏東縣屏東市橋南里,李尚,53118324,股份有限公司,,1010808,生產中,08食品製造業,089其他食品,http://store.conutri.com/,芭樂葉多酚茶，黑糖生薑紅茶，薑粉（絲），薑黃粉，果乾，藻鹽,,120.499039,22.6585274
隆技機電有限公司屏東廠,13000063,,屏東縣屏東市橋南里工業六路西段12號,屏東縣屏東市橋南里,傅企弘,22066672,有限公司,,1000810,生產中,22塑膠製品製造業,220塑膠製品,,ＰＣ塑膠粒、ＰＯＭ塑膠例,,120.494942,22.6542835
成泰企業股份有限公司,99666001,06210099116471,屏東縣屏東市清溪里建國路332巷39號,屏東縣屏東市清溪里,李秋憶,83377728,股份有限公司,0580101,0630328,生產中,24基本金屬製造業,241鋼鐵,,鋼筋盤元扁鐵角鐵洋釘鐵線,廢鋼鐵盤元,120.466522,22.6610851
世敏便當,13000255,,屏東縣屏東市大連里豐榮街50巷2號1樓,屏東縣屏東市大連里,陳蕭美娥,76780723,獨資,,1040210,生產中,08食品製造業,089其他食品,,便當,,120.502136,22.6782513
釜鉅精密機械有限公司萬丹廠,13000425,,屏東縣萬丹鄉廣安村萬丹路二段281巷2號,屏東縣萬丹鄉廣安村,何美惠,23174707,有限公司,,1060406,生產中,25金屬製品製造業,251金屬刀具、手工具及模具,,精密沖模，連續模，模具，一般金屬零件,鋁材，紅銅，青銅，鐵,120.486923,22.60709
興藝峰生技農業股份有限公司農科分公司,81100038,,屏東縣長治鄉德和村園西二路18號3樓,屏東縣長治鄉德和村,楊洵,84763826,股份有限公司,,1020423,生產中,,,,天癒酵素五生元液,,120.5335,22.7148361
天成商行,S1300063,,屏東縣鹽埔鄉高朗村光明街28-5號,屏東縣鹽埔鄉高朗村,郭家錞,40797215,獨資,,1090525,生產中,08食品製造業,083蔬果加工,,,,,
輝明車體有限公司,99699829,,屏東縣長治鄉進興村下寮巷7之5號,屏東縣長治鄉進興村,李文明,24431818,有限公司,,0980721,生產中,30汽車及其零件製造業、30汽車及其零件製造業、14木竹製品製造業,302車體、140木竹製品,,車體零件,,120.539169,22.6724949
福鑫農具有限公司,S1300080,,屏東縣長治鄉復興村復興路308號,屏東縣長治鄉復興村,張嘉芸,12826098,有限公司,,1090525,生產中,25金屬製品製造業,251金屬刀具、手工具及模具,,,,,
慈慧實業股份有限公司,13000446,,屏東縣九如鄉耆老村三民路233號4樓,屏東縣九如鄉耆老村,李偉宏,24330699,股份有限公司,,1060810,生產中,08食品製造業,089其他食品,,毛豆莢．粉圓,,120.4914,22.7487679
萬振昌倉儲設備股份有限公司,S1300123,,屏東縣萬丹鄉水仙村新鐘路1-23號,屏東縣萬丹鄉水仙村,蔡美華,86968161,股份有限公司,,1090604,生產中,25金屬製品製造業,259其他金屬製品,,,,,
正龍企業有限公司南州廠,13000153,,屏東縣南州鄉壽元村大同路97號,屏東縣南州鄉壽元村,黃郁程,53823314,有限公司,,1020424,生產中,08食品製造業,087動物飼品,,魚粉,,120.539146,22.490694
仕和企業股份有限公司鹽埔碎石場,99665931,06110099076319,屏東縣鹽埔鄉鹽中村豐年路1之2號,屏東縣鹽埔鄉鹽中村,王能和,90742855,股份有限公司,0580101,0611213,生產中,23非金屬礦物製品製造業,234石材製品,,碎石,,120.583061,22.7557125
富喬砂石有限公司,99699875,,屏東縣里港鄉三廍村江南巷22-1號,屏東縣里港鄉三廍村,柯旗龍,25085173,有限公司,,0990831,生產中,23非金屬礦物製品製造業,239其他非金屬礦物製品,,土石,碎石、砂,120.508423,22.8028641
上益營造股份有限公司,13000503,,屏東縣九如鄉九明村九如路2段1巷18號,屏東縣九如鄉九明村,張瑞文,84189219,股份有限公司,,1070829,生產中,25金屬製品製造業,254金屬加工處理,,不銹鋼加工,,120.485878,22.7254219
南和化學製藥廠,99666239,05810099005278,屏東縣屏東市厚生里建民路３９號,屏東縣屏東市厚生里,林南成,90001249,獨資,0580101,0590701,生產中,20藥品及醫用化學製品製造業,200藥品及醫用化學製品,,其他西藥製劑,,120.480789,22.6664982
旭紘環保科技股份有限公司,99699855,,屏東縣枋寮鄉東海村科技路7號,屏東縣枋寮鄉東海村,陳耿明,29008585,股份有限公司,,0990402,生產中,24基本金屬製造業,249其他基本金屬,,混合五金廢料,,120.58049,22.4112854
東源碾米廠,99666158,05810099009946,屏東縣潮州鎮泗林里通潮路９號,屏東縣潮州鎮泗林里,黃明緯,92203707,獨資,0580101,0610921,生產中,08食品製造業,086碾榖、磨粉及澱粉製品,,白米,,120.565643,22.5498848
璦快得建材有限公司,99665582,,屏東縣內埔鄉豐田村建國路26號,屏東縣內埔鄉豐田村,羅俊章,12775289,有限公司,,0900807,生產中,23非金屬礦物製品製造業,233水泥及其製品,,陶粒中空牆,,120.545921,22.6437664
佳魚企業社,13000524,,屏東縣屏東市清溪里和生路三段756巷23號,屏東縣屏東市清溪里,薛月霞,09145077,獨資,,1071127,生產中,08食品製造業,089其他食品,,巴沙魚、白帶魚,,120.466148,22.6592312
金石泰砂石有限公司,13000040,,屏東縣里港鄉載興村載南路1-22號,屏東縣里港鄉載興村,黃文昌,25165648,有限公司,,1000615,生產中,23非金屬礦物製品製造業、23非金屬礦物製品製造業,239其他非金屬礦物製品,,天然級配,,120.544456,22.7754
裕吉山製材廠,99666256,07710099162334,屏東縣潮州鎮興美里屏東縣潮州鎮光復路1段281號,屏東縣潮州鎮興美里,陳吳明聰,92323301,獨資,0770212,0770212,生產中,14木竹製品製造業,140木竹製品,,木竹製品（木材製品）,,120.530212,22.51829
統津企業股份有限公司屏東九如廠,99699677,,屏東縣九如鄉洽興村昌榮路158、158-1號,屏東縣九如鄉洽興村,蘇名湖,70618034,股份有限公司,,0941007,生產中,08食品製造業,089其他食品,,即食餐食、其他食品,,120.498993,22.7638416
捷希生技股份有限公司農科廠,81100065,,屏東縣長治鄉德和村農園路17號,屏東縣長治鄉德和村,秦國炎,80177459,股份有限公司,,1070417,生產中,08食品製造業,089其他食品,https://www.kaps.com.tw/,冰品，麵茶類,,120.542931,22.71697
聖州企業股份有限公司社皮廠,S1300208,,屏東縣萬丹鄉上村村社皮路一段38號,屏東縣萬丹鄉上村村,楊明舜,07992639,股份有限公司,,1090618,生產中,22塑膠製品製造業,220塑膠製品,,,,,
興延宏有限公司,13000296,,屏東縣新園鄉新園村媽祖路407巷3號,屏東縣新園鄉新園村,鄭進興,23332620,有限公司,,1041201,生產中,25金屬製品製造業,254金屬加工處理,,（鐵架）其他金屬製品,,120.447495,22.517
保毅企業有限公司,13000275,,屏東縣九如鄉玉泉村黃金路51號,屏東縣九如鄉玉泉村,蔡東勳,27309656,有限公司,,1040716,生產中,08食品製造業、08食品製造業,084動植物油脂,,食用油,,120.522148,22.73147
金利食安科技股份有限公司屏東廠,90P00033,,屏東縣屏東市前進里屏東加工出口區5鄰園西街15號,屏東縣屏東市前進里,廖日興,53414676,股份有限公司,,1020408,生產中,08食品製造業、09飲料製造業,089其他食品、092非酒精飲料,http://www.kfs-foodtech.com/,ＨＰＰ高壓滅菌純果蔬汁,,120.452873,22.64451
光兆電子股份有限公司第一廠,99665677,07710099185275,屏東縣內埔鄉豐田村建民路1號,屏東縣內埔鄉豐田村,徐國榮,92715670,股份有限公司,0770412,0800619,生產中,26電子零組件製造業,262被動電子元件,,１３Ｘ２６Ｑ電容器、１０Ｘ２０Ｑ電容器、８Ｘ１４Ｑ電容器,,120.547226,22.6427135
雄潤實業有限公司,99699628,,屏東縣新園鄉新園村媽祖路407巷1弄11號,屏東縣新園鄉新園村,洪世雄,24979560,有限公司,,0931227,生產中,11紡織業,115紡織品,,漁網、繩、纜、網、氈、毯,,120.44825,22.5165348
屏東農產股份有限公司紙廠,13000321,,屏東縣萬巒鄉新厝村新生路56號(紙廠),屏東縣萬巒鄉新厝村,林建滄,92702838,股份有限公司,,1050524,生產中,15紙漿、紙及紙製品製造業,152瓦楞紙板及紙容器,,紙袋,,120.610954,22.5739956
鴻林興業股份有限公司,99666134,06410099088341,屏東縣里港鄉三廍村江南巷23之2號,屏東縣里港鄉三廍村,蔡維正,91752471,股份有限公司,0580101,0641103,生產中,23非金屬礦物製品製造業,239其他非金屬礦物製品,,碎石、瀝青、混凝土,,120.506134,22.80214
新瑞峰玻璃纖維廠,99665932,08810013068744,屏東縣東港鎮興東里沿海路38號,屏東縣東港鎮興東里,曾新丁,17514968,獨資,0881119,0890623,生產中,23非金屬礦物製品製造業,231玻璃及其製品,,玻璃纖維製品,,120.463959,22.4695358
永裕帆布有限公司二廠,13000506,,屏東縣崁頂鄉力社村舊店路12-10號,屏東縣崁頂鄉力社村,王文良,54230492,有限公司,,1070920,生產中,11紡織業,115紡織品,,紡織品（帆布，其他攬網）,,120.513039,22.5409317
冶富技研股份有限公司,99665684,08310099151940,屏東縣屏東市橋南里工業路22號,屏東縣屏東市橋南里,大東正和,84308849,股份有限公司,0830303,0830426,生產中,31其他運輸工具及其零件製造業,312機車及其零件,,機車墊片,,120.5013,22.6581326
偉晟企業社,13000529,,屏東縣長治鄉中山路156號,屏東縣長治鄉,蘇晋瑩,40799797,獨資,,1071217,生產中,24基本金屬製造業,241鋼鐵,,鑄件,,120.580879,22.718401
超群混凝土工業股份有限公司內埔廠,13000027,,屏東縣內埔鄉豐田村建富路7號,屏東縣內埔鄉豐田村,吳振瀛,23356538,股份有限公司,,1000330,生產中,23非金屬礦物製品製造業,233水泥及其製品,,水泥、預拌混凝土,水泥、砂、碎石、高爐石粉、飛灰,120.547745,22.64187
大寬食茶國際有限公司,13000414,,屏東縣萬丹鄉廣安村萬丹路二段281巷20號,屏東縣萬丹鄉廣安村,王興彪,55915133,有限公司,,1060220,生產中,08食品製造業,089其他食品,,粉圓,,120.486465,22.60706
大力飼料工廠,99666222,06110099104657,屏東縣屏東市新興里復興南路1段451巷6號,屏東縣屏東市新興里,溫麗卿,91723384,獨資,0580101,0620523,生產中,08食品製造業,087動物飼品,,養豬飼料,,120.4861,22.6449471
永成黃豆製品廠,S1300078,,屏東縣竹田鄉泗洲村新莊洋路4-3號,屏東縣竹田鄉泗洲村,林飛騰,26415237,獨資,,1090624,生產中,08食品製造業,083蔬果加工,,,,,
金萬成鋼鐵有限公司,S1300172,,屏東縣屏東市三山里海豐街2之3號,屏東縣屏東市三山里,蔡金鐘,89728975,有限公司,,1090612,生產中,25金屬製品製造業,252金屬結構及建築組件,,,,,
屏南營造股份有限公司,S1300121,,屏東縣屏東市湖南里歸禮巷42-1號,屏東縣屏東市湖南里,盧冠騏,23184851,股份有限公司,,1090604,生產中,25金屬製品製造業,252金屬結構及建築組件,,,,,
元宇生技股份有限公司,81100069,,屏東縣長治鄉德和村園南路7號,屏東縣長治鄉德和村,李宗穎,13157216,股份有限公司,,1071112,生產中,32家具製造業,321非金屬家具,,竹製家具類產品,,120.533279,22.7065
林榮鐵工廠,99665834,07510013066488,屏東縣東港鎮朝安里新生三路68號,屏東縣東港鎮朝安里,林清田,91791087,獨資,0750626,0750721,生產中,31其他運輸工具及其零件製造業,311船舶及浮動設施,,船舶零件加工,,120.445885,22.4678364
高鼎實業股份有限公司,90P00022,,屏東縣屏東市前進里屏東加工出口區5鄰南一路5號,屏東縣屏東市前進里,宋月照,70422171,股份有限公司,,0991129,生產中,19其他化學製品製造業,192塗料、染料及顏料,http://www.grincoat.com,１．環氧樹脂環保無鉛鏡背漆２．鏡背漆－適合銀鏡、鋁鏡３．玻璃漆,,120.456734,22.63978
豐惇瀝青股份有限公司,99665547,08910013099198,屏東縣枋山鄉楓港村舊庄路300號,屏東縣枋山鄉楓港村,洪惠敏,70594053,有限公司,0891030,0900626,生產中,17石油及煤製品製造業,170石油及煤製品,,,,,
敏源實業有限公司,99666259,07010099060791,屏東縣屏東市清溪里建國路360巷4號,屏東縣屏東市清溪里,鄭宣菲,90774027,有限公司,0580101,0700112,生產中,22塑膠製品製造業,220塑膠製品,,塑膠製品,,120.467644,22.659565
國泰化工廠股份有限公司屏南分公司,99699722,,屏東縣枋寮鄉東海村屏南路３０號,屏東縣枋寮鄉東海村,侯智銘,27926855,股份有限公司,,0951124,生產中,18化學原材料、肥料、氮化合物、塑橡膠原料及人造纖維製造業,181化學原材料,,吊白塊、鋅粉、重亞硫酸鈉、鋅氧粉,,120.5779,22.4103718
金皇企業股份有限公司屏南二廠,99665772,07710099269360,屏東縣枋寮鄉東海村枋寮鄉東海村精進路25號,屏東縣枋寮鄉東海村,陳思明,85807913,有限公司,0770920,0871006,生產中,32家具製造業,322金屬家具、321非金屬家具,,金屬家具製造業、辦公椅子．非金屬家具,,120.5776,22.40728
盛元鋁業有限公司,99665588,08210013145833,屏東縣屏東市清溪里建國路332巷34號,屏東縣屏東市清溪里,張志成,86754219,有限公司,0821004,0821021,生產中,25金屬製品製造業,254金屬加工處理,,鋁材買賣,,120.466843,22.6614418
弘興國際有限公司,13000451,,屏東縣屏東市清溪里建國路332巷29號,屏東縣屏東市清溪里,王善弘,42878065,有限公司,,1060905,生產中,30汽車及其零件製造業,303汽車零件,,方向盤,,120.467453,22.6612453
臺灣菸酒股份有限公司屏東酒廠,99665553,07210099100670,屏東縣內埔鄉豐田村建國路34號,屏東縣內埔鄉豐田村,鄭明鐘,03787101,股份有限公司,0720616,0751229,生產中,08食品製造業、09飲料製造業,089其他食品、091酒精飲料,http://event.ttl.com.tw/pt/,１．０．６Ｌ紅標料理米酒２．米酒頭３．純米料理米酒４．４０度料理米酒,,120.550461,22.6464176
聯夏食品工業股份有限公司潮州廠,99665850,06010099015694,屏東縣潮州鎮八爺里介壽路255號,屏東縣潮州鎮八爺里,林慧美,80677588,股份有限公司,0580101,0820525,生產中,08食品製造業、09飲料製造業,083蔬果加工、089其他食品、092非酒精飲料,,各種加糖豆餡，調理食品，米飯系列,,120.534462,22.5392876
鈦騰複合材料股份有限公司,90P00024,,屏東縣屏東市大洲里屏東加工出口區10鄰南一路8號,屏東縣屏東市大洲里,張榮寶,27877756,股份有限公司,,0991222,生產中,22塑膠製品製造業,220塑膠製品,,塑膠粒,,120.456917,22.6392479
先進貿易實業有限公司二廠,S1300194,,屏東縣萬丹鄉廣安村大昌路60號,屏東縣萬丹鄉廣安村,彭泉,97235708,有限公司,,1090617,生產中,23非金屬礦物製品製造業,232耐火、黏土建材及其他陶瓷製品,,,,,
統福企業有限公司萬巒廠,99665627,08810099811439,屏東縣萬巒鄉萬巒村中正路一三七之三六號,屏東縣萬巒鄉萬巒村,黃靖智,16554998,有限公司,0881007,0901109,生產中,08食品製造業,089其他食品,,素肉酥、素肉脯、素肉絲、其他食品,,120.567146,22.5760422
盛貽熱浸鋅企業股份有限公司二廠,13000216,,屏東縣里港鄉三廍村三和路119-90號,屏東縣里港鄉三廍村,歐建宗,86327103,股份有限公司,,1030609,生產中,25金屬製品製造業,254金屬加工處理,,,,,
星博電子股份有限公司,90P00019,,屏東縣屏東市大洲里屏東加工出口區10鄰園西街5號,屏東縣屏東市大洲里,邱振雄,89582325,股份有限公司,,0991027,生產中,26電子零組件製造業,269其他電子零組件,http://www.sinpro.com,電源供應器及相關電源產品,,120.455467,22.63647
東森水處理股份有限公司,S1300165,,屏東縣萬丹鄉廣安村廣志街110巷23號,屏東縣萬丹鄉廣安村,金培鴻,79955198,股份有限公司,,1090610,生產中,22塑膠製品製造業、29機械設備製造業、28電力設備及配備製造業,220塑膠製品、293通用機械設備、285家用電器,,,,,
郭爐山企業股份有限公司屏東廠,13000243,,屏東縣萬丹鄉社上村萬丹路3段345號,屏東縣萬丹鄉社上村,顏惠珍,22132595,股份有限公司,,1031226,生產中,22塑膠製品製造業,220塑膠製品,,塑膠製品,塑膠粒,120.479385,22.62553
大江生醫股份有限公司農科分公司,81100021,,屏東縣長治鄉德和村6鄰神農路12號,屏東縣長治鄉德和村,林詠翔,12292039,股份有限公司,,1000328,生產中,09飲料製造業、08食品製造業,092非酒精飲料、089其他食品,https://www.tci-bio.com/zh-tw,機能性飲料,,120.539146,22.7110348
全興工業股份有限公司屏東廠,99699596,,屏東縣內埔鄉豐田村建業路2號,屏東縣內埔鄉豐田村,林登堂,58167007,股份有限公司,,0930413,生產中,30汽車及其零件製造業,303汽車零件,,汽車座椅、門板、汽車及其零件,,120.544014,22.64014
華欣食品股份有限公司,13000512,,屏東縣東港鎮新勝里中山路70-1號,屏東縣東港鎮新勝里,潘沄蓁,80042967,股份有限公司,,1071016,生產中,08食品製造業,089其他食品,,麵包、餅乾、蛋糕,,120.450233,22.4669628
亨科企業有限公司,13000202,,屏東縣萬巒鄉佳和村佳興路79-1號,屏東縣萬巒鄉佳和村,郭秀娥,28524400,有限公司,,1030227,生產中,22塑膠製品製造業、22塑膠製品製造業,220塑膠製品,,塑膠製品,,120.589241,22.57071
泰承木業有限公司,13000212,,屏東縣萬巒鄉佳和村佳興路103號,屏東縣萬巒鄉佳和村,周姿廷,79961804,有限公司,,1030526,生產中,14木竹製品製造業、14木竹製品製造業,140木竹製品,,木竹製品、合板,,120.58828,22.5675926
中華海洋生技股份有限公司,81100045,,屏東縣長治鄉德和村園西二路22號4樓,屏東縣長治鄉德和村,張永聲,16301376,股份有限公司,,1030825,生產中,08食品製造業,089其他食品,http://hiq-health.com/,褐藻萃取液,,120.532814,22.7155743
永順塑膠工廠第一廠,99665901,07610013015269,屏東縣屏東市清溪里屏東縣屏東市建國路251號,屏東縣屏東市清溪里,林劉金放,90389951,合夥,0760305,0771102,生產中,22塑膠製品製造業,220塑膠製品,,塑膠瓶,,120.467506,22.6568756
林晟國際企業有限公司屏東廠,13000517,,屏東縣屏東市橋南里工業路15號,屏東縣屏東市橋南里,梁展榞,13068158,有限公司,,1071025,生產中,31其他運輸工具及其零件製造業,312機車及其零件、313自行車及其零件、319未分類其他運輸工具及其零件,,電動自行車組裝、製造,,120.50071,22.6600952
肇興企業股份有限公司,99665607,08210099085787,屏東縣枋寮鄉東海村永翔路51號,屏東縣枋寮鄉東海村,張德賢,22549278,股份有限公司,0821124,0830104,生產中,23非金屬礦物製品製造業,232耐火、黏土建材及其他陶瓷製品,,防火被覆材料,,120.56897,22.4070034
通陞機械有限公司潮州廠,13000350,,屏東縣潮州鎮泗林里通潮四巷17號,屏東縣潮州鎮泗林里,陳建豪,54208581,有限公司,,1051013,生產中,29機械設備製造業,293通用機械設備,,起重機零件修理、起重機,,120.56102,22.5519085
泰安行,S1300235,,屏東縣屏東市大湖里大湖路797號,屏東縣屏東市大湖里,邱竹蔚,13603834,獨資,,1090622,生產中,14木竹製品製造業,140木竹製品,,,,,
海冠有限公司,13000311,10410013600434,屏東縣東港鎮船頭里大同路296號,屏東縣東港鎮船頭里,林韋宏,70496406,有限公司,1040903,1050222,生產中,08食品製造業,082水產加工,,水產品處理及其製品,,120.466476,22.467495
旭暘光電股份有限公司,13000635,,屏東縣潮州鎮九塊里7鄰復興三巷3-1號,屏東縣潮州鎮九塊里,陳俊旭,27502890,股份有限公司,,1090408,生產中,28電力設備及配備製造業,284照明設備及配備,,,,,
惠華飼料有限公司,99665636,,屏東縣枋寮鄉東海村研發路75號,屏東縣枋寮鄉東海村,許惠華,16942914,有限公司,,0901206,生產中,08食品製造業,087動物飼品,,其他食品,,120.573486,22.4077854
三通車體有限公司,99665527,08210099071652,屏東縣屏東市橋南里工業一路9號,屏東縣屏東市橋南里,王素華,27671620,有限公司,0820318,0820409,生產中,30汽車及其零件製造業,302車體,,汽車車體打造,,120.500237,22.6621532
台灣金布丹生物科技有限公司新園廠,13000133,,屏東縣新園鄉新園村媽祖路407巷2弄18號,屏東縣新園鄉新園村,徐榮淵,53820196,有限公司,,1011220,生產中,19其他化學製品製造業、19其他化學製品製造業,194化粧品,,洗面霜（乳）,,120.448181,22.5157089
正碩實業有限公司屏東廠,13000249,,屏東縣新園鄉新園村媽祖路407巷2弄26號,屏東縣新園鄉新園村,蔡味純,16826817,有限公司,,1040112,生產中,25金屬製品製造業、29機械設備製造業,259其他金屬製品、293通用機械設備,,風管另料、鋼鐵材、五金配件,,120.448357,22.5159187
尚餘工業股份有限公司,99665751,07610013090709,屏東縣屏東市清溪里建國路388號,屏東縣屏東市清溪里,詹凱名,22549869,股份有限公司,0760825,0760831,生產中,31其他運輸工具及其零件製造業、30汽車及其零件製造業,319未分類其他運輸工具及其零件、302車體,,拖車無電引動、其他運輸工具及零件,,120.4668,22.6566277
永晉冠金屬股份有限公司,99699659,,屏東縣屏東市清溪里建國路332巷44弄70號,屏東縣屏東市清溪里,方瑞榮,12838186,股份有限公司,,0940630,生產中,25金屬製品製造業,251金屬刀具、手工具及模具、252金屬結構及建築組件、259其他金屬製品、254金屬加工處理,,汽機車零件、汽車及其零件,,120.468651,22.6645756
奇洺生物科技有限公司,99699743,,屏東縣屏東市清溪里建國路360巷28號,屏東縣屏東市清溪里,鄭玠政,28815391,有限公司,,0960615,生產中,08食品製造業、09飲料製造業,089其他食品、092非酒精飲料,,醬油,,120.466309,22.6594334
安章企業社,13000297,,屏東縣屏東市橋南里工業二路2號,屏東縣屏東市橋南里,李易章,40792099,獨資,,1041211,生產中,08食品製造業,087動物飼品,,飼料用油脂,,120.497795,22.663662
洪興研磨科技有限公司,90P00031,,屏東縣屏東市前進里屏東加工出口區5鄰園西街11號,屏東縣屏東市前進里,王嘉祥,29022475,有限公司,,1010516,生產中,23非金屬礦物製品製造業,239其他非金屬礦物製品,http://www.honxin.com.tw,砂布,,120.453423,22.64302
里一實業有限公司,99699854,,屏東縣屏東市安鎮里和生路3段993號,屏東縣屏東市安鎮里,張有志成,07995087,有限公司,,0990326,生產中,23非金屬礦物製品製造業,233水泥及其製品、239其他非金屬礦物製品,,預拌混凝土、土石,,120.469551,22.665678
結凰食品有限公司,13000270,,屏東縣鹽埔鄉新二村大仁西街55號,屏東縣鹽埔鄉新二村,邱炳樹,23496088,有限公司,,1040617,生產中,08食品製造業,081肉類加工,,冷凍全雞．雞腿．雞翅．清肉,,120.539558,22.72631
逸帆機械有限公司,90P00016,,屏東縣屏東市前進里南一路7號,屏東縣屏東市前進里,王正祿,16024990,有限公司,,0990618,生產中,29機械設備製造業,292其他專用機械設備、293通用機械設備,http://www.i-fan.com.tw,氣壓拼板機、自動式佈膠機、油壓式拼板機、滾輪式佈膠機、冷壓臺,,120.457191,22.6399021
東儀液化石油氣分裝股份有限公司,99699797,,屏東縣屏東市大洲里大溪路11巷10號,屏東縣屏東市大洲里,韓萬國,91754148,股份有限公司,,0971105,生產中,33其他製造業,339未分類其他製品,,液化石油氣分裝,,120.454948,22.6299515
台灣本田汽車股份有限公司屏東廠,99665776,07610099269003,屏東縣屏東市前進里大溪路337號,屏東縣屏東市前進里,豊田誠,28459816,股份有限公司,0761001,0780427,生產中,31其他運輸工具及其零件製造業,319未分類其他運輸工具及其零件、303汽車零件、312機車及其零件,,小貨車、商用車廂型、小客車、汽機車零件,,120.448608,22.6465168
慈宏生物科技有限公司,13000126,,屏東縣長治鄉繁昌村中山路150-7號,屏東縣長治鄉繁昌村,陳宣伃,53609813,有限公司,,1011121,生產中,08食品製造業、18化學原材料、肥料、氮化合物、塑橡膠原料及人造纖維製造業,087動物飼品、183肥料及氮化合物,,動物飼料,,120.578156,22.71826
易岱企業有限公司,99666233,07510013055685,屏東縣東港鎮朝安里新生一路35號,屏東縣東港鎮朝安里,陳基才,91911180,有限公司,0750529,0750609,生產中,31其他運輸工具及其零件製造業,311船舶及浮動設施,,船舶主副機修配,電線、銅、鐵,120.445831,22.4655952
六堆釀興業有限公司,13000177,,屏東縣竹田鄉履豐村豐振路2-8號,屏東縣竹田鄉履豐村,李明芳,25190013,有限公司,,1020930,生產中,08食品製造業、08食品製造業,089其他食品,,其他食品,生醬料,120.540848,22.5869675
饌師傅食品股份有限公司,99699780,,屏東縣九如鄉九明村九如路2段1巷25號,屏東縣九如鄉九明村,陳文安,70532578,股份有限公司,,0970701,生產中,08食品製造業,089其他食品,,水餃、湯包、煎餃,,120.485344,22.7238617
隆昊企業股份有限公司屏南廠,13000572,,屏東縣枋寮鄉東海村臨海路二段110號,屏東縣枋寮鄉東海村,蘇銀峰,76472155,股份有限公司,,1081029,生產中,25金屬製品製造業,254金屬加工處理,,金屬加工處理,,120.572014,22.4056053
紹騰營造股份有限公司,13000471,,屏東縣新園鄉仙吉村仙吉路192號1樓,屏東縣新園鄉仙吉村,劉清忠,53031220,股份有限公司,,1070309,生產中,25金屬製品製造業,252金屬結構及建築組件,,金屬結構及建築組件,,120.46228,22.5451927
有台企業股份有限公司屏東廠,99665521,06610099123485,屏東縣屏東市大洲里大成路194號,屏東縣屏東市大洲里,高隆基,90734118,股份有限公司,0580101,0700306,生產中,14木竹製品製造業,140木竹製品,,木材加工（代乾燥木材）、木材批發,,120.468811,22.6418819
瑞元藥業有限公司化粧品廠,99699859,,屏東縣屏東市清溪里建國路360巷26號,屏東縣屏東市清溪里,陳清泉,86271121,有限公司,,0990503,生產中,19其他化學製品製造業,194化粧品,,化粧品,,120.466393,22.65944
協志成機械有限公司,99666181,08410013150716,屏東縣屏東市頂柳里屏東市頂柳里頂宅街7號,屏東縣屏東市頂柳里,郭聰涼,89715789,有限公司,0840919,0841012,生產中,29機械設備製造業,292其他專用機械設備,,,,,
永鈦鑫機械工業有限公司,99666105,07610099267603,屏東縣屏東市橋南里工業六路東段14號,屏東縣屏東市橋南里,陳秀伶,80111210,有限公司,0760908,0770907,生產中,29機械設備製造業,292其他專用機械設備,,ＨＤＰＥ／ＰＶＣ管押出生產設備、塑膠異型押出生產設備、塑膠門窗加工設備、各種自動化生產設備與整廠設備規劃製造,,120.496872,22.6572933
永福企業社,S1300223,,屏東縣萬丹鄉加興村加社路122號,屏東縣萬丹鄉加興村,陳賜乾,08016357,獨資,,1090619,生產中,32家具製造業,321非金屬家具,,,,,
佳農食品有限公司,13000136,,屏東縣屏東市安鎮里大豐路1-3號,屏東縣屏東市安鎮里,張進添,53974516,有限公司,,1020109,生產中,08食品製造業、08食品製造業,082水產加工,,蝦卷、花枝棒、干貝炸,,120.471916,22.6656017
達安企業股份有限公司屏東廠,99665805,07310099136063,屏東縣屏東市橋南里工業四路42號,屏東縣屏東市橋南里,蔣慧敏,81133584,股份有限公司,0730716,0750626,生產中,33其他製造業,339未分類其他製品,,防毒口罩、安全護目鏡、濾毒罐,,120.495354,22.6550789
養德藥品社,99666206,06810099267259,屏東縣屏東市新興里新興街212巷69號,屏東縣屏東市新興里,傅明冠,90490400,獨資,0580101,0681231,生產中,20藥品及醫用化學製品製造業,200藥品及醫用化學製品,,,,,
金順興鋼鐵有限公司沿海廠,99665719,08810013140947,屏東縣東港鎮興東里沿海路32號,屏東縣東港鎮興東里,張壽峰,89216215,有限公司,0880811,0910321,生產中,25金屬製品製造業,252金屬結構及建築組件,,型鋼裁剪,,120.463989,22.4692726
和益冷凍食品有限公司,13000097,,屏東縣萬丹鄉社上村萬丹路3段332巷40號,屏東縣萬丹鄉社上村,謝政修,53269407,有限公司,,1010111,生產中,08食品製造業、08食品製造業,089其他食品,,香雞排等,,120.4809,22.62337
賜成鋸木廠,99666235,06010099123635,屏東縣新園鄉鹽埔村鹽洲路20號,屏東縣新園鄉鹽埔村,方明海,91504120,獨資,0580101,0610806,生產中,14木竹製品製造業,140木竹製品,,木材、板角材,,120.445236,22.4751282
榮啓食品有限公司,13000472,,屏東縣萬丹鄉社上村14鄰萬丹路三段375號,屏東縣萬丹鄉社上村,李柏鋐,53876326,有限公司,,1070313,生產中,08食品製造業,081肉類加工、089其他食品,,肉類加工，其他食品,,120.479553,22.62811
億錸砂石股份有限公司,99699770,,屏東縣里港鄉土庫村土庫路4之21號,屏東縣里港鄉土庫村,宋偉同,29099425,股份有限公司,,0970403,生產中,23非金屬礦物製品製造業,234石材製品,,天然級配加工,,120.509956,22.8211937
怡科科技股份有限公司,81100043,,屏東縣長治鄉德和村園西二路32號3樓,屏東縣長治鄉德和村,謝長穎,53575145,股份有限公司,,1030623,生產中,33其他製造業,332醫療器材及用品,http://www.ecotechs.com.tw,醫療器材及用品、（醫療器材人工植入物）,,120.533493,22.7155075
順連鑫有限公司,13000507,,屏東縣長治鄉繁昌村16鄰中山路158號,屏東縣長治鄉繁昌村,黃瑞盟,25175955,有限公司,,1070926,生產中,24基本金屬製造業,241鋼鐵,,銑鐵,,120.580887,22.71869
興冶金屬工業股份有限公司,99666091,06410099029941,屏東縣長治鄉崙上村自強巷94號,屏東縣長治鄉崙上村,鍾尚怡,91763527,股份有限公司,0580101,0650809,生產中,25金屬製品製造業,259其他金屬製品,,,,,
泰邦企業社,S1300161,,屏東縣萬丹鄉後村村南北路一段350巷29號,屏東縣萬丹鄉後村村,林玉承,26486963,獨資,,1090609,生產中,25金屬製品製造業,254金屬加工處理,,,,,
永源飼料行,S1300129,,屏東縣崁頂鄉崁頂村中正路1之31號,屏東縣崁頂鄉崁頂村,謝旭宏,37687925,獨資,,1090602,生產中,08食品製造業,087動物飼品,,,,,
松竹梅農產有限公司,S1300061,,屏東縣九如鄉九明村衛武街98號,屏東縣九如鄉九明村,白豪仁,89523537,有限公司,,1090624,生產中,08食品製造業,083蔬果加工,,,,,
安家企業社,S1300062,,屏東縣九如鄉後庄村後庄路16巷37號,屏東縣九如鄉後庄村,范安煌,10893866,獨資,,1090525,生產中,08食品製造業,087動物飼品,,,,,
日吉電機行,99665828,08010013033800,屏東縣東港鎮朝安里新生一路26號,屏東縣東港鎮朝安里,莊惠吉,91909706,獨資,0800408,0830401,生產中,28電力設備及配備製造業,281發電、輸電及配電機械、283電線及配線器材、289其他電力設備及配備,,,,,
峰榮食品工業股份有限公司屏東廠,99666178,08010099081563,屏東縣屏東市龍華里龍華路555號,屏東縣屏東市龍華里,林秀梅,22765964,股份有限公司,0800524,0810513,生產中,08食品製造業,081肉類加工,,,,,
煜佳環能科技股份有限公司,13000266,,屏東縣鹽埔鄉新二村27鄰新埔路168號,屏東縣鹽埔鄉新二村,劉光哲,24632435,股份有限公司,,1040520,生產中,23非金屬礦物製品製造業、14木竹製品製造業,239其他非金屬礦物製品、140木竹製品,,保溫材料原料、混凝土原料、燃料、生物炭,,120.554306,22.74827
和飛企業有限公司一廠,S1300191,,屏東縣萬丹鄉上村村南北路二段698號,屏東縣萬丹鄉上村村,楊泳墻,86109084,有限公司,,1090617,生產中,15紙漿、紙及紙製品製造業,159其他紙製品,,,,,
上雋水產有限公司,13000282,10410013600350,屏東縣東港鎮興東里大利路二段1號,屏東縣東港鎮興東里,鄭明峯,80209380,有限公司,1040424,1040917,生產中,08食品製造業,082水產加工,,冷凍魚類,,120.4665,22.4709625
神彩科技股份有限公司新園廠,99699668,,屏東縣新園鄉新園村媽祖路407巷2弄5號,屏東縣新園鄉新園村,林武憲,27292640,股份有限公司,,0940816,生產中,19其他化學製品製造業,192塗料、染料及顏料,,水性塗料摻配、抗裂王,,120.448242,22.51606
京華福士科股份有限公司,99665746,06710099091691,屏東縣屏東市橋南里工業二路6號,屏東縣屏東市橋南里,董陽閎,90753141,股份有限公司,0580101,0690213,生產中,19其他化學製品製造業、23非金屬礦物製品製造業,199未分類其他化學製品、232耐火、黏土建材及其他陶瓷製品,,塗模劑、離型劑、斷熱板、擋牆,,120.496483,22.66309
盛餘股份有限公司屏南廠,13000514,,屏東縣枋寮鄉東海村永翔路4-7號,屏東縣枋寮鄉東海村,北村宗一,79837539,股份有限公司,,1071016,生產中,25金屬製品製造業,252金屬結構及建築組件,,主要產品：鋼板裁剪、鋼板成型,,120.574013,22.4120789
加潤實業有限公司,S1300247,,屏東縣萬丹鄉水泉村泉興路752號,屏東縣萬丹鄉水泉村,洪哲文,80608865,有限公司,,1090623,生產中,22塑膠製品製造業,220塑膠製品,,,,,
盛忠有限公司屏東廠,99699783,08810099060981,屏東縣里港鄉三廍村三和路119之91、之92號,屏東縣里港鄉三廍村,歐張秋燕,76377384,有限公司,0880202,0881231,生產中,24基本金屬製造業,241鋼鐵、249其他基本金屬,,,,,
金車國際有限公司,99699606,08010099081303,屏東縣鹽埔鄉新圍村自治街7之1號,屏東縣鹽埔鄉新圍村,夏承濬,86072777,有限公司,0800402,0800906,生產中,19其他化學製品製造業,194化粧品,,清潔用品,,120.5586,22.74169
益驊有限公司二廠,S1300132,,屏東縣東港鎮興農里興農路1-50號,屏東縣東港鎮興農里,劉美玲,70585441,有限公司,,1090602,生產中,25金屬製品製造業、25金屬製品製造業,252金屬結構及建築組件、254金屬加工處理,,,,,
松河電機企業股份有限公司,99665779,,屏東縣屏東市安鎮里和生路3段1001號,屏東縣屏東市安鎮里,張三賜,89376535,股份有限公司,,0910617,生產中,29機械設備製造業,293通用機械設備,,泵浦、泵浦另配件,,120.470512,22.6652718
川喬有限公司,S1300216,,屏東縣屏東市龍華里公華街2-1號,屏東縣屏東市龍華里,方榮宏,80628709,有限公司,,1090619,生產中,22塑膠製品製造業,220塑膠製品,,,,,
霸力食品工業股份有限公司屏東廠,99699787,,屏東縣萬巒鄉佳和村佳興路91號,屏東縣萬巒鄉佳和村,陳佳全,24210202,股份有限公司,,0970826,生產中,08食品製造業,085乳品,,,,,
叶光閥業股份有限公司屏東廠,99699841,,屏東縣萬巒鄉佳和村佳興路83號,屏東縣萬巒鄉佳和村,郭迦勒,82014740,股份有限公司,,0981204,生產中,29機械設備製造業,293通用機械設備,,排氣閥、消防栓,,120.588875,22.5696
佳豐飼料工業股份有限公司,99665842,06510099068539,屏東縣潮州鎮八爺里八龍路35號,屏東縣潮州鎮八爺里,賴昭勝,91837605,股份有限公司,0580101,0650625,生產中,08食品製造業,087動物飼品,,配合飼料鰻魚飼料畜產飼料,,120.530151,22.5398483
潮洲鎮農會碾米工廠,99699527,05810099008028,屏東縣潮州鎮新生里中山路１８２號,屏東縣潮州鎮新生里,李正順,92288607,農會組織,0580101,0600301,生產中,08食品製造業,086碾榖、磨粉及澱粉製品,,,,,
一芳食品工廠,99666039,06910099090161,屏東縣恆春鎮城南里中山路26號,屏東縣恆春鎮城南里,廖志常,91202103,獨資,0580101,0690305,生產中,08食品製造業,089其他食品,,原味海苔醬、香菇海苔醬、蜂蜜海苔醬,,120.744804,22.00226
寶林生物科技股份有限公司,81100022,,屏東縣長治鄉德和村6鄰園西二路2號4樓,屏東縣長治鄉德和村,蕭文湧,80570256,股份有限公司,,1001121,生產中,18化學原材料、肥料、氮化合物、塑橡膠原料及人造纖維製造業、19其他化學製品製造業,183肥料及氮化合物、191農藥及環境用藥,http://www.bao-lin.com,一值生（木黴菌）、福根源、寶林牌賀力湧、寶林牌綠益多、寶林牌力多肥、寶林牌土壤活力肥、寶林牌保地康ＰＬ９９培養土,,120.532578,22.71467
建達砂石企業有限公司,S1300276,,屏東縣高樹鄉鹽樹村日新1-98號,屏東縣高樹鄉鹽樹村,王明賢,70420856,有限公司,,1091111,生產中,23非金屬礦物製品製造業,239其他非金屬礦物製品,,,,,
瑞洋生物科技有限公司,13000259,,屏東縣內埔鄉豐田村建工路12-5號,屏東縣內埔鄉豐田村,梅家蓁,24655669,有限公司,,1040401,生產中,08食品製造業,087動物飼品,,油脂、油渣,,120.544022,22.6368618
茂銓實業有限公司,99665802,07110099020873,屏東縣屏東市橋南里工業路25號,屏東縣屏東市橋南里,陳美珠,90753727,有限公司,0710717,0860224,生產中,22塑膠製品製造業,220塑膠製品,,塑膠鋼門窗,,120.502182,22.6579151
邑川興業有限公司,13000438,,屏東縣長治鄉繁昌村中山路168號,屏東縣長治鄉繁昌村,蔡耀宗,28305616,有限公司,,1060703,生產中,23非金屬礦物製品製造業,239其他非金屬礦物製品,,瀝青,,120.58448,22.7198486
寬馭工程事業有限公司二廠,13000303,,屏東縣長治鄉繁昌村中山路150-18號,屏東縣長治鄉繁昌村,許幫盈,28034234,有限公司,,1041229,生產中,28電力設備及配備製造業,281發電、輸電及配電機械、283電線及配線器材,,配電箱,,120.578156,22.71826
東元碾米廠,99666159,06410099040838,屏東縣潮州鎮泗林里通潮4巷1號,屏東縣潮州鎮泗林里,黃瑞命,91833122,獨資,0580101,0640908,生產中,08食品製造業,086碾榖、磨粉及澱粉製品,,白米,,120.565765,22.5508442
凱富工程行,13000062,,屏東縣新園鄉新園村媽祖路407巷29號,屏東縣新園鄉新園村,陳清瑞,36671729,獨資,,1000808,生產中,24基本金屬製造業、25金屬製品製造業,254金屬加工處理,,槽鐵,,120.447716,22.51613
寶祺生物科技股份有限公司屏東廠,99665555,08710099921658,屏東縣屏東市橋南里屏東市橋南里工業路26號,屏東縣屏東市橋南里,黃芙香,81153342,有限公司,0871012,0871224,生產中,09飲料製造業,092非酒精飲料,,糙米酵素液、糙米酵素膠囊,,120.502182,22.6579151
豐鼎光波奈米科技股份有限公司屏南廠,99665688,07910099161192,屏東縣枋寮鄉太源村東海路49號,屏東縣枋寮鄉太源村,鍾源淵,89321602,股份有限公司,0790321,0800213,生產中,23非金屬礦物製品製造業,234石材製品,http://sunnywin.com.tw,石材製品／其他發電,,120.586273,22.4058819
上焱企業有限公司,99699752,,屏東縣屏東市華山里大連路20巷86號,屏東縣屏東市華山里,張昱騰,80641506,有限公司,,0961001,生產中,08食品製造業,084動植物油脂、086碾榖、磨粉及澱粉製品,,人造奶油、果汁粉,,120.509476,22.68831
南昌汽車修理廠,99666292,06310099114325,屏東縣屏東市安鎮里大豐路1之2號,屏東縣屏東市安鎮里,蘇玲芳,90282402,獨資,0580101,0650416,生產中,30汽車及其零件製造業,302車體,,汽車修理、汽車車體打造,,120.471893,22.6654644
昱成生物科技股份有限公司,99699858,,屏東縣鹽埔鄉新圍村德二街206號,屏東縣鹽埔鄉新圍村,劉德順,24247432,股份有限公司,,0990406,生產中,08食品製造業,087動物飼品,,動物飼料、肉骨粉、肉骨油,,120.567932,22.7201214
合城冷凍水產有限公司,99699654,,屏東縣東港鎮興東里東新路146巷156、158號,屏東縣東港鎮興東里,李坤城,80642630,有限公司,,0940523,生產中,08食品製造業,082水產加工,,冷凍水產、罐頭、冷凍、脫水及醃漬食品,,120.46608,22.469511
懋興鐵工廠,99666218,06510099052551,屏東縣新園鄉鹽埔村塩洲路135號,屏東縣新園鄉鹽埔村,陳彥秀,91806440,獨資,0580101,0660223,生產中,31其他運輸工具及其零件製造業,311船舶及浮動設施,,汽船引擎及零件修理,,120.44413,22.4784641
楓田實業有限公司,99699849,,屏東縣鹽埔鄉新二村新埔路768號,屏東縣鹽埔鄉新二村,鄭育寧,24434723,有限公司,,0990204,生產中,08食品製造業,087動物飼品,,肉骨粉、雞肉粉、飼料用動物油脂、禽肉粉,,120.554306,22.74827
兄弟印書局,99665994,06710099209387,屏東縣屏東市長春里廣東路22之5號,屏東縣屏東市長春里,陳淑珠,90075403,獨資,0580101,0670908,生產中,16印刷及資料儲存媒體複製業,160印刷及資料儲存媒體複製,,,,,
日新便當社,13000185,,屏東縣屏東市豐田里建豐路3號1樓,屏東縣屏東市豐田里,邱建中,90768783,獨資,,1021113,生產中,08食品製造業、08食品製造業,089其他食品,,,,,
聖慶有限公司,S1300055,,屏東縣屏東市玉成里公成路513巷80-1號,屏東縣屏東市玉成里,林佳賢,53781525,有限公司,,1090527,生產中,25金屬製品製造業,251金屬刀具、手工具及模具,,,,,
大源實業股份有限公司,99666137,06110099016940,屏東縣萬丹鄉社上村萬丹路3段361號,屏東縣萬丹鄉社上村,劉月珠,90250963,股份有限公司,0580101,0620130,生產中,08食品製造業,087動物飼品,,玉米粉，配合飼料等,玉米豆粉魚粉,120.47998,22.6262131
鑫辰鋼鐵股份有限公司,90P00005,,屏東縣屏東市前進里經建路26號,屏東縣屏東市前進里,郭詩珍,28039673,股份有限公司,,0960730,生產中,25金屬製品製造業,254金屬加工處理,,熱軋鋼捲（板）、酸洗鋼捲（板）、冷軋鋼捲（板）、鍍鋅鋼捲（板）,,120.456,22.6426029
雄鷄企業有限公司,90P00006,,屏東縣屏東市大洲里園西街2號,屏東縣屏東市大洲里,許銘嘉,23183190,有限公司,,0970115,生產中,28電力設備及配備製造業,284照明設備及配備,,路燈、景觀燈、投射燈、太陽能模組、太陽能地磚燈,晶片、電路板、電容、電阻、電晶體、鋀板、鋼板、五金零件等,120.456169,22.63836
大千碎石粉廠,99665694,06410099052302,屏東縣高樹鄉建興村大山路32之2號,屏東縣高樹鄉建興村,林正義,91753979,獨資,0580101,0660917,生產中,23非金屬礦物製品製造業,239其他非金屬礦物製品,,碎石、紅磚粉,,120.623642,22.8294983
天富木業有限公司,99665982,07510099336670,屏東縣屏東市湖南里歸禮巷52號,屏東縣屏東市湖南里,張天賜,22303112,有限公司,0751213,0751231,生產中,14木竹製品製造業,140木竹製品,,製材,原木、木料,120.507141,22.6527233
國基生技股份有限公司農科分公司,81100003,,屏東縣長治鄉德和村農科路35-1號,屏東縣長治鄉德和村,簡江維,80694664,股份有限公司,,0970303,生產中,09飲料製造業,092非酒精飲料,,酵素、健康食品,,120.533165,22.712862
魔米國際股份有限公司,81100006,,屏東縣長治鄉德和村神農東路21號,屏東縣長治鄉德和村,余政隆,27215258,股份有限公司,,0970515,生產中,08食品製造業,089其他食品,http://www.tw-morice.com,冷凍熟飯,,120.544006,22.7145634
聯發生物科技股份有限公司,81100010,,屏東縣長治鄉德和村農環路9、11號,屏東縣長治鄉德和村,劉健誼,13077754,股份有限公司,,0971023,生產中,18化學原材料、肥料、氮化合物、塑橡膠原料及人造纖維製造業、19其他化學製品製造業,183肥料及氮化合物、191農藥及環境用藥,,菌專家及超易肥系列產品,,120.541069,22.709877
大東華造船廠股份有限公司,99665829,06610099122433,屏東縣東港鎮朝安里新生一路41號,屏東縣東港鎮朝安里,周望雄,91207901,股份有限公司,0580101,0660817,生產中,31其他運輸工具及其零件製造業,311船舶及浮動設施,,木材船舶修造、玻璃纖維強化塑船,,120.445557,22.4657955
春朝企業有限公司東港區漁產品加工廠,99699564,,屏東縣東港鎮朝安里新生一路25號,屏東縣東港鎮朝安里,陳春朝,84542562,獨資,,0920814,生產中,08食品製造業,082水產加工,,魚鬆、魚酥、櫻花蝦,,120.445862,22.4655552
松廣企業社,S1300076,,屏東縣萬丹鄉廣安村萬丹路三段150巷36號,屏東縣萬丹鄉廣安村,陳日忠,98926928,獨資,,1090526,生產中,08食品製造業,089其他食品,,,,,
奇埜企業有限公司,S1300001,,屏東縣新園鄉內庄村興安路二六三號,屏東縣新園鄉內庄村,蔡蕙伃,70412292,有限公司,,1090519,生產中,25金屬製品製造業、25金屬製品製造業,252金屬結構及建築組件,,,,,
百成企業有限公司,99666224,07810013111471,屏東縣長治鄉香楊村合興路208巷30號,屏東縣長治鄉香楊村,張雲翔,23484344,有限公司,0781009,0791205,生產中,25金屬製品製造業,259其他金屬製品,,鎖匙,鐵片,120.519295,22.66807
三珈企業股份有限公司萬丹廠,99699617,,屏東縣萬丹鄉社中村萬丹路3段290號,屏東縣萬丹鄉社中村,汪輝,22923598,股份有限公司,,0931101,生產中,24基本金屬製造業、22塑膠製品製造業,241鋼鐵、242鋁、243銅、220塑膠製品,,廢鋼鐵料、廢鋁料、廢銅料、鋼鐵、鋁、銅,,120.47979,22.6227665
志濱糖業有限公司,S1300126,,屏東縣萬丹鄉萬生村大發路700巷63號,屏東縣萬丹鄉萬生村,湯孟涵,80384197,有限公司,,1090604,生產中,08食品製造業,089其他食品,,,,,
力厲企業股份有限公司屏東四廠,99699584,,屏東縣屏東市橋南里工業路20號,屏東縣屏東市橋南里,陳振光,30872024,股份有限公司,,0921209,生產中,30汽車及其零件製造業,303汽車零件,,啟動馬達殼、發電機殼,,120.500572,22.6593361
丞埕企業股份有限公司屏東廠,13000194,,屏東縣屏東市橋南里工業路20號,屏東縣屏東市橋南里,李湘鈺,16515882,股份有限公司,,1030124,生產中,30汽車及其零件製造業,303汽車零件,,汽車零件,,120.500572,22.6593361
正鴻農業生技股份有限公司,81100068,,屏東縣長治鄉德和村園西二路28號3樓,屏東縣長治鄉德和村,白金川,54828864,股份有限公司,,1071105,生產中,19其他化學製品製造業,194化粧品,,液態皂、手工皂,油品．氫氧化鉀．精油．水,120.533104,22.71553
慈峰玻璃股份有限公司二廠,99699824,,屏東縣萬巒鄉佳和村佳興路87號,屏東縣萬巒鄉佳和村,陳貴榮,23183522,股份有限公司,,0980520,生產中,23非金屬礦物製品製造業,231玻璃及其製品,,玻璃,,120.587044,22.569416
慈峰玻璃股份有限公司,99666098,08410099206386,屏東縣萬巒鄉佳和村佳興路83之1號,屏東縣萬巒鄉佳和村,陳貴榮,23183522,股份有限公司,0840608,0850125,生產中,23非金屬礦物製品製造業,231玻璃及其製品,,玻璃,,120.588875,22.5696
生明機械股份有限公司,99665911,08510099411628,屏東縣新園鄉新園村媽祖路407巷2弄6號,屏東縣新園鄉新園村,楊全能,96878055,股份有限公司,0851211,0860317,生產中,29機械設備製造業、25金屬製品製造業,293通用機械設備、251金屬刀具、手工具及模具,,機械零件，推進機械,,120.448029,22.5155659
宏昇螺旋槳股份有限公司新園廠,99666118,06810099220619,屏東縣新園鄉新園村媽祖路408號,屏東縣新園鄉新園村,鄭正義,82104664,股份有限公司,0580101,0700123,生產中,31其他運輸工具及其零件製造業,311船舶及浮動設施,,車葉（螺旋漿）,金臬鋁青銅、錳青銅,120.4453,22.51533
淯暉企業股份有限公司新園分公司,99699684,,屏東縣新園鄉新園村媽祖路403號,屏東縣新園鄉新園村,黃美惠,80055414,股份有限公司,,0941206,生產中,08食品製造業,087動物飼品,http://www.yuh-huei.com.tw/yuh_huei_01.html,配合飼料、其他食品,,120.446571,22.5157719
冠瑞塑膠企業有限公司二廠,S1300192,,屏東縣萬丹鄉廣安村廣興路八十六巷二十六號,屏東縣萬丹鄉廣安村,柳金葉,23576744,有限公司,,1090617,生產中,22塑膠製品製造業,220塑膠製品,,,,,
開季潔實業有限公司,99699576,,屏東縣屏東市清溪里建國路332巷6號,屏東縣屏東市清溪里,黃川原,16572362,有限公司,,0921028,生產中,22塑膠製品製造業,220塑膠製品,,塑膠,,120.468987,22.66135
久代企業股份有限公司,99666085,06210099064358,屏東縣屏東市清溪里清進巷258號,屏東縣屏東市清溪里,王昭德,91749639,股份有限公司,0580101,0620809,生產中,23非金屬礦物製品製造業,234石材製品,,大理石,,120.4664,22.6532459
盧山興業股份有限公司屏東廠,13000242,,屏東縣萬丹鄉社上村萬丹路3段345號,屏東縣萬丹鄉社上村,郭文南,85851071,股份有限公司,,1031226,生產中,22塑膠製品製造業,220塑膠製品,,交通錐、八角底座、標桿、內襯袋,塑膠粒、ＰＶＣ粉、可塑劑、色料、塑膠料,120.479385,22.62553
和協工程股份有限公司屏南廠,99699667,,屏東縣枋寮鄉東海村永翔路12、12之1號,屏東縣枋寮鄉東海村,蔡啟馨,84447589,股份有限公司,,0940815,生產中,18化學原材料、肥料、氮化合物、塑橡膠原料及人造纖維製造業、19其他化學製品製造業,181化學原材料、191農藥及環境用藥,,壬烯、四聚丙烯、輕質烯烴、重質烯烴、丙酮醇、異丙叉酮、重質烷,,120.567787,22.4083843
祥吉塑膠工業股份有限公司,99665695,07510099078934,屏東縣屏東市橋南里工業三路1號,屏東縣屏東市橋南里,林慶鑫,22073505,股份有限公司,0750409,0750613,生產中,22塑膠製品製造業,220塑膠製品,,各種塑膠袋、塑膠粒再製,,120.501534,22.6599312
力泰工業股份有限公司萬丹加工廠,99665739,08510013031907,屏東縣萬丹鄉萬生村萬壽路1段75號,屏東縣萬丹鄉萬生村,陳慶祥,91830912,股份有限公司,0850229,0850308,生產中,15紙漿、紙及紙製品製造業,152瓦楞紙板及紙容器,,牛皮紙袋,,120.500923,22.5812111
華慧工業有限公司,99665806,08010099329441,屏東縣屏東市橋南里工業四路40號,屏東縣屏東市橋南里,蔣慧敏,86047356,有限公司,0801121,0810110,生產中,33其他製造業,339未分類其他製品,,防毒（塵）口罩、安全護目鏡、工程安全帶、電銲面罩,,120.495415,22.655302
彩色巴黎化粧品有限公司,13000137,,屏東縣新園鄉新園村媽祖路407巷33號,屏東縣新園鄉新園村,郭建廷,54008866,有限公司,,1020110,生產中,19其他化學製品製造業、19其他化學製品製造業,194化粧品,,洗髮劑、潤髮劑,,120.447746,22.5160065
達安企業股份有限公司屏東二廠,99699683,,屏東縣屏東市橋南里工業四路38號,屏東縣屏東市橋南里,蔣慧敏,81133584,股份有限公司,,0941129,生產中,33其他製造業,339未分類其他製品,,防毒口罩、安全目鏡、濾毒罐,,120.495567,22.65556
佑冠光電科技股份有限公司,99699579,,屏東縣屏東市橋南里工業五路21號,屏東縣屏東市橋南里,陳裕郎,80457254,股份有限公司,,0921118,生產中,28電力設備及配備製造業、30汽車及其零件製造業,289其他電力設備及配備、303汽車零件,https://tw.yiouguanoptotech.com.tw/,汽車配件,電線，端子，鋁條，聯接器,120.502861,22.6595955
文昌行,S1300002,,屏東縣林邊鄉田厝村成功路3巷34-12號,屏東縣林邊鄉田厝村,鍾宜穎,37679397,獨資,,1090519,生產中,08食品製造業,089其他食品,,,,,
千輪國際有限公司,13000042,,屏東縣屏東市清溪里和生路2段464號,屏東縣屏東市清溪里,蔡長龍,12605193,有限公司,,1000623,生產中,08食品製造業、08食品製造業,089其他食品,,,,,
叶光閥業股份有限公司,13000181,,屏東縣萬巒鄉佳和村佳興路81之1號,屏東縣萬巒鄉佳和村,郭迦勒,82014740,股份有限公司,,1021106,生產中,24基本金屬製造業、24基本金屬製造業、29機械設備製造業,249其他基本金屬,,排氣閥、消防栓,,120.588875,22.5696
新味豐西點麵包廠,99666189,07410099160593,屏東縣屏東市永昌里民族路439號,屏東縣屏東市永昌里,郭玉軒,90634906,獨資,0740610,0750728,生產中,08食品製造業,089其他食品,,麵包，糕餅,,120.477264,22.6713467
鳳勝實業股份有限公司佳冬廠,99665595,07710099273819,屏東縣枋寮鄉東海村研發路八五號,屏東縣枋寮鄉東海村,許進榮,16093742,股份有限公司,0770822,0781013,生產中,23非金屬礦物製品製造業、23非金屬礦物製品製造業,233水泥及其製品,,預拌混凝土,,120.572556,22.40687
三芯國際股份有限公司,S1300110,,屏東縣屏東市前進里建國路495號,屏東縣屏東市前進里,徐君川,16515778,股份有限公司,,1090527,生產中,14木竹製品製造業,140木竹製品,,,,,
絨紫生技股份有限公司,81100059,,屏東縣長治鄉德和村農科路43號,屏東縣長治鄉德和村,何連祥,45134335,股份有限公司,,1060120,生產中,19其他化學製品製造業,194化粧品,,麗蔻頭皮頭髮調理霜Ｇ０１、蜜為能量洗髮精Ｇ０２、蜜為抗屑洗髮精,,120.532455,22.7130127
和發碾米工廠,99666055,07010099145061,屏東縣東港鎮興東里中正路2段91巷49號,屏東縣東港鎮興東里,蔡德豐,21620694,獨資,0580101,0701118,生產中,08食品製造業,086碾榖、磨粉及澱粉製品,,,,,
金振吉玻璃企業有限公司,13000518,,屏東縣竹田鄉竹田村水源路36號,屏東縣竹田鄉竹田村,陳米涵,42941089,有限公司,,1071022,生產中,23非金屬礦物製品製造業,231玻璃及其製品,,玻璃及其製品,,120.54644,22.5784779
凡事康流體科技股份有限公司,90P00027,,屏東縣屏東市前進里屏東加工出口區經建路21號,屏東縣屏東市前進里,賴炎村,70401437,股份有限公司,,1001013,生產中,29機械設備製造業、28電力設備及配備製造業,293通用機械設備、285家用電器,http://www.fluxtek.com/tw/,濾心、ＲＯ機、飲水機,,120.454933,22.6434937
雙山機器廠股份有限公司,99665705,06510099112410,屏東縣屏東市橋南里工業路6號,屏東縣屏東市橋南里,陳高增,90728729,股份有限公司,0580101,0671108,生產中,29機械設備製造業、25金屬製品製造業,291金屬加工用機械設備、292其他專用機械設備、293通用機械設備、251金屬刀具、手工具及模具、254金屬加工處理、259其他金屬製品,,鎖鏈、專用機,,120.497986,22.662962
晨間廚房餐飲有限公司,13000473,,屏東縣屏東市清溪里建國路396號,屏東縣屏東市清溪里,劉影,28890222,有限公司,,1070316,生產中,08食品製造業,089其他食品,http://www.mk2000.com.tw/home.php,蛋餅皮、特製白沙拉、美式沙拉、奶酥,,120.466423,22.6562042
中菱建材有限公司屏東廠,99665726,06110099091401,屏東縣鹽埔鄉新二村大仁西街３１號,屏東縣鹽埔鄉新二村,蕭繡滿,89276070,有限公司,0580101,0620306,生產中,14木竹製品製造業、23非金屬礦物製品製造業,140木竹製品、232耐火、黏土建材及其他陶瓷製品,,木絲水泥板＜鑽泥板＞,,120.536621,22.7265282
祐全產業股份有限公司,99666246,07610099336167,屏東縣新園鄉五房村龍洲路50號,屏東縣新園鄉五房村,洪宜一,91787274,股份有限公司,0761222,0780724,生產中,08食品製造業,082水產加工、089其他食品,,冷凍調理（白燒）鰻,,120.441933,22.4974937
微新生物科技股份有限公司萬丹一廠,S1300176,,屏東縣萬丹鄉廣安村萬丹路三段191巷67號,屏東縣萬丹鄉廣安村,李世琳,27680445,股份有限公司,,1090612,生產中,14木竹製品製造業,140木竹製品,,,,,
振順製冰股份有限公司東港廠,99665570,05810099000123,屏東縣東港鎮朝安里新生一路五二號,屏東縣東港鎮朝安里,郭品宏,91812816,股份有限公司,0580101,0580531,生產中,33其他製造業、33其他製造業,339未分類其他製品,,冰塊,,120.445076,22.46662
南王化工有限公司,99665799,07710099278694,屏東縣屏東市橋南里工業路19號,屏東縣屏東市橋南里,王彥博,90752092,有限公司,0771123,0791102,生產中,19其他化學製品製造業,193清潔用品、194化粧品,,肥皂、工業用皂、液體清潔劑,,120.501305,22.6593418
治齒靈有限公司,99665712,08210013140740,屏東縣九如鄉東寧村新庄路42號,屏東縣九如鄉東寧村,陳冠妏,84160120,有限公司,0820924,0821014,生產中,19其他化學製品製造業,194化粧品,,牙膏,化學材料,120.496056,22.723299
冠毅製材廠,99665941,07810013039359,屏東縣鹽埔鄉新二村維新路217號,屏東縣鹽埔鄉新二村,呂振豐,76473653,獨資,0780425,0790316,生產中,14木竹製品製造業,140木竹製品,,,,,
傑生工業股份有限公司屏東二廠,99699657,,屏東縣里港鄉三廍村三和路119之55號,屏東縣里港鄉三廍村,莊耀銘,80012106,股份有限公司,,0940624,生產中,25金屬製品製造業,259其他金屬製品,,懸吊器、其他金屬製品,,120.501495,22.80865
聯發生物科技股份有限公司農科二廠,81200010,,屏東縣長治鄉德和村德華二街16號,屏東縣長治鄉德和村,劉健誼,13077754,股份有限公司,,1071026,生產中,18化學原材料、肥料、氮化合物、塑橡膠原料及人造纖維製造業,183肥料及氮化合物,,其他複合肥料,,120.543129,22.7161312
鋐原能源股份有限公司屏東分廠,90P00030,,屏東縣屏東市前進里屏東加工出口區園西街16號,屏東縣屏東市前進里,施長寬,23455642,股份有限公司,,1010104,生產中,28電力設備及配備製造業、29機械設備製造業、33其他製造業,281發電、輸電及配電機械、283電線及配線器材、284照明設備及配備、289其他電力設備及配備、291金屬加工用機械設備、292其他專用機械設備、293通用機械設備、332醫療器材及用品,,核能設備壓力容器、塔槽、線槽、拉線箱,,120.452652,22.6452427
蕾迪詩生物科技股份有限公司,81100026,,屏東縣長治鄉德和村園西二路38號3、4樓,屏東縣長治鄉德和村,葉勝仁,27680058,股份有限公司,,1010215,生產中,19其他化學製品製造業,194化粧品,,美白、保濕、洗顏乳等加工產品,,120.533646,22.7156429
台灣紐恩格國際股份有限公司屏東廠,13000109,,屏東縣枋寮鄉東海村臨海路2段106號,屏東縣枋寮鄉東海村,林永平,13143044,股份有限公司,,1010518,生產中,33其他製造業、33其他製造業,331育樂用品,,羽球拍,,120.573547,22.4051018
通越建材工業股份有限公司,13000540,,屏東縣新園鄉新園村媽祖路420號,屏東縣新園鄉新園村,周天賞,97339154,股份有限公司,,1080315,生產中,14木竹製品製造業,140木竹製品,,木竹製品,,120.44223,22.5133858
三崎企業有限公司,13000176,,屏東縣潮州鎮三星里潮州路1146號,屏東縣潮州鎮三星里,高志峰,12921810,有限公司,,1020902,生產中,23非金屬礦物製品製造業,232耐火、黏土建材及其他陶瓷製品,,耐火材料,,120.555717,22.5557041
南部化成股份有限公司屏東工廠,99665723,08710013032672,屏東縣長治鄉繁昌村中山路145號,屏東縣長治鄉繁昌村,王東章,80167733,股份有限公司,0870305,0870527,生產中,22塑膠製品製造業,220塑膠製品,,塑膠容器,ＯＰＳ、ＰＥＴ、ＰＰ、ＰＳ,120.576714,22.7127132
新峻億工業有限公司,99665749,06810099309043,屏東縣屏東市橋南里工業三路14號,屏東縣屏東市橋南里,莊嘉倉,90746199,有限公司,0580101,0690331,生產中,31其他運輸工具及其零件製造業,311船舶及浮動設施,,機械零件,,120.499321,22.6592121
恆陽科技有限公司,13000098,,屏東縣萬丹鄉社上村萬丹路3段332巷10號,屏東縣萬丹鄉社上村,林黃素琴,53619474,有限公司,,1010112,生產中,22塑膠製品製造業、22塑膠製品製造業,220塑膠製品,,環保防蚊防臭氣密板,,120.480843,22.6225052
家田企業有限公司,99665939,,屏東縣屏東市清溪里建國路360巷12號,屏東縣屏東市清溪里,田喬方,89758409,有限公司,,0911008,生產中,08食品製造業,082水產加工,,其他食品,,120.466927,22.6594963
明興行瑞光廠,99699725,,屏東縣屏東市華山里瑞光路3段90-1號,屏東縣屏東市華山里,李明雄,95978979,獨資,,0951220,生產中,29機械設備製造業、33其他製造業、25金屬製品製造業,331育樂用品、293通用機械設備,,電動玩具組合、維修,,120.504547,22.6857643
思牧企業股份有限公司,99666182,,屏東縣屏東市瑞光里歸仁路103號,屏東縣屏東市瑞光里,李瑞德,90504805,股份有限公司,,0491031,生產中,08食品製造業,084動植物油脂,,食用油脂,,120.50592,22.6594563
大方精密工業股份有限公司,99666032,06610099103155,屏東縣枋寮鄉新龍村中山路350號,屏東縣枋寮鄉新龍村,李昆益,91848693,有限公司,0580101,0670223,生產中,25金屬製品製造業,251金屬刀具、手工具及模具,http://www.point.url.tw,鑰匙,,120.59388,22.3732643
福松食品股份有限公司,99666003,06610099160197,屏東縣屏東市華山里大連路20巷43號,屏東縣屏東市華山里,曾威豪,90701799,股份有限公司,0580101,0680702,生產中,08食品製造業、09飲料製造業,083蔬果加工、089其他食品、092非酒精飲料,,,,,
吉全紙器有限公司,S1300221,,屏東縣萬丹鄉廣安村西勢尾街126號,屏東縣萬丹鄉廣安村,楊坤義,90776019,有限公司,,1090619,生產中,15紙漿、紙及紙製品製造業,152瓦楞紙板及紙容器,,,,,
富晟企業行,99666106,08710013226704,屏東縣里港鄉三廍村江南巷2之13號,屏東縣里港鄉三廍村,鍾萬福,95997455,合夥,0880104,0911220,生產中,23非金屬礦物製品製造業,239其他非金屬礦物製品,,砂、石,,120.511269,22.80376
晶鷹機械有限公司新園廠,13000030,,屏東縣新園鄉新園村媽祖路428號,屏東縣新園鄉新園村,劉富榮,27890575,有限公司,,1000406,生產中,29機械設備製造業,291金屬加工用機械設備、292其他專用機械設備、293通用機械設備,,鋼板等,,120.442558,22.513113
文華能源科技有限公司,13000276,,屏東縣萬丹鄉社上村萬丹路三段332巷26號,屏東縣萬丹鄉社上村,林文龍,80016715,有限公司,,1040721,生產中,29機械設備製造業、11紡織業,293通用機械設備、115紡織品,,熱水器,,120.478828,22.6218452
西聯實業有限公司二廠,S1300090,,屏東縣長治鄉長興村長春街二段150巷13-9號,屏東縣長治鄉長興村,張觀玉,12601978,有限公司,,1090525,生產中,08食品製造業,081肉類加工,,,,,
西聯實業有限公司一廠,S1300091,,屏東縣長治鄉長興村長興路441-19號,屏東縣長治鄉長興村,張觀玉,12601978,有限公司,,1090525,生產中,08食品製造業,081肉類加工,,,,,
華勇鋼鐵工業股份有限公司,99665884,06610099070567,屏東縣屏東市清溪里建國路362號,屏東縣屏東市清溪里,陳文龍,90736896,股份有限公司,0580101,0680814,生產中,29機械設備製造業,292其他專用機械設備,,耕耘刀,扁鐵、燃料油,120.468254,22.6594486
東和成碾米廠,99665878,05810099010068,屏東縣屏東市瑞光里歸仁路102號,屏東縣屏東市瑞光里,朱延安,90172144,獨資,0580101,0611011,生產中,08食品製造業,086碾榖、磨粉及澱粉製品,,,,,
永璿釀酒股份有限公司,99699871,,屏東縣春日鄉七佳村自強一路93號,屏東縣春日鄉七佳村,黨心渝,53069885,股份有限公司,,0990810,生產中,09飲料製造業,091酒精飲料,,五穀釀造酒類,,120.627258,22.4285889
博筌科技有限公司,99666103,08410013119489,屏東縣萬丹鄉廈北村廈北路66號(門牌整編),屏東縣萬丹鄉廈北村,洪錦賴,80438623,有限公司,0840807,0841218,生產中,29機械設備製造業,292其他專用機械設備,,模具,,120.465179,22.6015511
晟園生物科技有限公司內埔食品廠,13000139,,屏東縣內埔鄉豐田村建工路12-1號,屏東縣內埔鄉豐田村,張芮菱,53881377,有限公司,,1020117,生產中,09飲料製造業,092非酒精飲料,,綠水精靈、檸檬萃取液、Ｌ９９,,120.544022,22.6368618
屏大生物科技有限公司,99699848,,屏東縣內埔鄉豐田村中正路456號,屏東縣內埔鄉豐田村,陳武元,27673438,有限公司,,0990204,生產中,08食品製造業,089其他食品,,醬油,,120.540154,22.6363468
景盈企業股份有限公司,99665797,07310099034873,屏東縣屏東市橋南里工業四路32號,屏東縣屏東市橋南里,王謙如,90797470,股份有限公司,0730411,0731224,生產中,13皮革、毛皮及其製品製造業,130皮革、毛皮及其製品,http://jingfull.com.tw,手提包,,120.497047,22.6568222
豐誠冷凍食品有限公司,13000032,,屏東縣里港鄉載興村載南路23-7號,屏東縣里港鄉載興村,陳石定,22257829,有限公司,,1000422,生產中,08食品製造業,081肉類加工,,毛豆,毛豆,120.531075,22.7735
台灣蓮鴻生化科技股份有限公司,81100012,,屏東縣長治鄉德和村農科路35號,屏東縣長治鄉德和村,蔡戊清,27205414,股份有限公司,,0980212,生產中,08食品製造業,089其他食品,,淨白霜，美白液，健甘樂，保衛寧,,120.533333,22.7128353
偉銘木業有限公司,99665513,06310099003607,屏東縣內埔鄉中林村中林路一一六八號,屏東縣內埔鄉中林村,蕭桂林,28404974,有限公司,0580101,0641201,生產中,14木竹製品製造業,140木竹製品,,木心板,,120.59877,22.65944
貫統食品有限公司,13000480,,屏東縣屏東市橋南里工業環路9號,屏東縣屏東市橋南里,陳麒永,97342073,有限公司,,1070423,生產中,08食品製造業,083蔬果加工、086碾榖、磨粉及澱粉製品、089其他食品,,麵包、蛋糕、西點,,120.502419,22.6613655
芳隆農產有限公司,99665930,07310099037462,屏東縣屏東市橋南里工業六路西段9號,屏東縣屏東市橋南里,侯芳隆,86673976,有限公司,0730423,0750612,生產中,08食品製造業,083蔬果加工,,新鮮果菜冷藏,,120.495911,22.6539669
允偉興業股份有限公司農科分公司,81100049,,屏東縣長治鄉德和村農環路6號,屏東縣長治鄉德和村,蔡俊雄,85834778,股份有限公司,,1040710,生產中,08食品製造業、18化學原材料、肥料、氮化合物、塑橡膠原料及人造纖維製造業,087動物飼品、183肥料及氮化合物,,富士益生物助劑跟富士益魚骨粉、富士益水產生物助劑,帶骨魚肉．黃豆粉．米糠,120.538467,22.71062
東福塑膠工業股份有限公司東港廠,99665856,06510099085525,屏東縣東港鎮船頭里沿海路20號,屏東縣東港鎮船頭里,鄭福家,91818564,股份有限公司,0580101,0670817,生產中,22塑膠製品製造業,220塑膠製品,http://toford.com,聚氯乙烯（ＰＶＣ）塑膠軟管,ＰＶＣ粉、可塑劑,120.4635,22.4664631
格林恒業股份有限公司屏東廠,13000209,,屏東縣九如鄉九明村九如路2段1巷16號,屏東縣九如鄉九明村,楊國廷,23945536,股份有限公司,,1030523,生產中,18化學原材料、肥料、氮化合物、塑橡膠原料及人造纖維製造業,183肥料及氮化合物,,肥料,,120.486053,22.7256641
豐釧機械股份有限公司第三廠,13000102,,屏東縣屏東市橋南里工業四路46號,屏東縣屏東市橋南里,張邱美嬌,92705167,股份有限公司,,1010229,生產中,29機械設備製造業,292其他專用機械設備、293通用機械設備,,碎石機械，輸送機械，起動機械,,120.495193,22.6543789
裕昌工程有限公司,S1300231,,屏東縣萬丹鄉新庄村新鐘路750巷8號,屏東縣萬丹鄉新庄村,林順良,86789575,有限公司,,1090620,生產中,25金屬製品製造業,252金屬結構及建築組件,,,,,
大成園農產食品加工所,S1300011,,屏東縣竹田鄉美崙村10鄰美崙1-20號,屏東縣竹田鄉美崙村,陳瑞仁,92701514,獨資,,1090527,生產中,08食品製造業,089其他食品,,,,,
楓荷生物科技股份有限公司農科分公司,81100016,,屏東縣長治鄉德和村園西二路10號4樓,屏東縣長治鄉德和村,王慧珍,27417894,股份有限公司,,0990414,生產中,08食品製造業,089其他食品,http://www.fengho.url.tw/index_1.html,天然草本香藥植物本身及機能性成分原料（主用途為身體用精油，亦可當食品添加物）,,120.532913,22.71492
弘峻車體廠,99666006,08710013203766,屏東縣屏東市清溪里建國路332巷9號,屏東縣屏東市清溪里,陳輝勇,83839854,獨資,0871124,0871231,生產中,30汽車及其零件製造業,302車體,,汽車修理,,120.468895,22.6609116
長業混凝土有限公司,99665768,08210099077565,屏東縣萬丹鄉磚寮村大昌路783號,屏東縣萬丹鄉磚寮村,賴承佑,85051943,有限公司,0820916,0830829,生產中,23非金屬礦物製品製造業,233水泥及其製品,,預拌混凝土ＣＬＳＭ,,120.464058,22.6212425
源益製材工廠,99666190,07710013044501,屏東縣枋寮鄉人和村中山路2段104之1號,屏東縣枋寮鄉人和村,康榮昌,92336100,獨資,0770425,0771026,生產中,14木竹製品製造業,140木竹製品,,木材,,120.59684,22.3810768
鼎中冷凍廠,99665838,08210013072303,屏東縣東港鎮興東里沿海路56號,屏東縣東港鎮興東里,洪三中,87667874,獨資,0820519,0830510,生產中,33其他製造業,339未分類其他製品,,冷藏蔬果漁類,,120.464,22.4701176
勝發工業社,S1300133,,屏東縣新園鄉瓦磘村四環路2-1號,屏東縣新園鄉瓦磘村,周美蓮,91877654,獨資,,1090603,生產中,25金屬製品製造業,259其他金屬製品,,,,,
能友塑膠行有限公司二廠,S1300088,,屏東縣長治鄉榮華村信義路287-8號,屏東縣長治鄉榮華村,林世楊,90767243,有限公司,,1090615,生產中,22塑膠製品製造業,220塑膠製品,,,,,
隆興製麵有限公司,S1300094,,屏東縣潮州鎮三星里三星路208巷18號,屏東縣潮州鎮三星里,李貞瑩,53407491,有限公司,,1090525,生產中,08食品製造業,089其他食品,,,,,
聯友金屬科技股份有限公司,13000528,,屏東縣枋寮鄉太源村中山路三段103號,屏東縣枋寮鄉太源村,顏文良,50802223,有限公司,,1071206,生產中,25金屬製品製造業,254金屬加工處理,,,,,
慶泓冷凍食品實業股份有限公司,13000023,,屏東縣枋寮鄉東海村永翔路47之1號,屏東縣枋寮鄉東海村,郭上雲,22706852,有限公司,,1000304,生產中,08食品製造業,082水產加工,,下雜魚類、鬼頭刀、旗魚、曼波魚,,120.570663,22.4092331
宏城企業股份有限公司新園廠,99666266,06310099160920,屏東縣新園鄉五房村五房路973號,屏東縣新園鄉五房村,謝宗翰,85112054,股份有限公司,0580101,0660823,生產中,24基本金屬製造業,242鋁,,鋁擠型、鋁建材、散熱片、箱框,,120.439819,22.50938
興燁星企業有限公司,S1300212,,屏東縣萬丹鄉萬安村大學路六六九巷五十五號,屏東縣萬丹鄉萬安村,林坤聰,70612571,有限公司,,1090618,生產中,25金屬製品製造業,252金屬結構及建築組件,,,,,
正豐農產加工所,99666077,06610099175896,屏東縣林邊鄉鎮安村光明路41號,屏東縣林邊鄉鎮安村,陳英陞,91877330,獨資,0580101,0680524,生產中,08食品製造業,084動植物油脂、089其他食品,,黃豆原油、黃豆餅,,120.502388,22.4589844
大地亮環保服務有限公司崁頂廠,99699820,,屏東縣崁頂鄉北勢村北勢路四十八號,屏東縣崁頂鄉北勢村,鄭志強,16806208,有限公司,,0980312,生產中,23非金屬礦物製品製造業、18化學原材料、肥料、氮化合物、塑橡膠原料及人造纖維製造業,239其他非金屬礦物製品、183肥料及氮化合物,,電氣爐渣、爐石、廢鋼鐵,,120.486427,22.5103645
紘紳實業有限公司,13000145,,屏東縣屏東市清溪里和生路3段756巷21號,屏東縣屏東市清溪里,謝博昌,29004005,有限公司,,1020315,生產中,23非金屬礦物製品製造業、23非金屬礦物製品製造業,231玻璃及其製品,,玻璃及其製品,,120.465866,22.6594658
佳味香食品企業有限公司,99699723,,屏東縣新園鄉新園村媽祖路396號,屏東縣新園鄉新園村,黃坤樹,70654256,有限公司,,0951201,生產中,08食品製造業,089其他食品,,冷凍調理食品,,120.446251,22.5175552
典立塑膠股份有限公司,99665524,07310099296218,屏東縣新園鄉五房村五房路898巷145號,屏東縣新園鄉五房村,陳昀璐,91915524,股份有限公司,0731214,0740412,生產中,22塑膠製品製造業,220塑膠製品,http://woodplas.tw,塑膠摺門、浴池蓋簾、百葉片、綠塑木,,120.4422,22.5083981
志豐有限公司,99699703,,屏東縣新園鄉五房村五房路588號,屏東縣新園鄉五房村,洪秋水,23667337,有限公司,,0950516,生產中,29機械設備製造業,293通用機械設備,,機械零件,,120.437523,22.504015
閎駿工業股份有限公司,99699739,,屏東縣新園鄉新園村媽祖路521號,屏東縣新園鄉新園村,洪美鳳,22528323,股份有限公司,,0960509,生產中,23非金屬礦物製品製造業、25金屬製品製造業、29機械設備製造業,232耐火、黏土建材及其他陶瓷製品、239其他非金屬礦物製品、251金屬刀具、手工具及模具、253金屬容器、259其他金屬製品、292其他專用機械設備、293通用機械設備,,鋼板、鐵板,,120.4413,22.5098839
欣燁機器有限公司,99699601,,屏東縣新園鄉新園村媽祖路407巷15號,屏東縣新園鄉新園村,張迪淵,80743026,有限公司,,0930531,生產中,29機械設備製造業,292其他專用機械設備,,碎木機、農業及園藝機械,鐵材、五金,120.447594,22.5166378
泰成金屬工業股份有限公司,99666160,07710099173275,屏東縣內埔鄉豐田村竹南路49號,屏東縣內埔鄉豐田村,侯國源,22927095,股份有限公司,0770223,0770223,生產中,25金屬製品製造業,251金屬刀具、手工具及模具,,銅鎖匙、鐵鎖匙,,120.5366,22.6218548
國統食品廠,99665585,06310099180336,屏東縣屏東市龍華里龍華路383號,屏東縣屏東市龍華里,施鴻璋,91745394,獨資,0580101,0640311,生產中,08食品製造業、09飲料製造業,085乳品、086碾榖、磨粉及澱粉製品、092非酒精飲料,,,,,
晶圓事業股份有限公司九如廠,99665635,07410099366940,屏東縣九如鄉九明村崁頂街一巷一五號,屏東縣九如鄉九明村,吳志文,86336378,股份有限公司,0741213,0750710,生產中,19其他化學製品製造業,199未分類其他化學製品,http://www.jing-yung.com.tw,砂膠乾燥劑,,120.476616,22.7294331
春源碾米廠內埔廠,99666135,07610013059815,屏東縣內埔鄉美和村學人路402號,屏東縣內埔鄉美和村,吳鍾華妹,08072815,獨資,0760616,0781211,生產中,08食品製造業,086碾榖、磨粉及澱粉製品,,白米,,120.562309,22.6038933
和益製材工廠,99665548,05810099009493,屏東縣車城鄉福興村新興路６０號,屏東縣車城鄉福興村,王猛致,91337284,獨資,0580101,0610307,生產中,14木竹製品製造業,140木竹製品,,棧板、木板、角木,柳安木（木製品、原木）,120.719421,22.0726719
競慶企業有限公司,S1300250,,屏東縣萬丹鄉萬生村泉生路231巷7號,屏東縣萬丹鄉萬生村,張家郎,89313862,有限公司,,1090624,生產中,14木竹製品製造業,140木竹製品,,,,,
永新肉品興業有限公司,99699711,,屏東縣屏東市橋南里工業四路3號,屏東縣屏東市橋南里,邱建超,27494239,有限公司,,0950907,生產中,08食品製造業,081肉類加工,,冷凍豬肉,,120.502357,22.6591454
環盟生技股份有限公司,81100055,,屏東縣長治鄉德和村園西二路8號2樓,屏東縣長治鄉德和村,蘇新章,27680825,股份有限公司,,1050714,生產中,08食品製造業、18化學原材料、肥料、氮化合物、塑橡膠原料及人造纖維製造業,087動物飼品、183肥料及氮化合物,,微生物肥料,,120.532852,22.71464
豪豊精密股份有限公司,13000431,,屏東縣屏東市前進里24鄰大溪路317號,屏東縣屏東市前進里,陳信煌,27784764,股份有限公司,,1060501,生產中,30汽車及其零件製造業,303汽車零件,http://www.haoli-tech.com,金屬非金屬加工件、非金屬軸承,,120.447395,22.6380043
強匠冷凍食品股份有限公司二廠,13000204,,屏東縣內埔鄉豐田村中正路469號,屏東縣內埔鄉豐田村,石造華,89715916,股份有限公司,,1030305,生產中,08食品製造業,081肉類加工、082水產加工、089其他食品,,肉類處理及其製品，水產處理及其製品，其他食品,,120.540184,22.635231
南琦企業行,S1300052,,屏東縣萬丹鄉社上村大功路22號,屏東縣萬丹鄉社上村,蔡泱余,37687235,獨資,,1090527,生產中,08食品製造業,087動物飼品,,,,,
大成實業有限公司,S1300175,,屏東縣屏東市信和里忠信12-14號,屏東縣屏東市信和里,曾意娟,54091652,有限公司,,1090612,生產中,11紡織業,115紡織品,,,,,
佑澂企業行,13000537,,屏東縣新園鄉新園村媽祖路407巷1弄5號,屏東縣新園鄉新園村,侯佑澂,67823399,獨資,,1080129,生產中,29機械設備製造業,293通用機械設備,,地磅,,120.448044,22.5166283
華罡樂器股份有限公司,99666051,08110013058022,屏東縣東港鎮船頭里船頭路33之3號,屏東縣東港鎮船頭里,康進中,86562465,股份有限公司,0810512,0810625,生產中,33其他製造業,331育樂用品,,管樂器，樂器零件,,120.467216,22.4638615
宏昇螺旋槳股份有限公司新園二廠,13000470,,屏東縣新園鄉媽祖路402號,屏東縣新園鄉,鄭正義,82104664,股份有限公司,,1070227,生產中,24基本金屬製造業,243銅,,車葉（螺旋槳）,銅材、矽砂、矽酸鈉,120.445648,22.5157681
銘奕工程有限公司,S1300124,,屏東縣萬丹鄉後村村保香路779號,屏東縣萬丹鄉後村村,陳秋銘,28742623,有限公司,,1090604,生產中,25金屬製品製造業、25金屬製品製造業,252金屬結構及建築組件,,,,,
富惟工業股份有限公司,13000434,,屏東縣屏東市前進里大溪路335-3號,屏東縣屏東市前進里,張子建,35820948,股份有限公司,,1060519,生產中,30汽車及其零件製造業,303汽車零件,,消音器、Ｂ排、儀錶板支架,,120.446991,22.6487141
河見電機工業股份有限公司,90P00012,,屏東縣屏東市前進里經建路33號,屏東縣屏東市前進里,方柏宜,90732955,股份有限公司,,0980720,生產中,29機械設備製造業,292其他專用機械設備,http://www.hcppump.com.tw,沈水泵浦,,120.453522,22.64786
益驊有限公司,99699810,,屏東縣東港鎮興東里中正路3段101號,屏東縣東港鎮興東里,劉美玲,70585441,有限公司,,0980116,生產中,25金屬製品製造業,252金屬結構及建築組件、254金屬加工處理、259其他金屬製品,,鋁架,,120.455582,22.4719543
慶輝鐵工所,99666283,07410099291661,屏東縣里港鄉三廍村三和路119之23號,屏東縣里港鄉三廍村,陳天來,07996895,獨資,0741028,0741228,生產中,30汽車及其零件製造業,303汽車零件,,輪圈修理,,120.501495,22.80865
勝興製冰廠,99665938,06310099069530,屏東縣新園鄉共和村光復路151號,屏東縣新園鄉共和村,吳一郎,91799779,獨資,0580101,0650827,生產中,33其他製造業,339未分類其他製品,,冰塊、冷藏食品,,120.44,22.47488
保億冷凍食品有限公司屏東廠,99666009,07510099330771,屏東縣九如鄉玉泉村黃金路51號,屏東縣九如鄉玉泉村,蘇文旭,70641674,有限公司,0751210,0771209,生產中,08食品製造業,081肉類加工,,冷凍冷藏豬肉．排骨．內臟,,120.522148,22.73147
精品生技有限公司,13000131,,屏東縣新園鄉新園村媽祖路407巷1弄9號2樓,屏東縣新園鄉新園村,陳保全,53809410,有限公司,,1011204,生產中,19其他化學製品製造業、19其他化學製品製造業,194化粧品,,基劑,,120.448181,22.516573
海宇漁具廠股份有限公司,99665811,06710099303655,屏東縣屏東市橋南里工業四路1號,屏東縣屏東市橋南里,陳正鄉,69620639,股份有限公司,0580101,0690312,生產中,11紡織業,115紡織品,,尼龍絲、尼龍線,,120.502647,22.6594944
杰閎企業有限公司,S1300174,,屏東縣萬丹鄉田厝村惠崙路695號,屏東縣萬丹鄉田厝村,謝明龍,80368680,有限公司,,1090612,生產中,25金屬製品製造業,252金屬結構及建築組件,,,,,
立太德建材工業有限公司,99666185,06310099153739,屏東縣高樹鄉建興村豐原路2之1號,屏東縣高樹鄉建興村,劉振吉,90784664,有限公司,0580101,0640415,生產中,23非金屬礦物製品製造業,239其他非金屬礦物製品,,水泥製品,,120.613235,22.8345089
櫻馫興業股份有限公司,13000261,,屏東縣九如鄉耆老村三民路233號,屏東縣九如鄉耆老村,呂友欽,83641683,股份有限公司,,1040420,生產中,08食品製造業,083蔬果加工,,冷凍豆類、冷凍混合蔬菜,,120.491486,22.7488689
豐田醬園,99665703,06110099068186,屏東縣內埔鄉振豐村中正路143號,屏東縣內埔鄉振豐村,賴世乾,92404508,獨資,0580101,0611106,生產中,08食品製造業,089其他食品,,醬油,,120.549347,22.6264553
屏東縣枋寮區漁會製冰冷凍廠,99666023,07510013037166,屏東縣枋寮鄉保生村保生路四三七之一號,屏東縣枋寮鄉保生村,劉淼松,92210708,漁會,0750411,0751018,生產中,33其他製造業,339未分類其他製品,,冰塊，冷藏魚貨,水,120.593811,22.3631
原豐農業股份有限公司,13000295,,屏東縣內埔鄉豐田村建工路12-2號,屏東縣內埔鄉豐田村,彭健豪,24889879,股份有限公司,,1041120,生產中,08食品製造業,086碾榖、磨粉及澱粉製品,,其他榖物碾製品,,120.544022,22.6368618
寬馭工程事業有限公司一廠,13000302,,屏東縣長治鄉繁昌村中山路150-17號,屏東縣長治鄉繁昌村,許幫盈,28034234,有限公司,,1041229,生產中,25金屬製品製造業,252金屬結構及建築組件,,金屬結構及建築組件,,120.578156,22.71826
和翊有限公司,13000196,,屏東縣萬巒鄉佳和村佳興路97號,屏東縣萬巒鄉佳和村,黃益充,27706206,有限公司,,1030128,生產中,14木竹製品製造業,140木竹製品,,,,,
鋼國工業股份有限公司,90P00010,,屏東縣屏東市大洲里園西街6號,屏東縣屏東市大洲里,鄭格明,85981362,股份有限公司,,0971203,生產中,25金屬製品製造業,259其他金屬製品,http://www.gangwo.com.tw/,後紐、玻璃門夾、電子鎖、天地閂、絞練、指示鎖,,120.455086,22.638031
金皇企業股份有限公司屏東廠,99699549,08210013062906,屏東縣九如鄉玉泉村黃金路七八巷一號,屏東縣九如鄉玉泉村,陳思明,85807913,股份有限公司,0830509,0830518,生產中,32家具製造業,322金屬家具、321非金屬家具,,（辦公椅），家具製造,,120.535828,22.72227
佳格企業社,S1300277,,屏東縣新園鄉鹽埔村義仁路313號,屏東縣新園鄉鹽埔村,楊文金,19977768,獨資,,1091130,生產中,14木竹製品製造業、14木竹製品製造業,140木竹製品,,,,,
周強貿易有限公司,13000123,,屏東縣新園鄉新園村媽祖路407巷35號1樓,屏東縣新園鄉新園村,周伯彥,22148484,有限公司,,1011026,生產中,29機械設備製造業、29機械設備製造業,293通用機械設備,,天車、吊車,,120.447762,22.5159435
懿隆木業有限公司南州廠,99699738,,屏東縣南州鄉米崙村勝利路89號,屏東縣南州鄉米崙村,蘇瑞章,89737263,有限公司,,0960418,生產中,14木竹製品製造業,140木竹製品,,木竹製品,,120.518738,22.4898968
南太股份有限公司,13000640,,屏東縣屏東市橋南里工業路17號2樓,屏東縣屏東市橋南里,曹國南,80117474,股份有限公司,,1090721,生產中,33其他製造業,332醫療器材及用品,,,,,
宏青企業股份有限公司,99665780,08810099809993,屏東縣屏東市橋南里工業路1號、3號、5號,屏東縣屏東市橋南里,汪呂寶蕉,16393240,股份有限公司,0880806,0890223,生產中,33其他製造業,339未分類其他製品,,其他工業製品,,120.498947,22.6647663
義正機電企業股份有限公司枋寮廠,99666029,08310099154284,屏東縣枋寮鄉東海村精進路19之1號,屏東縣枋寮鄉東海村,鄭義芳,83735268,股份有限公司,0830506,0830729,生產中,29機械設備製造業、25金屬製品製造業,293通用機械設備、251金屬刀具、手工具及模具,,鋼材二次加工、貨櫃五金配件,,120.579796,22.4077721
用上有限公司,13000221,,屏東縣屏東市清溪里和生路3段830號,屏東縣屏東市清溪里,陳招忍,54806637,有限公司,,1030625,生產中,31其他運輸工具及其零件製造業、31其他運輸工具及其零件製造業,319未分類其他運輸工具及其零件,,未分類其他運輸工具及其零件,,120.466652,22.6629524
永全聯合有限公司,13000222,,屏東縣屏東市清溪里和生路3段660號,屏東縣屏東市清溪里,林明宏,80451266,有限公司,,1030630,生產中,08食品製造業、08食品製造業,089其他食品,,其他食品（豆皮）,,120.463539,22.65713
健荃企業行,13000203,,屏東縣屏東市清溪里建國路300-5號,屏東縣屏東市清溪里,盧其昌,67829648,獨資,,1030304,生產中,23非金屬礦物製品製造業、23非金屬礦物製品製造業,239其他非金屬礦物製品,,,,,
哈旺食品有限公司,99699721,,屏東縣屏東市清溪里建國路332巷25號1樓,屏東縣屏東市清溪里,李昌烈,28491371,有限公司,,0951122,生產中,08食品製造業,089其他食品,,咖啡、茶葉,,120.4679,22.6607971
新華鑫企業行,13000245,,屏東縣屏東市清溪里和生路3段756巷7號,屏東縣屏東市清溪里,黃明賞,37674338,獨資,,1031231,生產中,22塑膠製品製造業,220塑膠製品,,塑膠製品,熱可塑性聚氨脂樹脂膠塊,120.465515,22.6605034
祥興製材廠,99666084,07810099291011,屏東縣新園鄉新園村媽祖路412號,屏東縣新園鄉新園村,鄭金宗,08047582,獨資,0780717,0780811,生產中,14木竹製品製造業,140木竹製品,,原木,,120.443909,22.5137444
益裕肥料行,S1300057,,屏東縣鹽埔鄉鹽中村25鄰新埔路951號,屏東縣鹽埔鄉鹽中村,林玉蓉,37682864,獨資,,1090603,生產中,33其他製造業,339未分類其他製品,,,,,
弘詳膠業股份有限公司,90P00023,,屏東縣屏東市前進里屏東加工出口區園西街7號,屏東縣屏東市前進里,張再福,96892900,股份有限公司,,0991215,生產中,18化學原材料、肥料、氮化合物、塑橡膠原料及人造纖維製造業,184塑膠及合成橡膠原料,,天然膠、合成膠、人造膠,,120.454475,22.6395111
健銘造船股份有限公司,13000110,,屏東縣新園鄉共和村光復路17號,屏東縣新園鄉共和村,吳映樺,53815172,股份有限公司,,1010604,生產中,31其他運輸工具及其零件製造業、31其他運輸工具及其零件製造業,311船舶及浮動設施,,環保樹脂,,120.442108,22.4727783
健元造船股份有限公司,99699648,,屏東縣新園鄉共和村光復路17-6號,屏東縣新園鄉共和村,曾耀鋒,22208089,股份有限公司,,0940426,生產中,31其他運輸工具及其零件製造業,311船舶及浮動設施,,塑膠玻璃纖維船，木船，客貨船,,120.442108,22.4727783
生浚行,99665851,08510013051312,屏東縣潮州鎮蓬萊里榮祥巷51號,屏東縣潮州鎮蓬萊里,楊宗浚,19973685,獨資,0850408,0851228,生產中,25金屬製品製造業,254金屬加工處理,,鋼鐵材加工，不銹鋼材加工,,120.533669,22.5477066
遠東藍藻工業股份有限公司屏東工廠,99665787,06410099174113,屏東縣高樹鄉新南村大和路15號,屏東縣高樹鄉新南村,麥淑娥,20906783,股份有限公司,0580101,0651112,生產中,08食品製造業,089其他食品,,藍藻粉．綠藻粉（非藥用）,,120.583618,22.7873573
鉦旺樂股份有限公司,13000280,,屏東縣九如鄉九清村九如路2段323號,屏東縣九如鄉九清村,張家銘,53960359,股份有限公司,,1040911,生產中,08食品製造業,083蔬果加工,http://www.zheng-wang.com.tw/,檸檬汁、金桔汁、柳丁汁、百香果汁、甘蔗汁、葡萄柚汁、鳳梨汁、芒果汁、茂谷柑汁、芭樂汁、紅芭樂汁、薑汁,,120.48941,22.7398663
永富興科技股份有限公司,90P00013,,屏東縣屏東市前進里園西街18號,屏東縣屏東市前進里,陳蔡月梅,70533866,股份有限公司,,0981027,生產中,24基本金屬製造業,241鋼鐵,http://www.yfstec.com.tw/,不銹鋼帶,,120.45237,22.6461239
同益食品工廠,99666107,07510099206416,屏東縣南州鄉米崙村精明路40號,屏東縣南州鄉米崙村,林水雄,91804317,獨資,0750717,0750717,生產中,08食品製造業,089其他食品,,麥芽糖,,120.5207,22.4889545
振寓有限公司屏東廠,99665835,,屏東縣鹽埔鄉新二村大仁西街29之2號,屏東縣鹽埔鄉新二村,陳河,12889327,有限公司,,0910821,生產中,24基本金屬製造業,242鋁,,鋁,,120.537704,22.7264
樺懋科技股份有限公司屏南廠,13000504,,屏東縣枋寮鄉中山路三段69號,屏東縣枋寮鄉,王育証,80622634,股份有限公司,,1070830,生產中,23非金屬礦物製品製造業,233水泥及其製品、239其他非金屬礦物製品,,其他非金屬礦物製品,,120.585175,22.4129276
屏一精工股份有限公司,99665983,07410099232180,屏東縣屏東市橋南里工業六路東段12號,屏東縣屏東市橋南里,黃春暉,22239999,股份有限公司,0740725,0750917,生產中,25金屬製品製造業,251金屬刀具、手工具及模具,,模具、沖床五金,鋼材、黃銅線、鐵板,120.497009,22.65737
富統食品股份有限公司,99666199,08010099320293,屏東縣萬丹鄉水泉村泉順街439巷37號,屏東縣萬丹鄉水泉村,黃美麗,23344294,股份有限公司,0800812,0801105,生產中,08食品製造業,081肉類加工、082水產加工、089其他食品,http://futong.com.tw,肉製品（火腿，香腸，培根，熱狗）,畜禽肉原料、包裝資材、機械設備、薪資支出、豬肉、雞肉,120.481018,22.5717812
暉越國際有限公司,S1300233,,屏東縣萬丹鄉水泉村大發路400巷36號,屏東縣萬丹鄉水泉村,洪瓏文,27476725,有限公司,,1090620,生產中,22塑膠製品製造業,220塑膠製品,,,,,
鑫鼎工業有限公司,13000250,,屏東縣萬巒鄉佳佐村富興路32-5號,屏東縣萬巒鄉佳佐村,潘龍海,54798405,有限公司,,1040120,生產中,25金屬製品製造業,251金屬刀具、手工具及模具,,其他汽車零件,,120.597534,22.56911
禾新電子有限公司,99666080,07610013015195,屏東縣屏東市清溪里清進巷164之14號,屏東縣屏東市清溪里,李易奇,89684907,有限公司,0760302,0760310,生產中,27電腦、電子產品及光學製品製造業,272通訊傳播設備、273視聽電子產品,,電子線路基板裝配，收錄音機裝配,,120.46431,22.65116
億融金屬股份有限公司,99665965,08610013100513,屏東縣屏東市華山里大連路20巷91號,屏東縣屏東市華山里,王全義,86679583,股份有限公司,0860620,0870113,生產中,14木竹製品製造業、25金屬製品製造業,140木竹製品、259其他金屬製品,,流理臺,,120.509483,22.6896515
興磊砂石有限公司,13000024,,屏東縣車城鄉福安村福安路2之63號,屏東縣車城鄉福安村,李柔萱,27610069,有限公司,,1000308,生產中,23非金屬礦物製品製造業、23非金屬礦物製品製造業,239其他非金屬礦物製品,,砂、石,土石,120.711761,22.07045
貴屏汽車企業有限公司,99666176,07910013100512,屏東縣屏東市安鎮里大豐路11號,屏東縣屏東市安鎮里,郭明貴,23382310,有限公司,0790912,0791024,生產中,30汽車及其零件製造業,302車體,,車體打造、修理,,120.47271,22.6667042
協浤企業股份有限公司盈裕廠,99699260,06010099001549,屏東縣東港鎮朝安里新生一路46號,屏東縣東港鎮朝安里,陳盈喜,91378875,股份有限公司,0580101,0601023,生產中,33其他製造業,339未分類其他製品,,冷藏魚蝦類（漁業用）,,120.444687,22.4666748
豐文印刷廠,99665693,05810099007634,屏東縣潮州鎮潮州里建基路１１８號,屏東縣潮州鎮潮州里,方吳瓊瑩,92404205,獨資,0580101,0591231,生產中,16印刷及資料儲存媒體複製業,160印刷及資料儲存媒體複製,,印刷品,,120.541512,22.5506821
日高工程實業股份有限公司屏東廠,99665583,08310013073852,屏東縣鹽埔鄉新二村維新路二一巷一二號,屏東縣鹽埔鄉新二村,王嘉慶,04938839,股份有限公司,0830526,0830826,生產中,15紙漿、紙及紙製品製造業、29機械設備製造業、25金屬製品製造業,152瓦楞紙板及紙容器、293通用機械設備、251金屬刀具、手工具及模具、291金屬加工用機械設備、292其他專用機械設備,,機械設備製造,,120.540993,22.72896
有善企業有限公司內埔廠,99665634,,屏東縣內埔鄉豐田村建工路8之1號,屏東縣內埔鄉豐田村,許鈞棋,23493081,有限公司,,0901113,生產中,22塑膠製品製造業,220塑膠製品,,塑膠製品（塑膠碎片）,ＰＥ、ＰＰ、未發泡ＰＳ、ＰＶＣ,120.543236,22.6384964
加烽有限公司屏東廠,99666228,08810013068747,屏東縣萬丹鄉社上村萬丹路3段332巷8號,屏東縣萬丹鄉社上村,黃美玉,16983421,有限公司,0881122,0890103,生產中,25金屬製品製造業,252金屬結構及建築組件,,鐵件、欄杆、鐵、捲門工程,鋼材、鐵材,120.47821,22.621809
庠懋食品企業社,13000219,,屏東縣屏東市豐源里公園東路49號1樓,屏東縣屏東市豐源里,陳麗慧,83845856,獨資,,1030620,生產中,08食品製造業、08食品製造業,089其他食品,,,,,
屏榮實業股份有限公司,99665517,06610099041630,屏東縣屏東市橋南里工業環路4號,屏東縣屏東市橋南里,林嘉琪,90001944,股份有限公司,0580101,0680815,生產中,08食品製造業,089其他食品、082水產加工,,冷凍烤鰻（白燒鰻調製鰻調製蝦）,,120.502266,22.6607952
崁頂義興麻油廠,99699594,,屏東縣崁頂鄉崁頂村中正路81號1樓,屏東縣崁頂鄉崁頂村,吳振吉,91486262,獨資,,0930227,生產中,08食品製造業,089其他食品,,麻油,,120.509674,22.5125027
"洤 精密科技有限公司",13000251,,屏東縣萬巒鄉萬巒村民和路70號,屏東縣萬巒鄉萬巒村,鍾京修,54507960,有限公司,,1040128,生產中,33其他製造業,332醫療器材及用品,,,,,
合成碾米廠,99665974,06510099044665,屏東縣潮州鎮三和里延平路237號,屏東縣潮州鎮三和里,鄞明成,92150103,獨資,0650401,0650609,生產中,08食品製造業,086碾榖、磨粉及澱粉製品,,白米、糯米、米糠、碎米,,120.540169,22.5572968
吉順億金屬有限公司,13000564,,屏東縣長治鄉繁昌村16鄰中山路160號,屏東縣長治鄉繁昌村,白順旭,42817321,有限公司,,1080902,生產中,24基本金屬製造業,242鋁,,鋁,,120.580887,22.7187214
召信企業股份有限公司里港廠,99665653,08510099403251,屏東縣里港鄉三廍村三和路119之87號,屏東縣里港鄉三廍村,黃正德,86898644,股份有限公司,0850408,0851206,生產中,19其他化學製品製造業,192塗料、染料及顏料,,香蕉水（塗料用溶劑）,,120.501495,22.80865
特能企業有限公司屏東廠,99665589,08810013103520,屏東縣長治鄉香楊路７９之５號,屏東縣長治鄉,李嘉興,89292677,有限公司,0880614,0881129,生產中,28電力設備及配備製造業,285家用電器,,太陽能熱水器,,120.5189,22.6666737
天青合食品股份有限公司東港廠,99666069,08510099409195,屏東縣東港鎮興農里興農路1之23號,屏東縣東港鎮興農里,鍾戊己,97143476,獨資,0851001,0860331,生產中,08食品製造業,089其他食品,,餐盒食品，團體餐食,白米、冷凍豬肉、雞肉、魚、蔬菜,120.472115,22.4891644
名立實業有限公司,99699592,,屏東縣萬丹鄉香社村巖仔路328號,屏東縣萬丹鄉香社村,林淑香,70650688,有限公司,,0930213,生產中,23非金屬礦物製品製造業,233水泥及其製品,,預拌混凝土、水泥及水泥製品,,120.46125,22.5592327
大中華生技食品股份有限公司,13000010,,屏東縣屏東市橋南里工業二路12號,屏東縣屏東市橋南里,梁國城,25091597,股份有限公司,,0991214,生產中,08食品製造業,086碾榖、磨粉及澱粉製品、089其他食品,http://www.chrysmy.com.tw,麵包、西點,,120.497269,22.6620255
第一電阻電容器股份有限公司屏東廠,99665544,06910099095803,屏東縣屏東市橋南里工業三路18號,屏東縣屏東市橋南里,李尚,18936109,股份有限公司,0580101,0720304,生產中,26電子零組件製造業,264光電材料及元件、269其他電子零組件,http://www.firstohm.com.tw,電阻器,,120.499039,22.6585274
正皓機器廠,99666272,07110099110737,屏東縣屏東市楠樹里福州街21號,屏東縣屏東市楠樹里,湯鑫堯,90774048,獨資,0580101,0710716,生產中,29機械設備製造業,293通用機械設備,,,,,
泓達化工股份有限公司屏南廠,99665859,07810099280187,屏東縣枋寮鄉東海村精進路24、24之1、26號,屏東縣枋寮鄉東海村,呂文局,23418128,股份有限公司,0780620,0810926,生產中,19其他化學製品製造業,199未分類其他化學製品,http://www.ylresin.com,樹脂油、樹脂液、精、,,120.576691,22.4075832
台灣農畜產工業股份有限公司農科廠,81100070,,屏東縣長治鄉德和村神農東路28號,屏東縣長治鄉德和村,張華欣,90460840,股份有限公司,,1071219,生產中,08食品製造業,081肉類加工,,,,,
大聚便當有限公司,99699663,,屏東縣內埔鄉豐田村興中2巷26號,屏東縣內埔鄉豐田村,林國榮,70659689,有限公司,,0940715,生產中,08食品製造業,089其他食品,,即時餐食－餐盒食品、團體膳食、外燴、其他食品,,120.551254,22.6284275
屏九農農科生技股份有限公司,81100014,,屏東縣長治鄉德和村農科路33號,屏東縣長治鄉德和村,郭茂川,28531893,股份有限公司,,0980916,生產中,08食品製造業,089其他食品,,甜菊、香水檸檬、沙巴蛇草、香茅,,120.5332,22.7129936
明遠塑膠企業社,S1300249,,屏東縣萬丹鄉新鐘村大勇路349巷47號,屏東縣萬丹鄉新鐘村,吳信農,98927222,獨資,,1090624,生產中,22塑膠製品製造業,220塑膠製品,,,,,
政億窗飾材料股份有限公司屏東廠,99665657,07910013016197,屏東縣鹽埔鄉仕絨村民意路65號,屏東縣鹽埔鄉仕絨村,李宏威,89701048,股份有限公司,0790228,0790509,生產中,25金屬製品製造業,259其他金屬製品,,窗簾軌、百葉窗上下樑、筒簾及百葉筒零件,,120.547211,22.7656822
安得烈股份有限公司,99665520,,屏東縣內埔鄉豐田村建工路3號,屏東縣內埔鄉豐田村,劉芝佐,97425469,股份有限公司,,0900608,生產中,25金屬製品製造業、29機械設備製造業,259其他金屬製品、293通用機械設備、251金屬刀具、手工具及模具,http://WWW.FEDERALLOCK.COM.TW,其他金屬製品,,120.543289,22.6391945
寶旺企業行,S1300272,,屏東縣里港鄉土庫村定遠路80-2號,屏東縣里港鄉土庫村,胡金聘,87669015,獨資,,1090928,生產中,23非金屬礦物製品製造業,239其他非金屬礦物製品,,,,,
台灣青啤股份有限公司屏東龍泉啤酒廠,99699649,,屏東縣內埔鄉東寧村北寧路448、452、456號,屏東縣內埔鄉東寧村,陳玉蓮,70770430,股份有限公司,,0940429,生產中,09飲料製造業,091酒精飲料,,啤酒、飲料,,120.566528,22.62462
盛發企業行,S1300162,,屏東縣鹽埔鄉仕絨村民意路54-3號,屏東縣鹽埔鄉仕絨村,鄭明發,90987160,獨資,,1090608,生產中,08食品製造業,087動物飼品,,,,,
帝興樹脂股份有限公司,99665790,07810099160017,屏東縣枋寮鄉東海村永翔路27號,屏東縣枋寮鄉東海村,塗瑾穎,23224679,股份有限公司,0780105,0790907,生產中,18化學原材料、肥料、氮化合物、塑橡膠原料及人造纖維製造業,184塑膠及合成橡膠原料,,粉體塗料用樹脂,,120.574638,22.4112225
會昌實業股份有限公司屏東二廠,81200025,,屏東縣長治鄉德和村園西二路36號2樓,屏東縣長治鄉德和村,孫翕泰,04208143,股份有限公司,,1050910,生產中,08食品製造業,089其他食品,,一般食品／保健類粉狀食品／飲品,,120.533524,22.7158146
金皇企業股份有限公司屏南三廠,99665773,08010099322069,屏東縣枋寮鄉東海村精進路27號,屏東縣枋寮鄉東海村,陳思明,85807913,股份有限公司,0801008,0820813,生產中,32家具製造業,322金屬家具、321非金屬家具,,金屬傢俱，非金屬傢俱．其他,,120.576546,22.40714
國匯液化煤氣分裝股份有限公司,99666108,06910099136412,屏東縣東港鎮興東里沿海路30號,屏東縣東港鎮興東里,林正芳,91882164,股份有限公司,0580101,0691223,生產中,25金屬製品製造業,254金屬加工處理,,金屬表面處理,,120.463989,22.4692726
正茂企業股份有限公司,99665576,05810099008696,屏東縣東港鎮朝安里新生二路23號,屏東縣東港鎮朝安里,張滿盈,91248374,股份有限公司,0580101,0600619,生產中,33其他製造業,339未分類其他製品,,,,,
東昌度量衡器工廠有限公司屏東廠,99666099,08110013066142,屏東縣屏東市大洲里清進巷36號,屏東縣屏東市大洲里,劉頂惠,85816119,有限公司,0810526,0821218,生產中,29機械設備製造業,293通用機械設備,,電子磅秤,,120.464493,22.6410656
東利螺絲行,99699575,,屏東縣屏東市清溪里建國路366號,屏東縣屏東市清溪里,葉天從,95996907,獨資,,0921024,生產中,25金屬製品製造業,259其他金屬製品,,螺絲、螺帽,,120.468979,22.6603012
四福汽車配件廠有限公司,99666294,07110099073718,屏東縣屏東市清溪里興中巷15之5號,屏東縣屏東市清溪里,郭阿科,90774700,有限公司,0580101,0710724,生產中,30汽車及其零件製造業,303汽車零件,,汽車用電線組合,,120.4698,22.65906
戎的魚店有限公司,13000215,,屏東縣潮州鎮三星里潮州路1152號,屏東縣潮州鎮三星里,王佳玲,70418633,有限公司,,1030609,生產中,08食品製造業,082水產加工,,,,,
陛優實業股份有限公司屏東廠,99665568,,屏東縣里港鄉三廍村三和路119之88號,屏東縣里港鄉三廍村,林泰宏,22827547,股份有限公司,,0900713,生產中,21橡膠製品製造業、14木竹製品製造業,210橡膠製品、140木竹製品,,防舷材、滾輪,,120.501495,22.80865
齊集有限公司屏東廠,99666083,08810099064437,屏東縣新園鄉新園村媽祖路407巷2弄13號,屏東縣新園鄉新園村,蔡洋鵑,84736027,有限公司,0880604,0880708,生產中,08食品製造業,087動物飼品,,飼料添加物之配製（薄片）,,120.448418,22.5162582
金韋企業行,S1300237,,屏東縣屏東市凌雲里田中5-18號,屏東縣屏東市凌雲里,韋銘法,67818184,獨資,,1090622,生產中,25金屬製品製造業,252金屬結構及建築組件,,,,,
展資國際有限公司,13000454,,屏東縣九如鄉玉泉村中庄街71巷75號,屏東縣九如鄉玉泉村,陳明志,24731152,有限公司,,1060927,生產中,25金屬製品製造業,259其他金屬製品,,排煙風管．防火排煙風管．空調風管．廚房排煙風管．隧道排煙風管．其他特殊風管,,120.504494,22.7229176
利盈泰企業社,13000069,,屏東縣東港鎮興農里環美路23號,屏東縣東港鎮興農里,蔡富東,09027395,獨資,,1000926,生產中,18化學原材料、肥料、氮化合物、塑橡膠原料及人造纖維製造業、18化學原材料、肥料、氮化合物、塑橡膠原料及人造纖維製造業、19其他化學製品製造業,199未分類其他化學製品,,泥碳土等,,120.470711,22.4872169
禾昇橡膠工業有限公司,13000031,,屏東縣萬巒鄉泗溝村永全路2-7號,屏東縣萬巒鄉泗溝村,藍紹禎,28590013,有限公司,,1000419,生產中,21橡膠製品製造業、21橡膠製品製造業,210橡膠製品,http://www.balata.com.tw/about-us.html,廢橡膠粒,,120.583405,22.5887337
瑞德碾米工廠,99666095,05810099010044,屏東縣新園鄉仙吉村仙隆路88號,屏東縣新園鄉仙吉村,林清長,91487403,獨資,0580101,0611006,生產中,08食品製造業,084動植物油脂、086碾榖、磨粉及澱粉製品,,白米、糙米、米糠,,120.457657,22.5442677
聖州企業股份有限公司第二廠,99666013,07710013060354,屏東縣萬丹鄉田厝村惠崙路682號,屏東縣萬丹鄉田厝村,楊明舜,07992639,股份有限公司,0770614,0771220,生產中,12成衣及服飾品製造業、22塑膠製品製造業,121成衣、220塑膠製品,,汽車之車套及椅套,,120.467453,22.589344
群力精密科技股份有限公司,13000226,,屏東縣里港鄉鐵店村里港路415號,屏東縣里港鄉鐵店村,詹勳弘,55963850,股份有限公司,,1030806,生產中,24基本金屬製造業、25金屬製品製造業、30汽車及其零件製造業,241鋼鐵、252金屬結構及建築組件、254金屬加工處理、303汽車零件,,１．金屬結構及建築組件２．金屬處理３．汽車零件４．鋼鐵（伸縮縫．防撞鋼板．輪圈）,,120.504562,22.784277
力厲企業股份有限公司屏東三廠,99665926,08810099064246,屏東縣屏東市橋南里工業四路12號,屏東縣屏東市橋南里,陳振光,30872024,股份有限公司,0880529,0880820,生產中,30汽車及其零件製造業,303汽車零件,,啟動馬達外殼、發電機外殼,,120.500404,22.658783
貴景企業有限公司,13000007,,屏東縣東港鎮興東里沿海路58-1號,屏東縣東港鎮興東里,洪恒雄,89840436,有限公司,,0991124,生產中,31其他運輸工具及其零件製造業、31其他運輸工具及其零件製造業,311船舶及浮動設施,,柴油引擎、引擎修理,,120.462822,22.4656124
石屏企業行,13000201,,屏東縣里港鄉三廍村三和路119-72號,屏東縣里港鄉三廍村,許國煌,99535462,獨資,,1030226,生產中,23非金屬礦物製品製造業,239其他非金屬礦物製品,,其他非金屬礦物製品、２分３分６分砂,,120.501495,22.80865
宏鼎鋼鐵興業股份有限公司,13000340,,屏東縣新園鄉新園村媽祖路407巷5號,屏東縣新園鄉新園村,盧柏君,59285713,股份有限公司,,1050830,生產中,25金屬製品製造業,252金屬結構及建築組件、254金屬加工處理,,鋼板、鋼管、伸縮縫,鋼鐵材,120.44751,22.5169373
景欣塑膠股份有限公司,99665525,08210013051753,屏東縣鹽埔鄉洛陽村四維路24號,屏東縣鹽埔鄉洛陽村,蔡双喜,16017105,股份有限公司,0820419,0830510,生產中,22塑膠製品製造業,220塑膠製品,,塑膠袋,,120.5225,22.7357311
甲頂混凝土有限公司,99699831,,屏東縣東港鎮船頭里船頭路45之6號,屏東縣東港鎮船頭里,謝枝紋,70420363,有限公司,,0980729,生產中,23非金屬礦物製品製造業,233水泥及其製品,,預拌混凝土,,120.469032,22.4640961
旭順生技有限公司,13000464,,屏東縣屏東市新興里復興南路一段505巷5號,屏東縣屏東市新興里,許紘瑋,57146103,有限公司,,1061209,生產中,08食品製造業,087動物飼品,,動物飼料用添加劑（目前生產為免登產品）,,120.486305,22.6442623
全峰企業社,S1300245,,屏東縣萬巒鄉新厝村新平路2-3號,屏東縣萬巒鄉新厝村,許德,62931139,獨資,,1090622,生產中,25金屬製品製造業,254金屬加工處理,,,,,
臺灣汎生製藥廠股份有限公司屏東農科分公司,81100042,,屏東縣長治鄉德和村園東一街10、12號,屏東縣長治鄉德和村,蔡豐吉,85615014,股份有限公司,,1030401,生產中,20藥品及醫用化學製品製造業,200藥品及醫用化學製品,,藥品及醫用化學製品（注射劑）,,120.539978,22.709404
晨欣食品有限公司,99699644,,屏東縣萬巒鄉佳和村佳興路77-5號,屏東縣萬巒鄉佳和村,簡莎俐,12622290,有限公司,,0940418,生產中,08食品製造業,089其他食品,,佃煮黑豆，泡菜等，薑片，水煮蓮藕,,120.589577,22.5706215
聯夏食品工業股份有限公司枋寮廠,99665857,06610099183849,屏東縣枋寮鄉太源村中山路3段101號,屏東縣枋寮鄉太源村,林慧美,80677588,股份有限公司,0580101,0670704,生產中,08食品製造業,083蔬果加工、089其他食品,,豆類精選磨光，冷藏蔬果，加糖可,,120.58387,22.4174728
益擴實業有限公司,13000111,,屏東縣萬丹鄉廣安村西勢尾街52號,屏東縣萬丹鄉廣安村,吳糴益,53810198,有限公司,,1010629,生產中,08食品製造業、08食品製造業,081肉類加工,,豬肉、貢丸,豬肉、糖、鹽、豬油,120.484909,22.6099186
聖兒莉國際股份有限公司,99699509,08410099653691,屏東縣潮州鎮蓬萊里瑞豐路2號,屏東縣潮州鎮蓬萊里,羅宏丞,97362350,股份有限公司,0841017,0841226,生產中,19其他化學製品製造業,194化粧品,,化粧品,,120.528282,22.5538559
俊榮食品行,S1300264,,屏東縣竹田鄉竹田村中正路171-6號,屏東縣竹田鄉竹田村,鍾聖賜,40796779,獨資,,1090720,生產中,08食品製造業,083蔬果加工,,,,,
新新企業社,S1300068,,屏東縣竹田鄉福田村和平路135號,屏東縣竹田鄉福田村,鄭素貞,37677476,獨資,,1090629,生產中,14木竹製品製造業、14木竹製品製造業,140木竹製品,,,,,
高至實業股份有限公司,S1300131,,屏東縣新園鄉港西村興安路26號,屏東縣新園鄉港西村,王茂雄,89574839,股份有限公司,,1090602,生產中,14木竹製品製造業、14木竹製品製造業,140木竹製品,,,,,
翼鷲股份有限公司,13000325,,屏東縣屏東市清溪里建國路360巷22號,屏東縣屏東市清溪里,蕭鼎洲,42860425,股份有限公司,,1050614,生產中,19其他化學製品製造業,194化粧品,,化粧品,,120.466484,22.6594448
新峰企業行,S1300273,,屏東縣林邊鄉鎮安村中山路670-1號,屏東縣林邊鄉鎮安村,張簡慶幸,14479094,獨資,,1091007,生產中,23非金屬礦物製品製造業,239其他非金屬礦物製品,,,,,
品芳食品廠,13000262,,屏東縣屏東市安鎮里大安街17號,屏東縣屏東市安鎮里,陳銘士,90321192,獨資,,1040424,生產中,08食品製造業,089其他食品,,醬油．辣椒．食用醋,黃豆．砂糖．黑豆．小麥,120.477654,22.6678829
台迪興業有限公司屏東廠,13000122,,屏東縣屏東市清溪里建國路241巷11號,屏東縣屏東市清溪里,林秋月,97202018,有限公司,,1011015,生產中,22塑膠製品製造業、22塑膠製品製造業,220塑膠製品,,泡棉等,泡棉,120.46949,22.6568375
鑫德水泥製品有限公司東海分公司,99666202,,屏東縣枋寮鄉太源村中山路3段71號,屏東縣枋寮鄉太源村,周季璿,84834414,有限公司,,0920123,生產中,23非金屬礦物製品製造業,233水泥及其製品,,水泥及水泥製品,,120.585175,22.4129219
吉雄造船有限公司,99699569,,屏東縣新園鄉共和村光復路9巷27之1號,屏東縣新園鄉共和村,許德川,80003985,有限公司,,0920904,生產中,31其他運輸工具及其零件製造業,311船舶及浮動設施,,船舶及其零件,,120.441353,22.4729786
亨億企業有限公司繁華廠,13000579,,屏東縣長治鄉繁昌村中山路150-10號,屏東縣長治鄉繁昌村,陳享賓,27597447,有限公司,,1081223,生產中,14木竹製品製造業,140木竹製品,,木竹製品,,120.583229,22.7183113
信發企業社,99699562,,屏東縣屏東市清溪里建國路332巷8號,屏東縣屏東市清溪里,吳和益,19975298,獨資,,0920807,生產中,29機械設備製造業、25金屬製品製造業,291金屬加工用機械設備、251金屬刀具、手工具及模具,,喇叭鎖零件,,120.468796,22.6613255
梯記製冰廠,99665954,07810013092082,屏東縣屏東市萬年里復興路148號,屏東縣屏東市萬年里,黃西蜀,76772245,獨資,0780824,0780919,生產中,33其他製造業,339未分類其他製品,,,,,
仁宏金企業有限公司,99665729,06810099229617,屏東縣屏東市橋南里工業三路9號,屏東縣屏東市橋南里,蘇聖智,90748458,有限公司,0580101,0690722,生產中,22塑膠製品製造業,220塑膠製品,,ＰＰ編織袋,,120.499771,22.6587868
上芳食品股份有限公司,99699523,06410099111608,屏東縣九如鄉東寧村東寧路3號,屏東縣九如鄉東寧村,陳麗珠,22394669,股份有限公司,0580101,0650721,生產中,08食品製造業、09飲料製造業,081肉類加工、083蔬果加工、089其他食品、092非酒精飲料,,蔬果汁、茶類飲料、調味飲料,,120.510307,22.7355385
建昌工作所,S1300156,,屏東縣萬丹鄉興全村興國路35號一樓,屏東縣萬丹鄉興全村,黃鳳淑,95979175,獨資,,1090608,生產中,25金屬製品製造業,254金屬加工處理,,,,,
明利製冰廠股份有限公司,99665638,05810099003468,屏東縣東港鎮豐漁里豐漁街22號,屏東縣東港鎮豐漁里,陳明利,91337496,股份有限公司,0580101,0590501,生產中,33其他製造業,339未分類其他製品,,冰塊,,120.44429,22.4644146
恆品實業股份有限公司屏東廠,99666113,07610099330947,屏東縣萬丹鄉四維村頂本路175號,屏東縣萬丹鄉四維村,郭錦城,85970718,股份有限公司,0760923,0781218,生產中,18化學原材料、肥料、氮化合物、塑橡膠原料及人造纖維製造業、19其他化學製品製造業,192塗料、染料及顏料、199未分類其他化學製品、184塑膠及合成橡膠原料,,樹脂塗料、玻璃纖維、強化塑膠製品,,120.489967,22.60388
宏益冷凍食品股份有限公司,99665510,08910099907300,屏東縣內埔鄉豐田村建邦路6號,屏東縣內埔鄉豐田村,蔡秋棠,22822584,股份有限公司,0891129,0900116,生產中,08食品製造業,082水產加工、089其他食品,http://w.w.w.luckyholder.com.tw,冷凍、白燒鰻、鰻魚、冷凍吳郭魚片、冷凍海鱺魚片、冷凍調理鰻,,120.54805,22.6432552
亞亮生技股份有限公司,81100057,,屏東縣長治鄉德和村園西二路2號3樓、10號3樓,屏東縣長治鄉德和村,吳穆勳,53941924,股份有限公司,,1051107,生產中,19其他化學製品製造業、18化學原材料、肥料、氮化合物、塑橡膠原料及人造纖維製造業,191農藥及環境用藥、183肥料及氮化合物,,生物性農藥、微生物肥料,,120.532578,22.71467
弘峻家具行,S1300017,,屏東縣竹田鄉大湖村大成路101號,屏東縣竹田鄉大湖村,林寶秀,15698645,獨資,,1090527,生產中,32家具製造業,321非金屬家具,,,,,
禾松食品生技有限公司,S1300155,,屏東縣屏東市華山里大連路20巷160號,屏東縣屏東市華山里,紀瀚傑,54775183,有限公司,,1090608,生產中,08食品製造業,089其他食品,,,,,
國盛食品股份有限公司,99699750,,屏東縣內埔鄉豐田村興中一巷22號,屏東縣內埔鄉豐田村,譚曉智,23309326,股份有限公司,,0960919,生產中,08食品製造業,089其他食品,,豬肉、牛肉、蝦仁,,120.553513,22.6269684
綠晁科技股份有限公司,90P00017,,屏東縣屏東市前進里屏東加工出口區園東街6號,屏東縣屏東市前進里,侯健才,25154972,股份有限公司,,0991018,生產中,26電子零組件製造業、28電力設備及配備製造業,264光電材料及元件、269其他電子零組件、281發電、輸電及配電機械,http://www.ablytek.com.tw,太陽能模組,矽晶太陽能電池、鋁框、強化玻璃、ＢＡＣＫＳＨＥＥＴ、ＥＶＡ、Ｊ－ＢＯＸ,120.457779,22.6447926
松業冷凍食品股份有限公司,S1300190,,屏東縣屏東市龍華里龍華路300之一號,屏東縣屏東市龍華里,洪紅山,23951451,有限公司,,1090617,生產中,08食品製造業,081肉類加工,,,,,
立盛網具企業有限公司,S1300141,,屏東縣新園鄉五房村五房路145號,屏東縣新園鄉五房村,黃燦美,16366882,有限公司,,1090603,生產中,11紡織業,115紡織品,,,,,
強佑國際貿易有限公司,13000491,,屏東縣屏東市信和里忠孝路468號,屏東縣屏東市信和里,陳俊樺,82932500,有限公司,,1070613,生產中,08食品製造業,081肉類加工,,,,,
翔威水產股份有限公司,13000235,10310013600217,屏東縣東港鎮船頭里船頭路33-5號,屏東縣東港鎮船頭里,孫麗秋,53895301,股份有限公司,1030918,1031023,生產中,08食品製造業,082水產加工,,冷凍魚類,鮪魚、水、冷媒,120.467216,22.4638615
元凱機械工程有限公司,99699794,,屏東縣新園鄉新園村媽祖路513之1號,屏東縣新園鄉新園村,廖志榮,29110759,有限公司,,0971014,生產中,25金屬製品製造業,253金屬容器,,壓力容器、金屬貯槽,,120.443169,22.5122185
閎郁開發有限公司,99699746,,屏東縣新園鄉新園村媽祖路523號,屏東縣新園鄉新園村,翁閎駿,28771632,有限公司,,0960725,生產中,23非金屬礦物製品製造業、25金屬製品製造業、29機械設備製造業,232耐火、黏土建材及其他陶瓷製品、239其他非金屬礦物製品、251金屬刀具、手工具及模具、253金屬容器、259其他金屬製品、292其他專用機械設備、293通用機械設備,,機械零件鑄造,,120.441048,22.5098858
天狐工業有限公司新園廠,99666054,08210013087749,屏東縣新園鄉新園村媽祖路399號,屏東縣新園鄉新園村,黃仁平,23573015,有限公司,0820616,0840306,生產中,33其他製造業,331育樂用品,,木材模型玩具，塑膠模型玩具,,120.447029,22.51631
健富造船股份有限公司,99666132,06710099210734,屏東縣新園鄉共和村光復路15之1號,屏東縣新園鄉共和村,曾耀鋒,91915046,股份有限公司,0580101,0681211,生產中,31其他運輸工具及其零件製造業,311船舶及浮動設施,,漁船修造（５００噸以下）、木船,,120.443771,22.47342
振順製冰股份有限公司,99666220,06210099164383,屏東縣新園鄉共和村光復路149號,屏東縣新園鄉共和村,郭品宏,91812816,股份有限公司,0580101,0630204,生產中,08食品製造業,089其他食品,,冰塊、冷藏食品（蔬菜、魚、肉）,,120.440323,22.475296
金洲海洋科技股份有限公司,99666048,06710099097238,屏東縣新園鄉港西村興安路12號,屏東縣新園鄉港西村,陳加仁,91871595,股份有限公司,0580101,0680205,生產中,,,,漁網、漁網線、繩、纜、網、氈、毯,,120.462685,22.5142384
有善企業有限公司,99666058,08010013051459,屏東縣新園鄉仙吉村仙吉路2號,屏東縣新園鄉仙吉村,許鈞棋,23493081,有限公司,0800506,0800626,生產中,22塑膠製品製造業,220塑膠製品,,塑膠製品（塑膠碎片）,ＰＥ、ＰＰ、未發泡ＰＳ、ＰＶＣ,120.459709,22.5384159
百翔資源有限公司,13000573,,屏東縣萬丹鄉廣安村萬丹路二段281巷23號,屏東縣萬丹鄉廣安村,張詩心,54995335,有限公司,,1081111,生產中,08食品製造業,087動物飼品,,動物飼品,,120.486305,22.6068382
穩發企業行,S1300166,,屏東縣萬丹鄉廣安村西勢尾街18號,屏東縣萬丹鄉廣安村,楊清榮,90977070,獨資,,1090611,生產中,25金屬製品製造業,252金屬結構及建築組件,,,,,
葳錦興業股份有限公司,90P00025,,屏東縣屏東市大洲里屏東加工出口區10鄰南一路2號及6號,屏東縣屏東市大洲里,陳金枝,12625938,股份有限公司,,1000214,生產中,29機械設備製造業,293通用機械設備,,ＲＯ純水機製造機、軟水器製造,,120.456169,22.6383514
基福工業股份有限公司,13000165,,屏東縣屏東市前進里大溪路311號,屏東縣屏東市前進里,張泰安,54230303,股份有限公司,,1020627,生產中,30汽車及其零件製造業、30汽車及其零件製造業,303汽車零件,http://www.chiefcvt.com.tw,ＣＶＴ（無段變速器）,鋁錠、鋼捲,120.4509,22.6386452
千盟模具有限公司屏南廠,99699682,,屏東縣枋寮鄉東海村永翔路45號,屏東縣枋寮鄉東海村,彭世煌,76477193,有限公司,,0941125,生產中,25金屬製品製造業,251金屬刀具、手工具及模具,,模具、其他金屬製品、精密陶瓷,,120.570663,22.4092331
佛泰企業股份有限公司,99665735,06210099122722,屏東縣萬丹鄉萬生村萬壽路1段67號,屏東縣萬丹鄉萬生村,陳一民,90719637,股份有限公司,0580101,0640109,生產中,22塑膠製品製造業,220塑膠製品,,塑膠編織袋、三明治袋、塑膠粒、布,,120.501656,22.5828323
冠軍環保有限公司,13000332,,屏東縣屏東市清溪里15鄰建國路364號,屏東縣屏東市清溪里,楊宗憲,16477249,有限公司,,1050802,生產中,30汽車及其零件製造業,303汽車零件,,懸吊避震器,,120.468033,22.659132
漢聖製藥科技股份有限公司,99699577,,屏東縣屏東市橋南里工業環路二０號,屏東縣屏東市橋南里,劉崇喜,16453345,股份有限公司,,0921114,生產中,19其他化學製品製造業、20藥品及醫用化學製品製造業,194化粧品、200藥品及醫用化學製品,,丸劑、散劑、錠劑、膠囊劑,刺五加、茯苓、山藥、薏仁,120.50251,22.6620865
永昇冷凍食品工業股份有限公司,99699843,,屏東縣里港鄉三廍村三和路119-73、119-75號,屏東縣里港鄉三廍村,劉貴坪,83606692,股份有限公司,,0981216,生產中,08食品製造業,083蔬果加工,,毛豆，豆仁，甜玉米粒，芒果,,120.501495,22.80865
茂泰生技股份有限公司,81100063,,屏東縣長治鄉德和村園西二路16號4樓,屏東縣長治鄉德和村,華偉傑,54108485,股份有限公司,,1060807,生產中,08食品製造業,089其他食品,http://www.kavulungan.com.tw,濾掛式咖啡．半磅式咖啡豆．咖啡豆烘焙包裝及銷售,,120.5333,22.71488
鮮大師食品有限公司,99665708,08910099907119,屏東縣崁頂鄉北勢村後部路24之10號,屏東縣崁頂鄉北勢村,周伯彥,28938669,有限公司,0891015,0900104,生產中,08食品製造業,089其他食品,,其他食品,,120.486572,22.52248
強匠冷凍食品股份有限公司,99665672,08210099076021,屏東縣內埔鄉豐田村建國路16、16-1號,屏東縣內埔鄉豐田村,石造華,89715916,股份有限公司,0820706,0830708,生產中,08食品製造業,081肉類加工、082水產加工、089其他食品,,各種魚產品、冷凍豬肉調理食品加工製造（花枝塊、雞塊、肉排、蝦,,120.543121,22.6401577
醫世代生物科技股份有限公司,13000637,,屏東縣新園鄉新園村媽祖路407巷1弄8號,屏東縣新園鄉新園村,毛岳郎,28730675,股份有限公司,,1090522,生產中,19其他化學製品製造業,194化粧品,,,,,
澄源松實業有限公司佳佐廠,99699547,07810013024285,屏東縣萬巒鄉佳和村佳興路34號,屏東縣萬巒鄉佳和村,陳周豐,81205334,有限公司,0780321,0780522,生產中,26電子零組件製造業,262被動電子元件,http://promover.com.tw,蜂鳴器、變壓器,,120.596352,22.5728683
保證責任屏東縣金桔生產合作社,99699561,,屏東縣九如鄉東寧村新庄路112之7號,屏東縣九如鄉東寧村,劉建宏,13613798,合作社,,0920707,生產中,09飲料製造業、08食品製造業,092非酒精飲料、089其他食品,,養生飲品、原汁,,120.492966,22.722044
亞美果企業有限公司,13000120,,屏東縣屏東市瑞光里和生路一段300號,屏東縣屏東市瑞光里,許銘裕,70742499,有限公司,,1010921,生產中,19其他化學製品製造業、19其他化學製品製造業,194化粧品,,,,,
天明製藥股份有限公司農科分公司化妝品廠,81200028,,屏東縣長治鄉德和村神農路3號4樓,屏東縣長治鄉德和村,王伯綸,81002274,股份有限公司,,1061024,生產中,19其他化學製品製造業,194化粧品,http://www.tcmm.com.tw/museum01.php,菘藍植萃精華霜,,120.53772,22.7136364
鈞惠工業股份有限公司,99665883,07810013028854,屏東縣萬丹鄉社口村加社路三六一號,屏東縣萬丹鄉社口村,馮淑蒂,23246934,股份有限公司,0780407,0780615,生產中,22塑膠製品製造業,220塑膠製品,,保麗龍,,120.4709,22.6147785
源新科貿有限公司,13000273,,屏東縣萬巒鄉佳和村佳興路79號,屏東縣萬巒鄉佳和村,李冠毅,27217376,有限公司,,1040708,生產中,25金屬製品製造業、25金屬製品製造業,259其他金屬製品,,鐵錠,,120.589584,22.57063
鑫匯賢工業有限公司,13000329,,屏東縣屏東市清溪里15鄰和生路三段650巷16號,屏東縣屏東市清溪里,謝永賢,28607099,有限公司,,1050714,生產中,25金屬製品製造業,259其他金屬製品,,螺絲,,120.465164,22.6573257
鳳勝實業股份有限公司恆春廠,99665596,08010099073007,屏東縣車城鄉福興村中山路1號,屏東縣車城鄉福興村,許進榮,16093742,股份有限公司,0800522,0810728,生產中,23非金屬礦物製品製造業,233水泥及其製品,,預拌混凝土,水泥、砂、石、爐石,120.714111,22.069191
高雄釀造股份有限公司,13000289,,屏東縣恆春鎮城西里草埔路29-1號,屏東縣恆春鎮城西里,鍾文清,27221890,股份有限公司,,1041030,生產中,09飲料製造業,091酒精飲料,,啤酒,,120.737976,22.0077152
吉晶冰行,13000333,,屏東縣屏東市崇蘭里崇德一路120號,屏東縣屏東市崇蘭里,林世昌,17497601,獨資,,1050802,生產中,08食品製造業,089其他食品,,衛生冰塊,,120.47924,22.6849365
琪鑫電子工業股份有限公司,99665566,07310099036443,屏東縣屏東市橋南里工業四路28號,屏東縣屏東市橋南里,李薇香,90703804,股份有限公司,0730423,0750912,生產中,26電子零組件製造業,269其他電子零組件,,電子自動門,,120.497589,22.65681
臺豪鋼鐵股份有限公司,99665651,06210099123288,屏東縣萬丹鄉社上村萬丹路3段295、299、293、289號,屏東縣萬丹鄉社上村,陳賜樹,91766094,股份有限公司,0580101,0630318,生產中,24基本金屬製造業、25金屬製品製造業、29機械設備製造業,241鋼鐵、249其他基本金屬、251金屬刀具、手工具及模具、291金屬加工用機械設備、292其他專用機械設備、293通用機械設備,,各種鑄鋼、鑄鐵機件、各種鑄鐵管,,120.47982,22.62334
合一生技股份有限公司南州廠,13000521,,屏東縣南州鄉溪北村糖廠路8號,屏東縣南州鄉,黃山內,29108260,股份有限公司,,1071108,生產中,20藥品及醫用化學製品製造業,200藥品及醫用化學製品,http://www.onenessbio.com.tw,皮膚用藥,,120.52079,22.4936066
台田醬園,99665947,07510099269406,屏東縣竹田鄉二崙村忠義路9巷18號,屏東縣竹田鄉二崙村,曾錫瑛,92102335,獨資,0751002,0751002,生產中,08食品製造業,089其他食品,,醬油，辣椒醬，黑醋，白醋,,120.552406,22.59032
永吉製藥股份有限公司,99666216,06610099137273,屏東縣萬丹鄉廣安村萬丹路3段91號,屏東縣萬丹鄉廣安村,侯曉玲,91725469,股份有限公司,0580101,0671127,生產中,20藥品及醫用化學製品製造業,200藥品及醫用化學製品,,半固體劑型：軟膏劑（含乳膏劑）固體劑型：糖衣錠（含膜衣錠、錠劑及顆粒劑型）及膠囊劑型,,120.48259,22.6159153
啟貿股份有限公司,13000576,,屏東縣內埔鄉豐田村23鄰興中一巷15號,屏東縣內埔鄉豐田村,吳東憲,24867538,股份有限公司,,1081118,生產中,29機械設備製造業,293通用機械設備,,通用機械設備,,120.55294,22.6274719
松醇有限公司,13000347,,屏東縣內埔鄉豐田村建新路36-1號,屏東縣內埔鄉豐田村,蔡朝淵,54796053,有限公司,,1051007,生產中,08食品製造業,081肉類加工、089其他食品,,豬排骨,,120.542671,22.63591
川榮實業股份有限公司,99665775,07610099200745,屏東縣屏東市清溪里建國路332巷43號,屏東縣屏東市清溪里,楊啟東,90758933,股份有限公司,0760526,0780620,生產中,08食品製造業,082水產加工、089其他食品,,鳳梨酵素，黃槴子色素,鳳梨頭黃槴子,120.46608,22.6611614
屏東縣東港區漁會冷凍廠,99665506,07710099181911,屏東縣東港鎮朝安里新生一路73號,屏東縣東港鎮朝安里,陳瑞龍,91321804,其他,0770203,0770321,生產中,08食品製造業,082水產加工、089其他食品,,冷凍調理食品，冷凍水產,,120.444221,22.4670773
微新生物科技股份有限公司萬丹廠,99665765,08610013147766,屏東縣萬丹鄉社上村萬丹路3段336、338號,屏東縣萬丹鄉社上村,王淑鶯,27680445,股份有限公司,0860908,0860915,生產中,18化學原材料、肥料、氮化合物、塑橡膠原料及人造纖維製造業,181化學原材料、183肥料及氮化合物,,肥料摻配,,120.480377,22.6258125
金大全企業有限公司,S1300195,,屏東縣萬丹鄉新鐘村新鐘路471巷50號,屏東縣萬丹鄉新鐘村,李崑湖,84196339,有限公司,,1090617,生產中,25金屬製品製造業,259其他金屬製品,,,,,
賀眾木業股份有限公司屏東廠,99666109,07610013113719,屏東縣萬丹鄉廣安村萬丹路2段３４３號,屏東縣萬丹鄉廣安村,連全,22675921,股份有限公司,0761017,0761229,生產中,14木竹製品製造業,140木竹製品,,木材製品、南洋白木ＪＵＴＯＮ線條,,120.486534,22.6091652
福灣莊園巧克力有限公司,13000565,,屏東縣東港鎮大潭里20鄰大鵬路118號,屏東縣東港鎮大潭里,許峰嘉,24892375,有限公司,,1080909,生產中,08食品製造業,089其他食品,,其他食品,,120.4825,22.4589119
達安企業股份有限公司屏東三廠,13000152,,屏東縣屏東市橋南里工業六路東段8號、10號,屏東縣屏東市橋南里,鄭振三,81133584,股份有限公司,,1020424,生產中,22塑膠製品製造業,220塑膠製品,,電銲面罩，工作帽,,120.497009,22.65737
兆鴻食品有限公司,99699775,,屏東縣長治鄉進興村復興路122-8、124號,屏東縣長治鄉進興村,江南求,16033800,有限公司,,0970509,生產中,08食品製造業,081肉類加工、089其他食品,,肉鬆、火腿、熱狗,豬肉、調味料,120.537361,22.679369
農生企業股份有限公司屏東冷凍廠,99665766,07610099257141,屏東縣里港鄉載興村新民路11之6號,屏東縣里港鄉載興村,楊世昌,22096182,有限公司,0760820,0770625,生產中,08食品製造業,081肉類加工,http://www.non-sheng.com.tw,生鮮冷涷禽肉（雞鴨鵝肉品）家禽屠宰場,,120.529984,22.7703857
鑫山食品廠,99699805,,屏東縣竹田鄉糶糴村永興路131號,屏東縣竹田鄉糶糴村,宋美麗,10803197,獨資,,0971210,生產中,08食品製造業,089其他食品,,醬油,,120.524612,22.5847073
財進源肉品有限公司,13000183,,屏東縣萬丹鄉上村村大圳路99號,屏東縣萬丹鄉上村村,陳美珠,54222367,有限公司,,1021108,生產中,08食品製造業、08食品製造業,081肉類加工,,生鴨肉,,120.47802,22.5974388
佳辰實業股份有限公司,99665880,07610099192904,屏東縣南州鄉壽元村大同路99號,屏東縣南州鄉壽元村,葉張繡品,36504758,股份有限公司,0760427,0761211,生產中,08食品製造業,082水產加工,http://www.just-champion.com.tw,冷凍調理鰻魚、冷凍櫻花蝦、冷凍臺灣鯛魚片、冷凍七星鱸魚片,生鰻魚、生櫻花蝦、臺灣鯛、七星鱸魚,120.5394,22.4899
大益生物科技有限公司,13000164,,屏東縣東港鎮興農里環美八街2號,屏東縣東港鎮興農里,陳信宏,53989975,有限公司,,1020627,生產中,08食品製造業、08食品製造業,089其他食品,,,,,
永大食品生技股份有限公司一廠,13000415,,屏東縣內埔鄉豐田村建工路2號,屏東縣內埔鄉豐田村,蔡耀輝,27795333,股份有限公司,,1060223,生產中,19其他化學製品製造業,193清潔用品,http://www.twydfood.com,鮮果類廢棄物再製造,,120.542542,22.6394958
鑫德水泥製品有限公司,13000305,10410013600349,屏東縣東港鎮船頭里大利路一段69之1號,屏東縣東港鎮船頭里,周季璿,84834414,有限公司,1040424,1050114,生產中,23非金屬礦物製品製造業,233水泥及其製品,,水泥及水泥製品,,120.464523,22.4649162
至茂奈米生技有限公司屏東廠,99699635,,屏東縣屏東市清溪里建國路332巷44弄49號,屏東縣屏東市清溪里,林柯端陽,27205147,有限公司,,0940222,生產中,19其他化學製品製造業,194化粧品,,工業用澱粉、乳劑化粧品、液劑化粧品、油劑化粧品、化妝品、其他未分類食品批發,樹薯澱粉、介面活性劑、香料,120.467422,22.6634827
慶洲興業有限公司,13000424,,屏東縣內埔鄉豐田村建工路12-6號,屏東縣內埔鄉豐田村,陳慶,53899778,有限公司,,1060328,生產中,33其他製造業,339未分類其他製品,,鴨毛,鴨毛．雞毛,120.544106,22.6363487
大江生醫股份有限公司美膚科技分公司,81200021,,屏東縣長治鄉德和村農科路21號,屏東縣長治鄉德和村,林詠翔,12292039,股份有限公司,,1060914,生產中,19其他化學製品製造業,194化粧品,https://www.tci-bio.com/zh-tw,面膜,,120.537094,22.7125721
新尚道企業有限公司,99699623,,屏東縣枋寮鄉太源村中山路3段67號,屏東縣枋寮鄉太源村,林月秋,13032259,有限公司,,0931203,生產中,24基本金屬製造業、23非金屬礦物製品製造業,242鋁、232耐火、黏土建材及其他陶瓷製品、233水泥及其製品,,鋁．其他金屬,,120.585175,22.4129219
虹京資源股份有限公司屏南廠,99699798,,屏東縣枋寮鄉東海村永翔路33、33之1號,屏東縣枋寮鄉東海村,王耀昇,28298045,股份有限公司,,0971111,生產中,25金屬製品製造業,259其他金屬製品,,氧化鉬、五氧化二釩,,120.573296,22.4104443
星鑽工業股份有限公司,13000072,,屏東縣長治鄉繁昌村中山路150-9號,屏東縣長治鄉繁昌村,董明仁,84429935,股份有限公司,,1001021,生產中,24基本金屬製造業、25金屬製品製造業,241鋼鐵、249其他基本金屬、254金屬加工處理,,不銹鋼、碳鋼之五金鑄件,廢鋼、鉻鐵、馬來砂、矽酸膠,120.578156,22.71826
信潮工業股份有限公司屏東廠,99666279,08610013075639,屏東縣屏東市華山里大連路20巷13號,屏東縣屏東市華山里,黃世長,89747369,股份有限公司,0860514,0870902,生產中,25金屬製品製造業,259其他金屬製品,,螺絲,,120.508217,22.6853561
順右企業有限公司,S1300128,,屏東縣新園鄉內庄村興安路168號,屏東縣新園鄉內庄村,李雅慧,70605517,有限公司,,1090602,生產中,11紡織業、11紡織業,115紡織品,,,,,
禾企木業有限公司,13000308,,屏東縣萬巒鄉佳和村佳興路95號,屏東縣萬巒鄉佳和村,劉治中,24393716,有限公司,,1050126,生產中,14木竹製品製造業,140木竹製品,,合板,,120.587051,22.5675926
台灣格瑞特工業股份有限公司屏東廠,13000502,,屏東縣屏東市前進里大溪路327、327-1號,屏東縣屏東市前進里,楊魏淑虹,25111616,股份有限公司,,1070821,生產中,30汽車及其零件製造業、25金屬製品製造業,303汽車零件、253金屬容器,http://www.taiwangreat.com,鐵桶製造,,120.450806,22.6420727
力弘工藝坊有限公司屏東廠,99666089,08510099408687,屏東縣內埔鄉豐田村建工路6號,屏東縣內埔鄉豐田村,賴國楨,86192506,有限公司,0850912,0851122,生產中,27電腦、電子產品及光學製品製造業,275量測、導航、控制設備及鐘錶,,鐘錶零件,黃銅條,120.542969,22.6391335
禾泰開發機械實業股份有限公司,13000207,,"屏東縣屏東市清溪里和生路3段720 號",屏東縣屏東市清溪里,李珠滿,53166710,股份有限公司,,1030429,生產中,22塑膠製品製造業、22塑膠製品製造業,220塑膠製品,,,,,
屏萬企業股份有限公司,13000064,,屏東縣屏東市清溪里和生路3段756巷5號,屏東縣屏東市清溪里,楊卓元,91789940,股份有限公司,,1000816,生產中,25金屬製品製造業、25金屬製品製造業,251金屬刀具、手工具及模具,,鋼鐵片,,120.465462,22.6607285
成政興企業有限公司,13000310,,屏東縣屏東市橋南里工業二路16-1號,屏東縣屏東市橋南里,劉信章,28769283,有限公司,,1050224,生產中,25金屬製品製造業,254金屬加工處理,,汽機車後避震器塗裝代工,,120.4978,22.6613617
日大金屬工業有限公司,S1300164,,屏東縣屏東市清溪里清進巷162-32號,屏東縣屏東市清溪里,石亞雯,24620091,有限公司,,1090610,生產中,25金屬製品製造業,252金屬結構及建築組件,,,,,
佳津淨水科技有限公司,13000563,,屏東縣屏東市橋南里工業一路10號,屏東縣屏東市橋南里,郭惠敏,28407178,有限公司,,1080827,生產中,28電力設備及配備製造業,285家用電器,,家用電器,,120.500206,22.6625443
機智實業股份有限公司,99666146,07410013009508,屏東縣屏東市大湖里大湖路131巷10號1樓,屏東縣屏東市大湖里,蔡忠勳,22504048,股份有限公司,0740125,0740214,生產中,26電子零組件製造業,269其他電子零組件,,閃光器、方向燈控制器,,120.490005,22.6344986
鮮而美食品工業有限公司二廠,S1300116,,屏東縣萬丹鄉上村村社皮路一段35號,屏東縣萬丹鄉上村村,吳再松,86234359,有限公司,,1090601,生產中,08食品製造業,089其他食品,,,,,
嘉頂生技股份有限公司,13000268,,屏東縣崁頂鄉崁頂村中正路1-1號,屏東縣崁頂鄉崁頂村,陳嘉有,53848639,股份有限公司,,1040606,生產中,08食品製造業,089其他食品,,海集兒、優效鐵,,120.507133,22.5095387
佳芊橡膠科技有限公司,99699727,,屏東縣屏東市長安里光復路380號1樓,屏東縣屏東市長安里,吳卓嬴,28528004,有限公司,,0960110,生產中,21橡膠製品製造業,210橡膠製品,,,,,
傑生工業股份有限公司,99699656,,屏東縣里港鄉中和村中和路３之３５號,屏東縣里港鄉中和村,莊耀銘,80012106,股份有限公司,,0940623,生產中,25金屬製品製造業、30汽車及其零件製造業,259其他金屬製品、303汽車零件,,懸吊器、其他金屬製品,,120.494881,22.8082638
津麗農坊實業,13000365,10510013600591,屏東縣東港鎮下廍里下廍路127-3號,屏東縣東港鎮下廍里,張福文,40799353,獨資,1050518,1051226,生產中,08食品製造業,083蔬果加工,,酸菜,,120.492409,22.46348
裕瑋鋁業股份有限公司九如廠,99699785,,屏東縣九如鄉東寧村東寧路15之2號,屏東縣九如鄉東寧村,鍾盆,08056929,股份有限公司,,0970808,生產中,24基本金屬製造業,242鋁,,鋁圓棒,,120.5072,22.7345467
迪貿科技股份有限公司,13000542,,屏東縣屏東市清溪里和生路三段768號,屏東縣屏東市清溪里,蔡品宏,45106605,股份有限公司,,1080325,生產中,27電腦、電子產品及光學製品製造業,273視聽電子產品,,視聽電子產品,,120.465721,22.661375
合順資源科技有限公司,13000198,,屏東縣枋寮鄉太源村中山路3段65號,屏東縣枋寮鄉太源村,蔡木麟,23647086,有限公司,,1030219,生產中,24基本金屬製造業、24基本金屬製造業、22塑膠製品製造業,249其他基本金屬、220塑膠製品,,鉛合金,廢鉛蓄電池等,120.5854,22.4114056
鉅豐生技股份有限公司,81100081,,屏東縣長治鄉德和村農園路8號,屏東縣長治鄉德和村,陳欣妤,83474480,股份有限公司,,1090812,生產中,08食品製造業,082水產加工,,,,,
富統食品股份有限公司三廠,13000412,,屏東縣萬丹鄉水泉村中興路一段750號,屏東縣萬丹鄉水泉村,黃美麗,23344294,股份有限公司,,1060218,生產中,08食品製造業,081肉類加工,http://futong.com.tw,肉制品（火腿、香腸、培根、熱狗）,豬肉、雞肉,120.479996,22.5717773
三喜產業股份有限公司,13000124,,屏東縣內埔鄉中林村大同路5段88號,屏東縣內埔鄉中林村,吳仁春,83371273,股份有限公司,,1011031,生產中,09飲料製造業,091酒精飲料,,醬油、醋、調味料,,120.5968,22.6622124
見發先進科技股份有限公司東港廠,13000208,,屏東縣東港鎮興東里沿海路68號,屏東縣東港鎮興東里,黄枝樹,24990930,股份有限公司,,1030516,生產中,31其他運輸工具及其零件製造業、31其他運輸工具及其零件製造業,312機車及其零件、313自行車及其零件,,,,,
科彰科技工業股份有限公司,13000474,,屏東縣屏東市清溪里15鄰建國路316號,屏東縣屏東市清溪里,簡士哲,42789556,股份有限公司,,1070326,生產中,14木竹製品製造業,140木竹製品,,合板．木皮板，科漆板,,120.470222,22.6626759
長龍農產股份有限公司,81100066,,屏東縣長治鄉德和村園南路6號,屏東縣長治鄉德和村,蔡長龍,89548214,股份有限公司,,1070430,生產中,08食品製造業,083蔬果加工,,蔬果,,120.535645,22.70665
環拓科技股份有限公司屏南一廠,13000170,,屏東縣枋寮鄉東海村永翔路25號,屏東縣枋寮鄉東海村,謝東源,27695279,股份有限公司,,1020719,生產中,17石油及煤製品製造業,170石油及煤製品,http://enrestec.com.tw,碳黑蒸氣再生油品鋼絲,廢橡膠,120.575287,22.4114017
盈裕企業社,S1300180,,屏東縣屏東市大洲里大洲27-21號,屏東縣屏東市大洲里,閆國正,37684069,獨資,,1090615,生產中,14木竹製品製造業,140木竹製品,,,,,
元農企業有限公司屏東廠,99666116,08910099900460,屏東縣潮州鎮興美里興美路28號,屏東縣潮州鎮興美里,江美玲,16927982,有限公司,0890126,0900226,生產中,08食品製造業,087動物飼品,,其他食品,,120.534256,22.5145321
申豐特用應材股份有限公司屏東廠,99699790,,屏東縣枋寮鄉太源村中山路3段55號,屏東縣枋寮鄉太源村,許同慶,85841102,股份有限公司,,0971003,生產中,18化學原材料、肥料、氮化合物、塑橡膠原料及人造纖維製造業、19其他化學製品製造業,184塑膠及合成橡膠原料,http://www.shinfoong.com.tw/,合成乳膠,,120.586586,22.40863
嶸成興工程有限公司,S1300217,,屏東縣萬丹鄉萬安村大學路六四三號,屏東縣萬丹鄉萬安村,張萬水,70739522,有限公司,,1090619,生產中,25金屬製品製造業,253金屬容器,,,,,
久大福企業有限公司,S1300218,,屏東縣屏東市大洲里清進巷7-2號,屏東縣屏東市大洲里,黃士峰,27303034,有限公司,,1090619,生產中,25金屬製品製造業,254金屬加工處理,,,,,
厚鋼機械股份有限公司屏南廠,99665745,08210099087453,屏東縣枋寮鄉東海村精進路17號,屏東縣枋寮鄉東海村,林仁慧,85964461,股份有限公司,0821231,0830422,生產中,29機械設備製造業、25金屬製品製造業,291金屬加工用機械設備、293通用機械設備,,機械五金加工，其它通用機械及零組件,,120.580574,22.4082737
屏東農產股份有限公司粉廠,99666062,05810099007138,屏東縣萬巒鄉新厝村新生路56號(粉廠),屏東縣萬巒鄉新厝村,林建滄,92702838,股份有限公司,0580101,0600301,生產中,08食品製造業,086碾榖、磨粉及澱粉製品,,糯米粉，蓬萊米粉，紙袋，在萊米粉,,120.610306,22.5738983
怡勝機械工程有限公司,S1300230,,屏東縣屏東市仁義里海豐街84巷82號,屏東縣屏東市仁義里,王春枝,23094394,有限公司,,1090622,生產中,25金屬製品製造業、29機械設備製造業,252金屬結構及建築組件、291金屬加工用機械設備,,,,,
鴻亨科技有限公司,99699713,,屏東縣枋寮鄉太源村中山路3段６號,屏東縣枋寮鄉太源村,黃亨文,28083993,有限公司,,0950912,生產中,24基本金屬製造業、22塑膠製品製造業,249其他基本金屬、220塑膠製品,,鉛塊,,120.584938,22.4137554
天成皮包股份有限公司,99665800,07310099120024,屏東縣屏東市橋南里工業六路7號,屏東縣屏東市橋南里,林永昌,90767546,股份有限公司,0730420,0750110,生產中,13皮革、毛皮及其製品製造業,130皮革、毛皮及其製品,,手提包,,120.496506,22.6561832
高科磁技股份有限公司,99666156,08010099418452,屏東縣內埔鄉豐田村建國路24之1號,屏東縣內埔鄉豐田村,杜清芳,23985889,股份有限公司,0801230,0821222,生產中,26電子零組件製造業、19其他化學製品製造業、25金屬製品製造業,264光電材料及元件、269其他電子零組件、199未分類其他化學製品、254金屬加工處理,,磁粉、磁石、軋延油、加工油、防鏽油、電解清洗劑、其他工業助劑,,120.544876,22.6424713
原通工業股份有限公司,99699863,,屏東縣萬巒鄉佳和村佳興路101號,屏東縣萬巒鄉佳和村,陳水森,24432295,股份有限公司,,0990520,生產中,22塑膠製品製造業,220塑膠製品,,聚丙烯（Ｐ．Ｐ）,,120.588043,22.5681763
財沅實業有限公司竹田廠,13000453,,屏東縣竹田鄉履豐村豐明路2-3號,屏東縣竹田鄉履豐村,鄭秋蓉,24523675,有限公司,,1060925,生產中,29機械設備製造業、31其他運輸工具及其零件製造業,291金屬加工用機械設備、292其他專用機械設備、311船舶及浮動設施、319未分類其他運輸工具及其零件,,機械零件、船舶零件加工,,120.542213,22.5884514
天山食品行,13000413,,屏東縣萬丹鄉廣安村萬丹路二段281巷26號,屏東縣萬丹鄉廣安村,徐震銘,15703605,獨資,,1060220,生產中,08食品製造業,089其他食品,,鍋燒麵,,120.486359,22.607048
高美企業社,S1300112,,屏東縣高樹鄉東振村1鄰高美路16號,屏東縣高樹鄉東振村,郭永輝,10166866,獨資,,1090604,生產中,08食品製造業、08食品製造業,089其他食品,,,,,
頂新製油實業股份有限公司屏東廠,99665569,07710099181889,屏東縣內埔鄉豐田村建國路24號,屏東縣內埔鄉豐田村,吳俊慶,59066479,股份有限公司,0770201,0790504,生產中,08食品製造業,084動植物油脂、086碾榖、磨粉及澱粉製品,,,,,
平東化工廠,99665605,07510099271423,屏東縣屏東市厚生里建民路115號,屏東縣屏東市厚生里,張詠涵,90797990,獨資,0750923,0751118,生產中,19其他化學製品製造業,194化粧品,,保養品,,120.481346,22.6688023
漢聖製藥科技股份有限公司食品廠,13000416,,屏東縣屏東市橋南里工業環路20號「食品廠區」,屏東縣屏東市橋南里,劉崇喜,16453345,股份有限公司,,1060302,生產中,08食品製造業,089其他食品,,丸劑．散劑．錠劑．膠囊劑,刺五加、山藥、枸杞子、甘草、紅棗、茯苓、黃耆、當歸,120.50251,22.6620865
千珍豆腐行,99665978,08610099830708,屏東縣屏東市清溪里建國路360巷6號,屏東縣屏東市清溪里,李秋玉,87661512,獨資,0860408,0860821,生產中,08食品製造業,083蔬果加工,,豆腐,,120.4672,22.6595325
登期頤食品行,S1300154,,屏東縣萬丹鄉廣安村西勢尾街156號,屏東縣萬丹鄉廣安村,王美環,10890241,獨資,,1090608,生產中,08食品製造業,089其他食品,,,,,
朝海生物科技股份有限公司(化妝品廠),81200009,,屏東縣長治鄉德和村神農東路34號,屏東縣長治鄉德和村,陳敬文,27516753,股份有限公司,,1051004,生產中,19其他化學製品製造業,194化粧品,,,,,
森全鋼鐵股份有限公司屏南廠,99665516,,屏東縣枋寮鄉東海村永翔路2之12號,屏東縣枋寮鄉東海村,蔡森成,84442780,股份有限公司,,0900604,生產中,29機械設備製造業,291金屬加工用機械設備,,,,,
易維特科技股份有限公司屏東廠,99699615,,屏東縣屏東市橋南里工業五路5號,屏東縣屏東市橋南里,黃欽明,16985716,股份有限公司,,0930907,生產中,31其他運輸工具及其零件製造業,312機車及其零件,http://evt.com.tw,電動機車及其零件、機車及其零件,,120.502686,22.65888
巨揚工程行,S1300234,,屏東縣萬丹鄉社上村大功路26號,屏東縣萬丹鄉社上村,楊育蓁,15698666,獨資,,1090620,生產中,25金屬製品製造業,252金屬結構及建築組件,,,,,
旭盈玻璃實業有限公司,99666265,07610013069093,屏東縣屏東市瑞光里歸仁路103之1號,屏東縣屏東市瑞光里,郭益麒,22086939,有限公司,0760706,0770512,生產中,23非金屬礦物製品製造業,231玻璃及其製品,,玻璃切割，磨光，磨邊加工,,120.50592,22.6594563
萬寶祿生物科技股份有限公司農科分公司,81100011,,屏東縣長治鄉德和村神農路17號,屏東縣長治鄉德和村,林淑惠,80748970,股份有限公司,,0971030,生產中,09飲料製造業,092非酒精飲料,,,,,
三和成食品股份有限公司,99665864,07710099186022,屏東縣內埔鄉豐田村建國路6號,屏東縣內埔鄉豐田村,簡能卿,90017609,股份有限公司,0770420,0890425,生產中,09飲料製造業,092非酒精飲料,,包裝飲用水,,120.541412,22.6382465
尹康企業有限公司,99665764,,屏東縣萬巒鄉佳和村光明路21號,屏東縣萬巒鄉佳和村,林恩駐,12608558,有限公司,,0910516,生產中,19其他化學製品製造業,194化粧品,,卸粧液、嫩膚水、按摩油、面霜,,120.599228,22.5731
元晶太陽能科技股份有限公司屏東廠,13000483,,屏東縣屏東市大溪路335之12號,屏東縣屏東市,廖國榮,28997300,股份有限公司,,1070425,生產中,26電子零組件製造業,264光電材料及元件,http://www.tsecpv.com/zh-tw,太陽能模組,太陽能矽晶片、工業純水、強化玻璃、乙烯－醋酸乙烯共聚物（固態ＥＶＡ）、背板、鍍錫銅線、助焊劑、其他鋁材（鋁框）、乙醇、接線灌封矽膠－Ａ膠、接線灌封矽膠－Ｂ膠、鋁框封矽膠,120.446381,22.644783
銀寶生物科技有限公司民和廠,13000140,,屏東縣屏東市橋北里清流巷23號,屏東縣屏東市橋北里,王達人,25050391,有限公司,,1020129,生產中,08食品製造業、08食品製造業,089其他食品,,咖啡,,120.4964,22.67051
松芳醬園,99666166,05810099007060,屏東縣屏東市新生里復興南路1段115號,屏東縣屏東市新生里,林義獻,90471207,獨資,0580101,0600101,生產中,08食品製造業,089其他食品,,醬油辣椒,,120.486145,22.6529045
興安夾板企業有限公司九如廠,13000342,,屏東縣九如鄉九明村九如路二段1巷12-8號,屏東縣九如鄉九明村,尤瑞豊,28528573,有限公司,,1050905,生產中,14木竹製品製造業,140木竹製品,http://www.shenan.com.tw,客製化板材，棧板，木箱，其他木製品等,,120.486549,22.72573
春澤企業股份有限公司內埔廠,99665678,08010099091567,屏東縣內埔鄉豐田村建富路14號,屏東縣內埔鄉豐田村,陳俊澤,82079454,股份有限公司,0800328,0800328,生產中,25金屬製品製造業,259其他金屬製品,,螺絲,,120.54892,22.64281
立益飼料有限公司新園廠,99665955,08310099153443,屏東縣新園鄉田洋村高山路75號,屏東縣新園鄉田洋村,田黃椿,86655652,有限公司,0830421,0840125,生產中,08食品製造業,087動物飼品,,草蝦料、虱目魚、尼羅魚等,魚粉、米糠、豆粉、花生粕、麵粉、魷魚肚等,120.45562,22.5571556
正興科技開發股份有限公司,99665515,08010099323783,屏東縣內埔鄉豐田村建國路22號(食品廠區),屏東縣內埔鄉豐田村,黃文瑛,23352765,股份有限公司,0801209,0830111,生產中,08食品製造業,089其他食品,,精緻沾醬、酵素摻配品、食品、保生寶、億級棒,,120.544205,22.6416168
裕祐製香鋪,S1300183,,屏東縣屏東市崇蘭里古松西巷182號,屏東縣屏東市崇蘭里,蕭裕益,90980791,獨資,,1090615,生產中,14木竹製品製造業,140木竹製品,,,,,
隆鈦精工企業股份有限公司,99699669,,屏東縣萬丹鄉社上村萬丹路3段332巷16號,屏東縣萬丹鄉社上村,韓忠信,27834357,股份有限公司,,0940818,生產中,25金屬製品製造業,251金屬刀具、手工具及模具,,鋁製模具、模具五金零件、其他機械,銅、鋁塊、特殊鋼料,120.480858,22.6226444
思牧企業股份有限公司內埔一廠,99665774,06810099105674,屏東縣內埔鄉豐田村延平路133號,屏東縣內埔鄉豐田村,李瑞德,90504805,股份有限公司,0580101,0691218,生產中,08食品製造業,081肉類加工、083蔬果加工,,冷凍加工豬肉、羊肉、冷藏加工豬肉、冷凍加工牛肉,,120.547966,22.6399937
好客食品商號,S1300095,,屏東縣里港鄉春林村中山南路18-5號,屏東縣里港鄉春林村,藍國嘉,99250211,獨資,,1090525,生產中,08食品製造業,081肉類加工,,,,,
日月潭製酒股份有限公司,99666170,,屏東縣屏東市清溪里建國路360巷14、16號,屏東縣屏東市清溪里,王美蓮,80622450,股份有限公司,,0920115,生產中,09飲料製造業,091酒精飲料,,酒類產品（高梁酒）,,120.466827,22.6594868
虹京金屬股份有限公司二廠,13000019,,屏東縣枋寮鄉東海村永翔路19號,屏東縣枋寮鄉東海村,孫玉龍,28298045,股份有限公司,,1000217,生產中,25金屬製品製造業、18化學原材料、肥料、氮化合物、塑橡膠原料及人造纖維製造業,259其他金屬製品、181化學原材料,,高純度五氧化二釩,,120.567787,22.4083843
盛利有限公司,13000533,,屏東縣內埔鄉豐田村建國路20號,屏東縣內埔鄉豐田村,謝美連,59290758,有限公司,,1071226,生產中,08食品製造業,087動物飼品,,動物飼品,,120.543861,22.6412544
聯協企業社,99665908,07610013094938,屏東縣屏東市華山里大連路20巷27號,屏東縣屏東市華山里,謝輝煌,22910480,有限公司,0760905,0770512,生產中,25金屬製品製造業,251金屬刀具、手工具及模具,,鎖匙,,120.508614,22.6856518
安得富興業有限公司,13000256,,屏東縣枋寮鄉東海村屏南路19號,屏東縣枋寮鄉東海村,王智永,54091581,有限公司,,1040311,生產中,22塑膠製品製造業、25金屬製品製造業,220塑膠製品、251金屬刀具、手工具及模具,,塑膠窗簾零件,,120.577393,22.4100132
太鑫興業有限公司,99666250,07310013131544,屏東縣麟洛鄉新田村民族路新興巷6號,屏東縣麟洛鄉新田村,羅紳豪,83755046,有限公司,0731121,0731218,生產中,22塑膠製品製造業,220塑膠製品,,,,,
屏東縣崁頂鄉農會碾米廠,99665550,07610013031033,屏東縣崁頂鄉崁頂村興農路35號,屏東縣崁頂鄉崁頂村,曾福人,91388109,農會組織,0760416,0760724,生產中,08食品製造業,086碾榖、磨粉及澱粉製品,,糙米,,120.51017,22.5133629
高茂金屬工業股份有限公司,99665801,08310099606166,屏東縣屏東市橋南里工業四路３５號,屏東縣屏東市橋南里,郭登農,22809724,有限公司,0831220,0840612,生產中,25金屬製品製造業,254金屬加工處理,,金屬表面處理及熱處理,,120.496445,22.6556511
樂聯工業股份有限公司,99666042,08210099070734,屏東縣枋寮鄉東海村精進路37號,屏東縣枋寮鄉東海村,鄭福本,22144781,股份有限公司,0820216,0820828,生產中,32家具製造業、25金屬製品製造業,322金屬家具、254金屬加工處理,,金屬家具,,120.5736,22.40592
三友鋼管工業股份有限公司屏東廠,99699633,,屏東縣里港鄉三廍村三和路119之79號,屏東縣里港鄉三廍村,船曳英行,80521489,股份有限公司,,0940120,生產中,24基本金屬製造業、25金屬製品製造業,241鋼鐵、254金屬加工處理,,鋼管,,120.501495,22.80865
偉琪實業股份有限公司腸衣加工廠,99666100,06410099052139,屏東縣屏東市前進里清進巷164之25號,屏東縣屏東市前進里,許宗瑋,90387519,股份有限公司,0580101,0650716,生產中,08食品製造業,089其他食品,,豬腸衣、乾豬腸衣，羊腸衣,,120.46431,22.65116
大昌氣體廠股份有限公司,13000568,,屏東縣屏東市前進里大溪路319之2號,屏東縣屏東市前進里,郭明俊,83457980,股份有限公司,,1080927,生產中,18化學原材料、肥料、氮化合物、塑橡膠原料及人造纖維製造業、30汽車及其零件製造業,181化學原材料、303汽車零件,,化學原材料,,120.447311,22.6375523
昌南食品企業有限公司,13000420,,屏東縣屏東市清溪里和生路三段608號,屏東縣屏東市清溪里,蘇冠州,54770336,有限公司,,1060309,生產中,08食品製造業,082水產加工,,黑輪、海鮮丸、花枝丸、魚板等製品,,120.465004,22.6564522
鼎禾企業社,13000444,,屏東縣萬丹鄉萬全村萬丹路二段281巷28號,屏東縣萬丹鄉萬全村,石小味,47739113,獨資,,1060724,生產中,08食品製造業,086碾榖、磨粉及澱粉製品,,老油條,,120.488968,22.58998
利勝企業有限公司,13000409,,屏東縣萬丹鄉廣安村西勢尾街55巷55號,屏東縣萬丹鄉廣安村,黃信彥,42572352,有限公司,,1060116,生產中,08食品製造業,087動物飼品,,動物飼料,,120.484589,22.6068821
屏東縣肉品市場股份有限公司,99665542,07910099183873,屏東縣竹田鄉永豐村永豐路十四巷三五號,屏東縣竹田鄉永豐村,呂建輝,22266405,股份有限公司,0791116,0800426,生產中,08食品製造業,081肉類加工,,豬肉,,120.538261,22.636076
合興安海洋事業有限公司,13000430,,屏東縣新園鄉新園村媽祖路407巷23號,屏東縣新園鄉新園村,盧桂蘭,45128333,有限公司,,1060420,生產中,08食品製造業,082水產加工,,凍藏三鯖魚身、鱗鰓內臟,,120.44767,22.5163078
鴻柏食品有限公司,13000461,,屏東縣內埔鄉豐田村建富路16號,屏東縣內埔鄉豐田村,林麗君,56608372,有限公司,,1061114,生產中,08食品製造業,089其他食品,,鹹水雞,,120.549126,22.6431236
大維先電機有限公司,S1300262,,屏東縣萬巒鄉萬和村南進路6-56號,屏東縣萬巒鄉萬和村,劉秋貞,16237656,有限公司,,1090715,生產中,28電力設備及配備製造業,289其他電力設備及配備,,,,,
新延香企業有限公司,13000435,,屏東縣內埔鄉竹圍村福壽路563號,屏東縣內埔鄉竹圍村,林柏彬,25038989,有限公司,,1060531,生產中,08食品製造業,089其他食品,,味噌．豆棗．辣豆瓣．紅糟,,120.552422,22.642458
一正工業股份有限公司,99665647,07310099035553,屏東縣屏東市橋南里工業路11號,屏東縣屏東市橋南里,謝啓鴻,91727071,股份有限公司,0730406,0730514,生產中,25金屬製品製造業、29機械設備製造業,251金屬刀具、手工具及模具、259其他金屬製品、291金屬加工用機械設備、292其他專用機械設備、293通用機械設備,,滑輪、鎖,,120.499489,22.66231
金皇企業股份有限公司屏南七廠,13000213,,屏東縣枋寮鄉東海村永翔路11號,屏東縣枋寮鄉東海村,陳思明,85807913,股份有限公司,,1030529,生產中,25金屬製品製造業、25金屬製品製造業、32家具製造業,259其他金屬製品、322金屬家具,,其他金屬製品，金屬家具,,120.5818,22.4131775
大成長城企業股份有限公司屏東廠,99665578,08510099431496,屏東縣枋寮鄉東海村精進路２２號,屏東縣枋寮鄉東海村,韓家宇,73008303,股份有限公司,0851012,0870522,生產中,08食品製造業,087動物飼品,,配合飼料、其他食品,,120.578865,22.4085064
安良泰科技有限公司,13000214,,屏東縣新園鄉新園村媽祖路407巷2弄8號,屏東縣新園鄉新園村,蔡瑠美,24509218,有限公司,,1030609,生產中,19其他化學製品製造業、19其他化學製品製造業,194化粧品,,化粧品,,120.448334,22.5161572
春發科技股份有限公司屏東廠,99665581,08310013061626,屏東縣里港鄉三廍村三和路119之88號,屏東縣里港鄉三廍村,林純逸,75962990,股份有限公司,0830511,0850129,生產中,14木竹製品製造業、21橡膠製品製造業,140木竹製品、210橡膠製品,,化學處理木材（墊板）、橡膠製品,,120.501495,22.80865
詮堡塑膠工業有限公司,99699675,,屏東縣萬丹鄉社中村萬丹路3段286號,屏東縣萬丹鄉社中村,汪輝,23694067,有限公司,,0940922,生產中,22塑膠製品製造業,220塑膠製品,,塑膠日常品、塑膠製品,ＰＥ塑膠粒,120.47979,22.6227665
旭一股份有限公司,99666139,06410099160241,屏東縣里港鄉載興村載南路1之7號,屏東縣里港鄉載興村,方威凱,23576694,股份有限公司,0580101,0650701,生產中,23非金屬礦物製品製造業,233水泥及其製品、239其他非金屬礦物製品,,,,,
保證責任屏東縣永信蔬果運銷合作社,13000079,,屏東縣麟洛鄉新田村民族路396號,屏東縣麟洛鄉新田村,邱永豐,15701965,合作社,,1001209,生產中,08食品製造業、09飲料製造業,083蔬果加工、092非酒精飲料,http://www.deprassa.com/,香檬、金桔、檸檬、其他農產品,,120.54361,22.6669445
微新生物科技股份有限公司萬丹二廠,S1300177,,屏東縣萬丹鄉社中村大義路51號,屏東縣萬丹鄉社中村,李世琳,27680445,股份有限公司,,1090612,生產中,14木竹製品製造業,140木竹製品,,,,,
正興科技開發股份有限公司一廠,13000330,,屏東縣內埔鄉豐田村建國路22號(化粧品廠),屏東縣內埔鄉豐田村,黃文瑛,23352765,股份有限公司,,1050728,生產中,19其他化學製品製造業、33其他製造業,193清潔用品、194化粧品、339未分類其他製品,,胎盤精華霜、胎盤精華露、滋養護膚乳霜、姿顏面膜,,120.544205,22.6416168
林伯韋企業有限公司,S1300178,,屏東縣萬丹鄉萬安村大學路九六0巷七十六號,屏東縣萬丹鄉萬安村,林盟堯,86964453,有限公司,,1090612,生產中,22塑膠製品製造業,220塑膠製品,,,,,
東隆堂生技有限公司,13000206,,屏東縣東港鎮興東里大利路3段28號,屏東縣東港鎮興東里,石卿卿,54530646,有限公司,,1030429,生產中,08食品製造業、09飲料製造業,089其他食品、092非酒精飲料、083蔬果加工,,其他食品，非酒精飲料,,120.467651,22.473
剩春工程股份有限公司,99699874,,屏東縣東港鎮興東里沿海路96號,屏東縣東港鎮興東里,呂春風,23338321,股份有限公司,,0990825,生產中,25金屬製品製造業,252金屬結構及建築組件,,其他金屬製品,,120.464012,22.4712772
立森行有限公司,13000441,,屏東縣萬丹鄉廣安村萬丹路二段283號,屏東縣萬丹鄉廣安村,郭貞華,84721410,有限公司,,1060718,生產中,30汽車及其零件製造業、30汽車及其零件製造業、31其他運輸工具及其零件製造業,303汽車零件、312機車及其零件,,汽、機車零件,,120.487045,22.6071
介旺有限公司,99665652,,屏東縣內埔鄉黎明村信義路1200巷50號,屏東縣內埔鄉黎明村,李寬裕,70671494,有限公司,,0901226,生產中,18化學原材料、肥料、氮化合物、塑橡膠原料及人造纖維製造業,183肥料及氮化合物,,肥料、廢棄物處理、太陽能光電,,120.584526,22.6846142
順成鋼鐵科技有限公司,S1300018,,屏東縣內埔鄉龍潭村昭勝路546號,屏東縣內埔鄉龍潭村,楊義昌,28566007,有限公司,,1090622,生產中,25金屬製品製造業,252金屬結構及建築組件,,,,,
明谷冷凍調理食品有限公司,13000450,,屏東縣屏東市清溪里和生路三段676號,屏東縣屏東市清溪里,洪鄭素貞,25005967,有限公司,,1060825,生產中,08食品製造業,089其他食品,,雞排,,120.463676,22.6577873
天明製藥股份有限公司農科分公司食品廠,81300028,,屏東縣長治鄉德和村神農路3號2樓,屏東縣長治鄉德和村,王伯綸,81002274,股份有限公司,,1061030,生產中,08食品製造業、09飲料製造業,089其他食品、092非酒精飲料,http://www.tcmm.com.tw/museum01.php,納麴Ｑ１０,,120.53772,22.7136364
豐鍊企業有限公司第一廠,99665937,07810099171458,屏東縣屏東市橋南里工業六路西段十號,屏東縣屏東市橋南里,張邱美嬌,22781438,有限公司,0780127,0790124,生產中,25金屬製品製造業,259其他金屬製品,,篩網、齒輪、牙板,鐵板、Ｈ型鋼、高錳鋼,120.495865,22.6547089
益農工業股份有限公司,99665656,07110099120813,屏東縣屏東市橋南里工業路23號,屏東縣屏東市橋南里,湯二龍,91853457,有限公司,0710712,0730913,生產中,29機械設備製造業,292其他專用機械設備,,農業機械另組件,,120.501923,22.65832
永泓食品開發有限公司,13000366,,屏東縣潮州鎮泗林里通潮路172號,屏東縣潮州鎮泗林里,鄭立夫,45141429,有限公司,,1051230,生產中,08食品製造業,081肉類加工,,豬肉、牛肉,,120.556137,22.5510521
太子國際股份有限公司,13000223,,屏東縣屏東市前進里建國路495之5號,屏東縣屏東市前進里,徐君川,80066622,股份有限公司,,1030707,生產中,14木竹製品製造業、14木竹製品製造業,140木竹製品,,木竹製品,,120.460526,22.65323
中華食品實業股份有限公司屏東廠,99665687,08010099080337,屏東縣潮州鎮八爺里介壽路468號,屏東縣潮州鎮八爺里,陳民權,76316325,股份有限公司,0800125,0810926,生產中,08食品製造業、09飲料製造業,092非酒精飲料、089其他食品,http://www.herngyih/com/tw/,各種飲料（豆腐、豆花）、凍豆腐、油豆腐、炸豆腐,,120.527351,22.52876
能友塑膠行有限公司,S1300077,,屏東縣長治鄉榮華村信義路287-8號,屏東縣長治鄉榮華村,林世楊,90767243,有限公司,,1090608,生產中,22塑膠製品製造業,220塑膠製品,,,,,
嘉豐行,S1300067,,屏東縣內埔鄉振豐村博愛巷78號,屏東縣內埔鄉振豐村,涂美枝,91860921,獨資,,1090604,生產中,08食品製造業,083蔬果加工,,,,,
東昌飼料加工廠,99665849,06710099214254,屏東縣潮州鎮八爺里介壽路378號,屏東縣潮州鎮八爺里,王漢州,92198211,獨資,0580101,0670210,生產中,08食品製造業,087動物飼品,,玉米粉、高梁粉、豆餅粉,,120.532478,22.5359173
新豐混凝土事業股份有限公司萬丹二廠,99665769,08410013065633,屏東縣萬丹鄉磚寮村大昌路781號,屏東縣萬丹鄉磚寮村,陳奕亨,22251374,股份有限公司,0840503,0850212,生產中,23非金屬礦物製品製造業,233水泥及其製品,,水泥地磚、水泥植草磚等,,120.464058,22.6212425
鼎永企業有限公司,99699637,,屏東縣萬丹鄉社上村萬丹路3段３３２巷１２號,屏東縣萬丹鄉社上村,何榮崇,23967361,有限公司,,0940316,生產中,08食品製造業,089其他食品,,粉圓、湯圓、其他食品,,120.480858,22.6225872
藍博士生物科技有限公司,13000009,,屏東縣萬丹鄉社上村萬丹路3段332巷5號,屏東縣萬丹鄉社上村,林姿枝,53167979,有限公司,,0991209,生產中,08食品製造業、08食品製造業,089其他食品,,烘焙食品、醬油,,120.480644,22.6233082
興農機電有限公司,S1300136,,屏東縣新園鄉田洋村仙吉路463號,屏東縣新園鄉田洋村,李榮修,80599253,有限公司,,1090603,生產中,28電力設備及配備製造業,281發電、輸電及配電機械,,,,,
國泰皮革工業股份有限公司,99665844,06210099120294,屏東縣九如鄉大坵村九如路3段30號,屏東縣九如鄉大坵村,呂璧如,91769894,股份有限公司,0580101,0640127,生產中,13皮革、毛皮及其製品製造業,130皮革、毛皮及其製品,,鉻鞣牛榔皮、榔皮、柔軟皮、牛面皮,,120.4908,22.7439651
積勝企業股份有限公司,13000104,,屏東縣屏東市清溪里建國路241巷13號,屏東縣屏東市清溪里,吳安德,76327224,股份有限公司,,1010313,生產中,19其他化學製品製造業、19其他化學製品製造業,199未分類其他化學製品,,水處理劑等,,120.46949,22.6568375
弘盛展業有限公司,13000299,10410013600527,屏東縣枋寮鄉新龍村1鄰中山路344號,屏東縣枋寮鄉新龍村,陳偉仁,27689142,有限公司,1041111,1041221,生產中,08食品製造業,081肉類加工、089其他食品,,雞肉,,120.593048,22.3724251
屏東縣枋寮地區農會農特產品加工廠,99666064,08210013122997,屏東縣枋寮鄉東海村臨海路2段48號,屏東縣枋寮鄉東海村,鄭晏昕,92210101,農會組織,0820825,0820921,生產中,08食品製造業,086碾榖、磨粉及澱粉製品、083蔬果加工,,糙米，白米,,120.584549,22.40268
中彥國際科技工程股份有限公司里港廠,99699605,,屏東縣里港鄉鐵店村里港路397號,屏東縣里港鄉鐵店村,劉李麗珠,84340242,股份有限公司,,0930630,生產中,25金屬製品製造業、29機械設備製造業,251金屬刀具、手工具及模具、252金屬結構及建築組件、253金屬容器、259其他金屬製品、292其他專用機械設備、293通用機械設備,,金屬手工具、金屬結構及建築組件、金屬容器、其他金屬製品、專用、機械、油槽、塔槽、配管設備製造業,,120.504623,22.7845135
金順成水產開發有限公司,13000081,,屏東縣潮州鎮彭城里彭達街90號,屏東縣潮州鎮彭城里,曾秀娥,13033927,有限公司,,1001221,生產中,08食品製造業,087動物飼品,,,,,
城億實業股份有限公司,99665964,07010099160172,屏東縣屏東市前進里清進巷82之10號,屏東縣屏東市前進里,蔡清輝,90706318,股份有限公司,0580101,0710129,生產中,13皮革、毛皮及其製品製造業、21橡膠製品製造業、22塑膠製品製造業,130皮革、毛皮及其製品、210橡膠製品、220塑膠製品,,ＥＶＡ塑膠鞋底，塑膠橡膠（拖鞋）、ＥＶＡ地墊,,120.463394,22.6367416
明鑫製鎖有限公司,13000290,,屏東縣屏東市前進里清進巷164之19號,屏東縣屏東市前進里,王坤得,28549676,有限公司,,1041103,生產中,25金屬製品製造業,251金屬刀具、手工具及模具,,銅鎖匙,,120.46431,22.65116
臺灣菸酒股份有限公司內埔菸廠,99665554,07210099107362,屏東縣內埔鄉豐田村建國路36號,屏東縣內埔鄉豐田村,林子清,03787101,股份有限公司,0720711,0770203,生產中,10菸草製造業,100菸草製品,,香菸,,120.550461,22.6464176
利和鋼鐵門窗工程,13000493,,屏東縣新園鄉南龍村南龍路424之5號,屏東縣新園鄉南龍村,郭水塗,99593595,獨資,,1070620,生產中,25金屬製品製造業、32家具製造業,252金屬結構及建築組件、322金屬家具,,不鏽鋼,,120.448822,22.4820957
歆恩企業有限公司,99665945,08510013160236,屏東縣萬丹鄉廣安村萬丹路2段349號,屏東縣萬丹鄉廣安村,林恩慈,80629165,有限公司,0851005,0851017,生產中,32家具製造業,322金屬家具,,辦公傢俱（鋼製，塑鋼製）,鐵板,120.486427,22.60947
萬德福生物科技股份有限公司,81100030,,屏東縣長治鄉德和村園西二路12號4樓,屏東縣長治鄉德和村,林國欽,25169692,股份有限公司,,1011119,生產中,18化學原材料、肥料、氮化合物、塑橡膠原料及人造纖維製造業,183肥料及氮化合物,,有機質肥料,,120.533234,22.714571
亞立生化科技有限公司,13000515,,屏東縣屏東市建國路332巷45號,屏東縣屏東市,凌麗燕,59432406,有限公司,,1071017,生產中,08食品製造業,089其他食品,,保健食品軟膠曩，粉劑，硬膠曩代工,,120.465782,22.6610851
恒記商號,13000313,,屏東縣屏東市勝利里青島街69號,屏東縣屏東市勝利里,王永平,90288905,獨資,,1050309,生產中,08食品製造業,084動植物油脂,,,,,
萬興金屬製鎖有限公司,99665891,07510099124130,屏東縣內埔鄉和興村竹山路91號,屏東縣內埔鄉和興村,李秀枝,22243699,有限公司,0750424,0750424,生產中,25金屬製品製造業,259其他金屬製品,,銅鎖、金屬鎖,,120.574448,22.6078739
葉龍環保科技股份有限公司,99699653,,屏東縣枋寮鄉東海村屏南路25號,屏東縣枋寮鄉東海村,吳葉龍,27447665,股份有限公司,,0940519,生產中,24基本金屬製造業、22塑膠製品製造業,249其他基本金屬、220塑膠製品,,,,,
盛發碾米工廠,99666162,07510099214411,屏東縣林邊鄉竹林村勝利路17號,屏東縣林邊鄉竹林村,余木盛,91796793,獨資,0750821,0750821,生產中,08食品製造業,086碾榖、磨粉及澱粉製品,,米,,120.52063,22.4477615
宏泰興碾米廠,99699513,05810099010487,屏東縣里港鄉玉田村玉田路６６號,屏東縣里港鄉玉田村,許神川,90064601,獨資,0580101,0611104,生產中,08食品製造業,086碾榖、磨粉及澱粉製品,,,,,
尚昇實業有限公司,13000334,10410013600544,屏東縣枋寮鄉東海村科技路3號,屏東縣枋寮鄉東海村,簡子銘,24887871,有限公司,1041225,1050804,生產中,23非金屬礦物製品製造業,239其他非金屬礦物製品,,瀝青混凝土,,120.581528,22.4114189
高品味農產行,13000314,,屏東縣九如鄉九塊村民有街26號,屏東縣九如鄉九塊村,劉振昌,21967175,獨資,,1050316,生產中,08食品製造業,083蔬果加工,,醃漬蘿蔔、胡瓜,,120.486488,22.73415
國立碾米廠,99666219,07410013122106,屏東縣佳冬鄉豐隆村西昌路25之30號,屏東縣佳冬鄉豐隆村,張志宏,91894387,獨資,0741022,0750710,生產中,08食品製造業,086碾榖、磨粉及澱粉製品,,糙米，白米,,120.560081,22.45064
龍志貿易有限公司萬巒一廠,13000487,,屏東縣萬巒鄉泗溝村23鄰永全路2-11號,屏東縣萬巒鄉泗溝村,楊博淵,53452523,有限公司,,1070521,生產中,25金屬製品製造業,259其他金屬製品,,螺絲,,120.586334,22.5909767
薪柴能源企業行,13000443,,屏東縣萬丹鄉廣安村萬丹路二段281巷22號,屏東縣萬丹鄉廣安村,林莉玟,47898580,獨資,,1060722,生產中,14木竹製品製造業,140木竹製品,,廢木材,,120.486412,22.6070518
亞生特電業股份有限公司屏東廠,13000315,,屏東縣屏東市橋南里工業六路西段6號,屏東縣屏東市橋南里,楊志明,97416150,股份有限公司,,1050324,生產中,26電子零組件製造業、30汽車及其零件製造業,269其他電子零組件、303汽車零件,http://YACENTER.COM.TW,汽車、電子、家電等配線,電線、接頭組件,120.496063,22.6541843
詮盛工業股份有限公司,99665976,07310013077523,屏東縣屏東市頂柳里中柳路277號,屏東縣屏東市頂柳里,盧福建,91720149,股份有限公司,0730717,0740418,生產中,24基本金屬製造業、25金屬製品製造業,242鋁、252金屬結構及建築組件,http://www.csal.com.tw,鋁擠型料,鋁錠、鋁合金,120.4945,22.6438217
飛台農業生物科技股份有限公司,13000481,10610013600723,屏東縣東港鎮船頭里24鄰大同路386號,屏東縣東港鎮,盧政宏,56655846,股份有限公司,1060803,1070417,生產中,18化學原材料、肥料、氮化合物、塑橡膠原料及人造纖維製造業、18化學原材料、肥料、氮化合物、塑橡膠原料及人造纖維製造業,183肥料及氮化合物,,肥料,,120.464951,22.4678822
金山環保有限公司,13000421,,屏東縣萬丹鄉社上村萬丹路三段332巷20號,屏東縣萬丹鄉社上村,陳淑娟,53170995,有限公司,,1060317,生產中,25金屬製品製造業,254金屬加工處理,,鐵材製品,,120.480881,22.6228123
森全鋼鐵股份有限公司新埤廠,99666002,07610013090788,屏東縣新埤鄉建功村中興路68號,屏東縣新埤鄉建功村,蔡森成,84442780,股份有限公司,0760902,0771203,生產中,29機械設備製造業,291金屬加工用機械設備,,,,,
新德塑膠有限公司,S1300167,,屏東縣萬丹鄉萬安村大學路960巷110號,屏東縣萬丹鄉萬安村,劉秀雲,86611395,有限公司,,1090612,生產中,22塑膠製品製造業,220塑膠製品,,,,,
天恩寢具有限公司,13000478,,屏東縣屏東市華山里22鄰華安路128號,屏東縣屏東市華山里,吳金蓮,27707015,有限公司,,1070416,生產中,11紡織業,115紡織品,,寢具零售,,120.509079,22.6898174
盈正豫順電子股份有限公司屏東廠,13000107,,屏東縣屏東市橋南里工業四路7號,屏東縣屏東市橋南里,許文,16444732,股份有限公司,,1010409,生產中,28電力設備及配備製造業,289其他電力設備及配備,http://ablerex.com.tw,ＵＰＳ（不斷電系統）、ＡＰＦ（主動式電力濾波器）,,120.501091,22.65831
力厲企業股份有限公司屏東廠,99665924,07810099285597,屏東縣屏東市橋南里工業三路５、７號,屏東縣屏東市橋南里,陳振光,30872024,股份有限公司,0781129,0781221,生產中,30汽車及其零件製造業,303汽車零件,,啟動馬達殼、發電機殼,,120.500221,22.6591778
協浤企業股份有限公司,99665572,05810099005059,屏東縣東港鎮朝安里新生一路４２號,屏東縣東港鎮朝安里,陳盈喜,91378875,股份有限公司,0580101,0590701,生產中,29機械設備製造業、25金屬製品製造業,293通用機械設備、253金屬容器,,柴油引擎、引擎修理,,120.445213,22.46655
湧活霖食品有限公司,13000135,,屏東縣萬巒鄉成德村保安路13-26號,屏東縣萬巒鄉成德村,鄒添財,16381618,有限公司,,1020103,生產中,09飲料製造業、09飲料製造業,092非酒精飲料,,礦泉水,,120.612518,22.6167088
茂盛工作所,S1300127,,屏東縣新園鄉瓦磘村四環路3-31號,屏東縣新園鄉瓦磘村,黃坤茂,91889531,獨資,,1090602,生產中,25金屬製品製造業、25金屬製品製造業,254金屬加工處理,,,,,
健合實業股份有限公司,99699720,,屏東縣枋寮鄉東海村精進路28號,屏東縣枋寮鄉東海村,葉應諄,27835594,股份有限公司,,0951110,生產中,25金屬製品製造業,254金屬加工處理,,粉體塗裝、陽極表面處理,,120.576157,22.4076042
必高暢生物科技股份有限公司,99665893,08610099804763,屏東縣萬巒鄉佳和村佳興路77之2號,屏東縣萬巒鄉佳和村,傅邦宇,84381524,股份有限公司,0860612,0860626,生產中,08食品製造業、18化學原材料、肥料、氮化合物、塑橡膠原料及人造纖維製造業,087動物飼品、183肥料及氮化合物,,單味飼料添加物,,120.589577,22.5706215
偉宏股份有限公司屏東廠,13000026,,屏東縣里港鄉載興村中校路11之1號,屏東縣里港鄉載興村,陳旭本,83069551,股份有限公司,,1000311,生產中,,,,,,,
長正興業股份有限公司,13000654,,屏東縣萬巒鄉鹿寮村三多路1-9號,屏東縣萬巒鄉鹿寮村,蔡政治,89408635,股份有限公司,,1091109,生產中,14木竹製品製造業,140木竹製品,,,,,
萬偉股份有限公司,13000036,,屏東縣萬丹鄉社上村萬丹路3段331號,屏東縣萬丹鄉社上村,蘇增偉,84558070,股份有限公司,,1000530,生產中,08食品製造業、08食品製造業,081肉類加工,,冷藏豬肉等,,120.479767,22.62464
為勤電子工業股份有限公司,99665615,08210013150250,屏東縣九如鄉洽興村昌榮路160之2號,屏東縣九如鄉洽興村,隋台中,86962981,股份有限公司,0821012,0830107,生產中,28電力設備及配備製造業,283電線及配線器材,,電子配線、各種電線加工、電子零件,連接器、端子、電攬線、開關,120.498993,22.7638416
根頂重機股份有限公司,99665817,08110099075804,屏東縣枋寮鄉東海村科技路63號,屏東縣枋寮鄉東海村,黃進成,84074883,股份有限公司,0811015,0820604,生產中,25金屬製品製造業,252金屬結構及建築組件,,鋼材二次加工業,,120.571884,22.408144
岳飛食品有限公司,13000439,,屏東縣潮州鎮蓬萊里江山路53號,屏東縣潮州鎮蓬萊里,王金章,56646615,有限公司,,1060711,生產中,08食品製造業,089其他食品,,老油條,,120.514282,22.5498714
泰鴻五金建材行,S1300135,,屏東縣新園鄉五房村龍洲路49-6號,屏東縣新園鄉五房村,郭世和,08973879,獨資,,1090603,生產中,25金屬製品製造業,252金屬結構及建築組件,,,,,
全建利造船廠股份有限公司,99666197,06710099210731,屏東縣新園鄉共和村光復路13號,屏東縣新園鄉共和村,許義道,91881968,股份有限公司,0580101,0681211,生產中,31其他運輸工具及其零件製造業,311船舶及浮動設施,,漁船修造、木船、客貨船、塑膠玻,,120.443817,22.473547
維鋼工業股份有限公司,90P00034,,屏東縣屏東市前進里屏東加工出口區5鄰園西街9號,屏東縣屏東市前進里,許清森,22824838,股份有限公司,,1021017,生產中,24基本金屬製造業,249其他基本金屬,http://www.wekonet.com.tw,工業零件（閥）,,120.454239,22.6407566
祥興鋼鐵工業股份有限公司屏東廠,99665608,07710099178008,屏東縣新園鄉仙吉村仙吉路418號,屏東縣新園鄉仙吉村,張天德,35836619,股份有限公司,0770505,0780408,生產中,24基本金屬製造業,241鋼鐵,,鋼管,,120.466652,22.5515976
宏利汽車部件股份有限公司,90P00039,,屏東縣屏東市前進里屏東加工出口區經建路32號,屏東縣屏東市前進里,雲財福,54614315,股份有限公司,,1050316,生產中,30汽車及其零件製造業,303汽車零件,,代工：耐磨版零件：保險桿、Ｂ柱、儀錶板支架、門檻內外板等,,120.454964,22.6453228
大明金實業有限公司,99666022,08510013207503,屏東縣恆春鎮城西里草埔路29號,屏東縣恆春鎮城西里,夏泰禓,84569409,有限公司,0851227,0860109,生產中,25金屬製品製造業,252金屬結構及建築組件、254金屬加工處理,,烤漆鋼品、鍍鋅鋼品,,120.737976,22.0077152
富廣鑫工業有限公司,99665975,,屏東縣枋寮鄉東海村永翔路31號,屏東縣枋寮鄉東海村,陳信瑋,53243955,有限公司,,0911113,生產中,23非金屬礦物製品製造業,239其他非金屬礦物製品,,ＡＣ,,120.573944,22.4110718
潤邦企業股份有限公司,13000362,,屏東縣萬丹鄉廣安村11鄰萬丹路三段191巷61號,屏東縣萬丹鄉廣安村,陳榮進,16129262,股份有限公司,,1051201,生產中,14木竹製品製造業,140木竹製品,,進口合板,,120.477768,22.6165543
大花農場,13000352,,屏東縣九如鄉東寧村九東路118號,屏東縣九如鄉東寧村,楊添得,18159895,獨資,,1051020,生產中,08食品製造業,089其他食品,http://f88.myorganic.org.tw,玫瑰精露、乾燥玫瑰花瓣、玫瑰花醬等玫瑰相關產品,,120.496529,22.7399063
金皇企業股份有限公司屏南六廠,99699542,07710099286482,屏東縣枋寮鄉東海村精進路32號,屏東縣枋寮鄉東海村,陳思明,85807913,股份有限公司,0771229,0831011,生產中,24基本金屬製造業、32家具製造業,241鋼鐵、321非金屬家具、322金屬家具,,基本金屬加工、辦公椅子及零件,,120.574951,22.4070473
智相科技股份有限公司,99699760,,屏東縣屏東市橋南里工業六路西段３號,屏東縣屏東市橋南里,莊修豪,28782011,股份有限公司,,0961205,生產中,31其他運輸工具及其零件製造業,313自行車及其零件,http://www.awfcarbon.com,自行車及零組件,,120.4967,22.6545658
振聲農業科技股份有限公司,99666024,06310099160405,屏東縣鹽埔鄉新二村維新路168-8、168-13號,屏東縣鹽埔鄉新二村,邱順天,81242632,股份有限公司,0580101,0640524,生產中,08食品製造業,081肉類加工、082水產加工、084動植物油脂,http://www.shinsei-foods.com/,冷凍肉類鴨,,120.557709,22.7425137
有利開發企業有限公司,S1300267,,屏東縣高樹鄉鹽樹村南麂200號,屏東縣高樹鄉鹽樹村,吳英璋,27464100,有限公司,,1091019,生產中,23非金屬礦物製品製造業,239其他非金屬礦物製品,,,,,
久毅企業社,13000442,,屏東縣萬丹鄉廣安村萬丹路二段281巷8號,屏東縣萬丹鄉廣安村,莊舒閔,47745261,獨資,,1060720,生產中,08食品製造業,087動物飼品,,動物飼料,,120.486786,22.6070786
廣榮開發企業有限公司,13000047,,屏東縣新埤鄉萬隆村大武路35之7號,屏東縣新埤鄉萬隆村,潘榮彬,28552123,有限公司,,1000629,生產中,23非金屬礦物製品製造業,239其他非金屬礦物製品,,天然級配,,120.611694,22.5191689
鯤晟五金股份有限公司,99699616,,屏東縣枋寮鄉東海村屏南路27號,屏東縣枋寮鄉東海村,李明年,80383710,股份有限公司,,0931006,生產中,25金屬製品製造業,254金屬加工處理,,金屬表面處理及熱處理,,120.5779,22.4103718
承源興業有限公司萬丹廠,13000356,,屏東縣萬丹鄉竹林村大學路103號,屏東縣萬丹鄉竹林村,柯志驊,23847872,有限公司,,1051116,生產中,25金屬製品製造業,259其他金屬製品,,螺絲,盤元,120.518044,22.5974178
協震有限公司屏東廠,99665758,07810099293565,屏東縣里港鄉三廍村江南巷40號,屏東縣里港鄉三廍村,黃玉嬌,23209608,有限公司,0780830,0790122,生產中,23非金屬礦物製品製造業,232耐火、黏土建材及其他陶瓷製品、239其他非金屬礦物製品,,碎石、砂石,,120.502609,22.8030338
三益製材工廠,99665979,06410099022336,屏東縣枋寮鄉地利村中山路2段443號,屏東縣枋寮鄉地利村,吳世芳,91824186,獨資,0580101,0640507,生產中,14木竹製品製造業,140木竹製品,,木材加工,,120.593353,22.3888531
大安工研食品工廠股份有限公司屏東廠,99666232,06310099024931,屏東縣麟洛鄉新田村民族路埔圳巷8號,屏東縣麟洛鄉新田村,許嘉彬,03028426,股份有限公司,0580101,0630319,生產中,08食品製造業,089其他食品,,辣椒醬、蕃茄醬、醬油膏、海山醬,,120.532166,22.665987
旭龍散熱器有限公司屏東廠,99665916,09010013000949,屏東縣新園鄉新園村媽祖路407巷7號,屏東縣新園鄉新園村,劉瑞章,81480079,有限公司,0900305,0900312,生產中,30汽車及其零件製造業,303汽車零件,,機油高壓散熱器、空壓機空氣散熱器、汽車重機械散熱器,,120.447533,22.5168743
光晟生物科技股份有限公司農科分公司,81100033,,屏東縣長治鄉德和村園西二路26號2樓,屏東縣長治鄉德和村,呂春美,27219254,股份有限公司,,1020109,生產中,08食品製造業,089其他食品,http://www.bio-ray.com.tw/,１．益暢敏２．敏體康３．新安諾斯４．好康益菌,,120.53286,22.7158775
達邦蛋白股份有限公司農科廠,81100077,,屏東縣長治鄉德和村園西二路30號2樓,屏東縣長治鄉德和村,許恭豪,13000453,股份有限公司,,1090415,生產中,18化學原材料、肥料、氮化合物、塑橡膠原料及人造纖維製造業,183肥料及氮化合物,,,,,
立源精密股份有限公司,99699735,,屏東縣麟洛鄉新田村民族路285之2號,屏東縣麟洛鄉新田村,李甘龍,16675509,股份有限公司,,0960327,生產中,28電力設備及配備製造業,285家用電器,,,,,
昇葆環保股份有限公司,13000146,,屏東縣麟洛鄉新田村民族路526號,屏東縣麟洛鄉新田村,汪輝,53269737,股份有限公司,,1020320,生產中,22塑膠製品製造業,220塑膠製品,,保特瓶、瓶磚,,120.5538,22.6616669
日新汽車材料有限公司,S1300117,,屏東縣屏東市玉成里大成路141巷205號,屏東縣屏東市玉成里,胡林珠凰,24864700,有限公司,,1090602,生產中,30汽車及其零件製造業,303汽車零件,,,,,
賢達冷凍企業有限公司,S1300118,,屏東縣萬丹鄉社上村南北路三段466號,屏東縣萬丹鄉社上村,林勝達,80622780,有限公司,,1090602,生產中,08食品製造業,089其他食品,,,,,
長景工業股份有限公司,99665907,06310099028145,屏東縣屏東市清溪里建國路308巷1號,屏東縣屏東市清溪里,簡玉玫,90703369,股份有限公司,0580101,0650710,生產中,24基本金屬製造業,241鋼鐵,,鑄鐵機件、高級鑄鐵件，球狀鑄鐵件，球狀鑄，電信產品加工,,120.469246,22.6632156
丞光彩藝股份有限公司屏東廠,S1300225,,屏東縣萬丹鄉社中村大成路二十一號,屏東縣萬丹鄉社中村,柯永田,80479258,有限公司,,1090619,生產中,22塑膠製品製造業、22塑膠製品製造業,220塑膠製品,,,,,
仁雲企業社,99699747,,屏東縣新埤鄉萬隆村平山路62-10號,屏東縣新埤鄉萬隆村,李星翰,87663173,合夥,,0960726,生產中,23非金屬礦物製品製造業,239其他非金屬礦物製品,,砂石,,120.6008,22.5122871
惠安工業有限公司,13000346,,屏東縣屏東市橋南里工業六路東段1號,屏東縣屏東市橋南里,蔣明定,54771948,有限公司,,1051005,生產中,33其他製造業,339未分類其他製品,,安全帽,,120.4987,22.6578674
科彰建材實業股份有限公司二廠,S1300120,,屏東縣萬丹鄉後村村後庄路29號,屏東縣萬丹鄉後村村,簡石祥,80095598,股份有限公司,,1090602,生產中,14木竹製品製造業,140木竹製品,,,,,
大千生物科技有限公司,13000351,,屏東縣竹田鄉大湖村大生路2號1樓,屏東縣竹田鄉大湖村,廖其成,25098888,有限公司,,1051017,生產中,33其他製造業,332醫療器材及用品,,消毒劑,水．９５％酒精,120.517868,22.578825
昱勝食品有限公司,13000418,,屏東縣屏東市華山里大連路20巷37-1號,屏東縣屏東市華山里,洪兢甫,42595313,有限公司,,1060308,生產中,08食品製造業,089其他食品,http://www.ys-bread.com.tw,吐司、漢堡,,120.508636,22.6861877
順成建材五金行,S1300019,,屏東縣內埔鄉龍潭村昭勝路546號,屏東縣內埔鄉龍潭村,楊義賢,91832622,獨資,,1090622,生產中,25金屬製品製造業,252金屬結構及建築組件,,,,,
果恆鮮實業股份有限公司,13000543,,屏東縣內埔鄉豐田村5鄰建新路33號,屏東縣內埔鄉豐田村,吳志翔,54965894,股份有限公司,,1080401,生產中,08食品製造業,083蔬果加工,,蔬果加工,,120.541954,22.6357117
資展不銹鋼有限公司,13000447,,屏東縣屏東市橋南里工業環路2號,屏東縣屏東市橋南里,王柜凱,16977244,有限公司,,1060818,生產中,25金屬製品製造業,254金屬加工處理,,不銹鋼管．不銹鋼板,,120.501144,22.6610241
