工廠名稱,工廠登記編號,工廠設立許可案號,工廠地址,工廠市鎮鄉村里,工廠負責人姓名,統一編號,工廠組織型態,工廠設立核准日期,工廠登記核准日期,工廠登記狀態,產業類別,主要產品,WebURL,ProductName,Material,Longitude,Latitude
泰安冷氣機械有限公司,99627828,06310000128108,桃園市中壢區中原里忠孝路六三巷二○號,桃園市中壢區中原里,古元春　　　,43702348,有限公司,0580101,0640310,生產中,29機械設備製造業、30汽車及其零件製造業,293通用機械設備、303汽車零件,,,,,
百盈事業有限公司,03002037,,桃園市楊梅區高上里高獅路677號,桃園市楊梅區高上里,謝佩菁,24383392,有限公司,,1021127,生產中,29機械設備製造業,293通用機械設備,,五金工具、其他電子元件、金屬線製品,,121.161186,24.9255962
固利堅機械工業有限公司中壢廠,99628958,07310003079768,桃園市中壢區三民里環西路二段七一巷三二號,桃園市中壢區三民里,王世文　　　,20737443,有限公司,0730727,0730823,生產中,29機械設備製造業、27電腦、電子產品及光學製品製造業,292其他專用機械設備、271電腦及其週邊設備、293通用機械設備,,印刷機械,,121.2082,24.9634647
協舜企業社,99623861,07310003123105,桃園市平鎮區義民里延平路二段一三八號一樓,桃園市平鎮區義民里,黃秀葉　　　,45161466,獨資,0731005,0731027,生產中,26電子零組件製造業,269其他電子零組件,,電子、機械、五金、朔膠,鐵、銅、鋁、朔膠,121.211189,24.94844
烈宏企業股份有限公司,99625626,07410000036983,桃園市中壢區忠義里南園路二之一一號,桃園市中壢區忠義里,吳烈權　　　,45192307,股份有限公司,0740330,0770120,生產中,30汽車及其零件製造業、29機械設備製造業,303汽車零件、293通用機械設備,,模具,,121.238541,24.9684124
尚揚木業股份有限公司,99686288,07410000361600,桃園市桃園區中埔里永安路六五三巷三號,桃園市桃園區中埔里,楊宗條　　　,22501675,股份有限公司,0741204,0741204,生產中,14木竹製品製造業,140木竹製品,,木材,,121.293449,25.0061359
千莊針織有限公司,99686387,07410003007951,桃園市蘆竹區山鼻里內新路三六號,桃園市蘆竹區山鼻里,蘇明和　　　,45013331,有限公司,0740418,0750114,生產中,11紡織業,114染整,,紗,,121.28846,25.07024
翰生印刷事業有限公司,99628436,07610003051039,桃園市中壢區內定里內定二十街158巷50號,桃園市中壢區內定里,徐兆宗　　　,02634959,有限公司,0760512,0761230,生產中,16印刷及資料儲存媒體複製業,160印刷及資料儲存媒體複製,,紙張印刷,,121.234138,25.0033855
良奕工業有限公司平鎮廠,99717985,,桃園市平鎮區東勢里東龍街１１７８號,桃園市平鎮區東勢里,卓文明,23579496,有限公司,,0990106,生產中,29機械設備製造業,292其他專用機械設備,http://liangyee.com.tw,機械設備、平面顯示器貼合代工,,121.251007,24.9012032
新加科技有限公司,68000912,,桃園市龜山區文化里科技一路35號,桃園市龜山區文化里,麥金天,16361372,有限公司,,1051026,生產中,33其他製造業,332醫療器材及用品,,浮動座墊／氣墊床,,121.376945,25.051218
金映機械工業股份有限公司,99624328,08410003071874,桃園市八德區大發里和平路七七二巷一五號一樓,桃園市八德區大發里,張永金　　　,23405329,股份有限公司,0840701,0840708,生產中,29機械設備製造業、25金屬製品製造業,259其他金屬製品、293通用機械設備,http://chinying100.myweb.hinet.net,液晶顯示器、生產機械及零件,,121.318787,24.9564152
立榮電子企業股份有限公司,68003535,,桃園市龜山區龍壽里萬壽路一段490號6樓之2,桃園市龜山區龍壽里,林炳煌,22999647,股份有限公司,,1090723,生產中,29機械設備製造業,292其他專用機械設備,,,,,
京樂蛋糕食品有限公司,68000182,,桃園市中壢區內定里內定七街302號,桃園市中壢區內定里,許秉忠,24445566,有限公司,,1040713,生產中,08食品製造業,089其他食品,,蛋糕,,121.232368,25.0006351
世灞鍋爐廠有限公司,68000411,,桃園市龍潭區高原里高原路367巷186號,桃園市龍潭區高原里,余建勳,23403429,有限公司,,1041216,生產中,25金屬製品製造業、29機械設備製造業,259其他金屬製品、293通用機械設備,,鍋爐,,121.196785,24.8270721
富淼實業有限公司,68000305,,桃園市大溪區仁善里松樹37號,桃園市大溪區仁善里,林新城,16503984,有限公司,,1040930,生產中,29機械設備製造業,291金屬加工用機械設備、292其他專用機械設備、293通用機械設備,,１．ＰＰ／ＰＶＣ／鍍鋅→管／管件２．空汙／廢水廢氣／電鍍→機臺／設備３．配管工程,１．塑膠類：ＰＰ／ＰＶＣ２．鐵類：鍍鋅管３．五金類：螺絲組．管件另料,121.289726,24.9167366
佑隆實業股份有限公司,68002948,,桃園市蘆竹區瓦窯里南山路一段117號,桃園市蘆竹區瓦窯里,紀芊妏,54946721,股份有限公司,,1080912,生產中,33其他製造業,339未分類其他製品,,未分類其他製品,電池、ＬＥＤ燈、ＰＣＢ、塑膠殼、紙盒、變壓器、螺絲,121.290375,25.0552273
翔群鋼模有限公司,68003022,,桃園市平鎮區雙連里民族路雙連二段118巷49弄15號(1樓),桃園市平鎮區雙連里,謝銘坤,69604933,有限公司,,1081101,生產中,25金屬製品製造業,251金屬刀具、手工具及模具,,金屬刀具、手工具及模具,,121.1819,24.9610672
克易企業有限公司龍潭廠,68000059,,桃園市龍潭區高平里中豐路高平段10巷77號1樓,桃園市龍潭區高平里,高建民,97222387,有限公司,,1040508,生產中,25金屬製品製造業、29機械設備製造業,259其他金屬製品、292其他專用機械設備、293通用機械設備,,五金零件沖壓,,121.212524,24.83911
大毅科技股份有限公司,99623720,08310003006371,桃園市蘆竹區山鼻里南山路二段470巷26號,桃園市蘆竹區山鼻里,江財寶　　　,23534301,股份有限公司,0830119,0830521,生產中,26電子零組件製造業,262被動電子元件、261半導體、269其他電子零組件,,晶片電阻、晶片排阻、電阻網路、晶片保險絲,,121.288834,25.0740089
陞佳科技股份有限公司,99722541,,桃園市蘆竹區海湖里中圳街17巷8號,桃園市蘆竹區海湖里,徐寶妹,12692513,股份有限公司,,0990701,生產中,18化學原材料、肥料、氮化合物、塑橡膠原料及人造纖維製造業,184塑膠及合成橡膠原料,,未列名塑膠製品、聚酯粉末、尼龍粉末,,121.2637,25.1036873
源璋企業有限公司龜山廠,99625913,08410003009901,桃園市龜山區龍壽里東萬壽路六四二巷六號,桃園市龜山區龍壽里,林彥廷　,84257996,有限公司,0840324,0850409,生產中,29機械設備製造業、25金屬製品製造業,259其他金屬製品、293通用機械設備,http://yuanzhangcorp.com/,模具加工、塑膠五金製品,,121.377167,25.009037
杰欣國際有限公司,68003250,,桃園市中壢區龍德里龍興路387巷16號,桃園市中壢區龍德里,陳正杰,24874708,有限公司,,1090305,生產中,12成衣及服飾品製造業,121成衣,,,,,
寶利徠光學科技股份有限公司大園廠,99626786,08310003065882,桃園市大園區南港里11鄰長發路325、327號（1樓）,桃園市大園區南港里,宋一新　　　,84449952,股份有限公司,0830630,0841109,生產中,27電腦、電子產品及光學製品製造業、33其他製造業,277光學儀器及設備、332醫療器材及用品,,鏡片,,121.1815,25.0562286
振朋生技股份有限公司,03002143,,桃園市龜山區嶺頂里萬壽路二段353號3樓,桃園市龜山區嶺頂里,王宇晨,54533279,股份有限公司,,1030127,生產中,33其他製造業、20藥品及醫用化學製品製造業,332醫療器材及用品、200藥品及醫用化學製品,http://www.zhpbio.com.tw/,水凝膠敷料沖型加工、ＰＵ膜（聚氨酯薄膜）沖型加工、人工骨替代物、ＰＭＭＡ骨水泥,,121.355492,25.00109
雄崎股份有限公司中壢廠,99707919,,桃園市中壢區文化里文林街６６號２樓,桃園市中壢區文化里,杜秀花,84794308,股份有限公司,,0971117,生產中,29機械設備製造業、31其他運輸工具及其零件製造業,292其他專用機械設備、319未分類其他運輸工具及其零件,,自動倉儲設備、停車機械設備、電梯電扶梯、昇降機,,121.244812,24.9785156
金坤宏業股份有限公司,99628509,07210003066180,桃園市龜山區嶺頂里茶專路三０號,桃園市龜山區嶺頂里,黃文清　　,12265650,股份有限公司,0580101,0720702,生產中,33其他製造業,331育樂用品,https://www.gq-display.com.tw/main/,嬰兒床及架類,鐵管、鐵絲,121.358284,24.9973583
億錸企業有限公司,03002546,,桃園市楊梅區水美里楊湖路一段358巷6號,桃園市楊梅區水美里,曾華全,89232263,有限公司,,1031105,生產中,25金屬製品製造業,254金屬加工處理,,金屬加工處理,,121.134415,24.9127216
真憶實業有限公司,99626203,07310000248378,桃園市中壢區中正里永福路六二四號,桃園市中壢區中正里,洪呂美芳,16483306,有限公司,0730920,0741111,生產中,08食品製造業、09飲料製造業,092非酒精飲料、089其他食品,,杯水、桶裝水,,121.259384,24.9596443
遠隆工業股份有限公司楊梅工廠,99626319,07310003022485,桃園市楊梅區瑞塘里梅獅路二段六一六巷六號,桃園市楊梅區瑞塘里,王派勝　　　,43670471,股份有限公司,0730307,0740312,生產中,30汽車及其零件製造業、31其他運輸工具及其零件製造業,303汽車零件、312機車及其零件、313自行車及其零件,,剎車線，碼錶線，控制線，加油線,,121.181976,24.897047
台灣揚益電子股份有限公司,99625775,07310003079323,桃園市桃園區建國里林森路一一三號一樓,桃園市桃園區建國里,戴進忠　　　,31174498,股份有限公司,0730724,0730813,生產中,27電腦、電子產品及光學製品製造業、26電子零組件製造業、28電力設備及配備製造業,271電腦及其週邊設備、269其他電子零組件、273視聽電子產品、289其他電力設備及配備,,電源供應器、音響、揚聲器,,121.32093,24.98798
台宗企業有限公司,99706849,,桃園市觀音區樹林里經建五路１２號,桃園市觀音區樹林里,溫添地,84207960,有限公司,,0960227,生產中,25金屬製品製造業,254金屬加工處理,,金屬零件電鍍加工,,121.1167,25.0605259
合意興業有限公司,68002410,,桃園市中壢區普忠里普忠路177號,桃園市中壢區普忠里,何承翰,25082160,有限公司,,1071210,生產中,12成衣及服飾品製造業、22塑膠製品製造業,121成衣、220塑膠製品,,,,,
金禾食品有限公司,99621847,,桃園市楊梅區中山里中山北路一段二九三巷一一號,桃園市楊梅區中山里,呂淑貞,70704208,有限公司,,0900904,生產中,08食品製造業,089其他食品,,麵條,,121.157089,24.9069481
源順塑膠工業股份有限公司,99623072,08710003264705,桃園市觀音區草漯里忠孝路546、546-1號,桃園市觀音區草漯里,王文彬　　,16084764,股份有限公司,0870327,0880302,生產中,22塑膠製品製造業,220塑膠製品,http://yuansoong.com.tw,高密度聚乙烯管、可撓管,,121.136513,25.0587578
東勝電氣股份有限公司觀音廠,99627287,07910000171228,桃園市觀音區金湖里中山路１段１５６８之１號,桃園市觀音區金湖里,彭継曾,12696551,股份有限公司,0790321,0790402,生產中,27電腦、電子產品及光學製品製造業、28電力設備及配備製造業、29機械設備製造業、31其他運輸工具及其零件製造業,293通用機械設備、273視聽電子產品、285家用電器、319未分類其他運輸工具及其零件,,冷氣機、電冰箱、空調機,,121.118271,25.0211582
仕東實業有限公司,68000657,,桃園市八德區茄苳里寶豐街15巷2弄11衖2號,桃園市八德區茄苳里,謝徵瑋,24888695,有限公司,,1050527,生產中,19其他化學製品製造業,194化粧品,,洗髮精，沐浴乳,,121.275764,24.9659863
金廣運凡而股份有限公司,99627411,,桃園市中壢區內厝里中正路二段399號,桃園市中壢區內厝里,陳泉博,80230588,股份有限公司,,0911002,生產中,25金屬製品製造業、29機械設備製造業、30汽車及其零件製造業,254金屬加工處理、293通用機械設備、303汽車零件,,鍛鋼製一般用閥,,121.192642,24.980114
寶喬實業有限公司,68003312,,桃園市桃園區汴洲里春日路1314巷6號,桃園市桃園區汴洲里,江和橙,69567515,有限公司,,1090401,生產中,22塑膠製品製造業,220塑膠製品,,,,,
順明製管工業股份有限公司,99626609,08510003139593,桃園市楊梅區豐野里中正路632巷1號,桃園市楊梅區豐野里,陳信昌　　　,97265879,股份有限公司,0850917,0860127,生產中,22塑膠製品製造業,220塑膠製品,,各種塑膠管件及零件,,121.072296,24.94019
景陽製瓶工業股份有限公司,99625494,06810000135772,桃園市蘆竹區海湖里濱海路一段四三三號,桃園市蘆竹區海湖里,盧振民　　　,07634845,股份有限公司,0580101,0691022,生產中,22塑膠製品製造業,220塑膠製品,,寶特瓶、點滴瓶,多元酯粒、聚丙烯塑膠粒、瓶蓋,121.262543,25.1174
沅橡企業有限公司,68000942,,桃園市八德區瑞發里民權街21號1樓,桃園市八德區瑞發里,李聰祥,16557340,有限公司,,1051114,生產中,16印刷及資料儲存媒體複製業,160印刷及資料儲存媒體複製,,印刷品,,121.296349,24.9316845
均英精密工業股份有限公司,03001145,,桃園市八德區大發里和平路704巷1號1樓,桃園市八德區大發里,鄭良忠,16234089,股份有限公司,,1010627,生產中,29機械設備製造業,291金屬加工用機械設備、292其他專用機械設備、293通用機械設備,http://www.genmold.com.tw/index.php,模具加工,,121.317406,24.9562721
台灣新磐股份有限公司,68002735,,桃園市平鎮區湧豐里工業五路12號4樓,桃園市平鎮區湧豐里,王志鴻,69758232,股份有限公司,,1080530,生產中,22塑膠製品製造業、25金屬製品製造業,220塑膠製品、254金屬加工處理,,塑膠製品，金屬加工處理,,121.198021,24.9048519
堯富精密科技股份有限公司,03000905,,桃園市八德區大發里和平路704巷25號,桃園市八德區大發里,周泰立,86407513,股份有限公司,,1010118,生產中,22塑膠製品製造業、29機械設備製造業,220塑膠製品、292其他專用機械設備、293通用機械設備,,工業用陶瓷,,121.318825,24.9553337
福信科技股份有限公司,99623392,08510003011674,桃園市平鎮區北興里金陵路二段五○○之一號,桃園市平鎮區北興里,徐子凡　　,86810649,股份有限公司,0850530,0850606,生產中,29機械設備製造業,293通用機械設備,,噴砂機、水刀機、化學浸泡去膠機,不銹鋼,121.224983,24.9313412
日陽包裝實業股份有限公司,99629862,08210003209404,桃園市楊梅區永寧里老莊路281號,桃園市楊梅區永寧里,楊淵源　　　,12448390,股份有限公司,0821210,0830124,生產中,22塑膠製品製造業、33其他製造業,220塑膠製品、332醫療器材及用品,,食品包裝容器,,121.157082,24.892168
承宏國際鋼鐵有限公司中壢廠,68002358,,桃園市中壢區過嶺里福祥路323巷1號,桃園市中壢區過嶺里,賴衛政,24294271,有限公司,,1071112,生產中,25金屬製品製造業,254金屬加工處理,,金屬加工處理,,121.174423,24.9770489
正美印刷文具行,99625222,07110003109253,桃園市桃園區龍岡里龍安街一四巷一一號一樓,桃園市桃園區龍岡里,邱創基　　　,43888533,獨資,0710909,0710923,生產中,16印刷及資料儲存媒體複製業,160印刷及資料儲存媒體複製,,各種印刷,紙張、油墨,121.281975,24.9879513
高瑋工業股份有限公司,99627569,07110003141396,桃園市觀音區大同里下大堀一六○之一號,桃園市觀音區大同里,蔡高德　　　,75346650,股份有限公司,0711118,0711201,生產中,30汽車及其零件製造業、31其他運輸工具及其零件製造業、29機械設備製造業,303汽車零件、312機車及其零件、313自行車及其零件、293通用機械設備,,其他未列名汽車零件,,121.136589,25.0059433
聰縉企業股份有限公司,99686546,07710003055869,桃園市龜山區大坑里南上路３８６巷１９號１、２樓及２１號２樓,桃園市龜山區大坑里,張添財　　　,33898527,股份有限公司,0770629,0790906,生產中,26電子零組件製造業、30汽車及其零件製造業,264光電材料及元件、269其他電子零組件、303汽車零件,,塑膠外殼,,121.304245,25.04439
鼎龍精密有限公司,68001904,,桃園市蘆竹區內厝里長興路1段205巷5號,桃園市蘆竹區內厝里,簡竹林,84189148,有限公司,,1070424,生產中,22塑膠製品製造業,220塑膠製品,,塑膠製品,,121.291153,25.0639935
家穎實業股份有限公司,99623640,07110003152412,桃園市桃園區龍岡里龍壽街２７３巷２７號,桃園市桃園區龍岡里,郭慶　　　　,43879648,股份有限公司,0711209,0740327,生產中,27電腦、電子產品及光學製品製造業,271電腦及其週邊設備、277光學儀器及設備,,電子零件,,121.266388,24.98886
銓璟精密有限公司蘆竹廠,99707579,,桃園市蘆竹區長興里長興路４段２９６號１樓,桃園市蘆竹區長興里,呂昇城,80217157,有限公司,,0970428,生產中,29機械設備製造業,293通用機械設備,,機械設備及零件,,121.267776,25.0645981
翊泰實業股份有限公司,99629278,07210003019925,桃園市蘆竹區內厝里南山路２段２０５巷４９號及６８號,桃園市蘆竹區內厝里,吳金土,04689698,股份有限公司,0720305,0731123,生產中,24基本金屬製造業、25金屬製品製造業、29機械設備製造業,259其他金屬製品、293通用機械設備、241鋼鐵,,不銹鋼閥、不銹鋼管配件、不銹鋼凸緣,,121.285378,25.0640469
景雄工業有限公司蘆竹廠,03001623,,桃園市蘆竹區五福里五福一路32巷17號2樓,桃園市蘆竹區五福里,黃韋凱,53205397,有限公司,,1020403,生產中,29機械設備製造業,291金屬加工用機械設備、292其他專用機械設備、293通用機械設備,,金屬製造,,121.294266,25.0579967
永森家具系統有限公司,99707043,,桃園市龍潭區烏林里中豐路533巷179號,桃園市龍潭區烏林里,徐一賢,22409635,有限公司,,0960611,生產中,32家具製造業,321非金屬家具,,系統家具,,121.2073,24.8827362
鴻岳汽車材料有限公司,68000202,,桃園市中壢區忠義里中華路2段367巷109號5樓,桃園市中壢區忠義里,吳淑娟,28326366,有限公司,,1040728,生產中,30汽車及其零件製造業、31其他運輸工具及其零件製造業,303汽車零件、312機車及其零件,,汽車廢鐵,,121.236618,24.9623566
龍鵬實業有限公司八德廠,68000825,,桃園市八德區永豐里華康街180號1樓,桃園市八德區永豐里,江金汐,35820829,有限公司,,1050823,生產中,27電腦、電子產品及光學製品製造業、29機械設備製造業,275量測、導航、控制設備及鐘錶、277光學儀器及設備、292其他專用機械設備,,望遠鏡,,121.269028,24.9709644
上研有限公司,03001918,,桃園市龍潭區北興里中興路18巷69號,桃園市龍潭區北興里,黃永和,80466459,有限公司,,1020918,生產中,25金屬製品製造業,254金屬加工處理,,模具,,121.241928,24.8787613
弘總企業有限公司,68002313,,桃園市中壢區永福里南園二路8號(1樓),桃園市中壢區永福里,江宗家,16420534,有限公司,,1071030,生產中,26電子零組件製造業,263印刷電路板,,印刷電路板加工,,121.238335,24.9725189
鐵龍機械有限公司,68000765,,桃園市桃園區大林里大明街83巷6號,桃園市桃園區大林里,邱鐵龍,53063833,有限公司,,1050726,生產中,29機械設備製造業,292其他專用機械設備,,針織機,,121.318375,24.9785061
信翊豐企業有限公司,68003307,,桃園市龍潭區烏林里工二路一段260號(1樓),桃園市龍潭區烏林里,黃耀賢,53470705,有限公司,,1090327,生產中,22塑膠製品製造業,220塑膠製品,,,,,
日友機械有限公司,03002171,,桃園市蘆竹區內厝里內溪路30之3號,桃園市蘆竹區內厝里,陳文皇,54775022,有限公司,,1030226,生產中,29機械設備製造業,291金屬加工用機械設備、292其他專用機械設備、293通用機械設備,,金屬加工用機械設備，其他專用機械設備，通用機械設備,,121.28067,25.0682869
裕清環保工程有限公司桃園分公司,99686923,,桃園市桃園區汴洲里鹽庫街六七號,桃園市桃園區汴洲里,鄭明玉,80224615,有限公司,,0920512,生產中,24基本金屬製造業,241鋼鐵、249其他基本金屬、242鋁、243銅,,其他基本金屬鑄造品、鋼鐵,,121.309074,25.02317
世騰電業實業有限公司,68003153,,桃園市中壢區仁愛里新中北路816號(1樓),桃園市中壢區仁愛里,陳智勇,85078197,有限公司,,1090106,生產中,28電力設備及配備製造業,283電線及配線器材,,,,,
弘穎食品有限公司,68002442,,桃園市桃園區龍山里龍壽街236號(1樓),桃園市桃園區龍山里,陳建廷,54945568,有限公司,,1071225,生產中,08食品製造業,081肉類加工、082水產加工,,冷凍畜禽肉品加工,,121.267532,24.9884186
達正食品有限公司,68001961,,桃園市觀音區廣興里2鄰廣興一路30巷12號,桃園市觀音區廣興里,湯正介,80215405,有限公司,,1070523,生產中,08食品製造業,083蔬果加工、089其他食品,http://www.purefood.com.tw,冰糖，鹽，黑糖，進口食品,,121.086,25.0340157
桃園塑膠工業社,99625295,05810000003564,桃園市桃園區建國里建明街三○號,桃園市桃園區建國里,許楊勉　　　,43242529,獨資,0580101,0581130,生產中,22塑膠製品製造業,220塑膠製品,,塑膠製品,,121.31678,24.98682
用新科際整合有限公司,03001335,,桃園市蘆竹區長興里厚生路100號6樓之1及102號6樓之1,桃園市蘆竹區長興里,徐聖智,28874124,有限公司,,1011005,生產中,26電子零組件製造業、30汽車及其零件製造業,269其他電子零組件、303汽車零件,http://www.trans-t.com/,行車記錄器,,121.278648,25.0534687
睿能創意股份有限公司,03002290,,桃園市龜山區大華里頂湖路33號1.2樓,桃園市龜山區大華里,陸學森,53433060,股份有限公司,,1030523,生產中,31其他運輸工具及其零件製造業,312機車及其零件,,１．機車及其零件；２．電池模組封裝,,121.362579,25.042963
正達鑽石工業有限公司,99624501,07910003051480,桃園市八德區瑞豐里友聯街29巷18號　　,桃園市八德區瑞豐里,呂昆樺,23720522,有限公司,0790517,0790710,生產中,23非金屬礦物製品製造業、25金屬製品製造業,251金屬刀具、手工具及模具、239其他非金屬礦物製品,,鑽石砂輪,,121.291473,24.9288425
瑞騰國際股份有限公司,03001534,,桃園市龜山區南上里民生北路一段54巷4號1樓,桃園市龜山區南上里,陳韋志,13049646,股份有限公司,,1020205,生產中,08食品製造業,081肉類加工,,食品製造業,,121.304749,25.0344086
聯伍興業有限公司二廠,68000188,,桃園市龍潭區烏林里工二路108號,桃園市龍潭區烏林里,陳福氣,28065361,有限公司,,1040724,生產中,19其他化學製品製造業,193清潔用品,,清潔用品,,121.209267,24.8861961
億春鐵工廠,68000187,,桃園市八德區大福里力行街50巷15弄13號1樓,桃園市八德區大福里,林建宏,41436056,獨資,,1040717,生產中,29機械設備製造業,293通用機械設備,,機械零件,,121.299774,24.9764538
台松汽車工業股份有限公司林口廠,68001748,,桃園市龜山區樂善里文明二街6號(1樓),桃園市龜山區樂善里,王定福,20750091,股份有限公司,,1070118,生產中,30汽車及其零件製造業,302車體,,車身打造,,121.376656,25.06416
富莉科技股份有限公司平鎮廠,99623692,08810003330564,桃園市平鎮區北貴里關爺東路七九號,桃園市平鎮區北貴里,郭昆璋,12678630,股份有限公司,0881214,0900312,生產中,29機械設備製造業,293通用機械設備,https://www.pcbshop.org/tw/supplier/index.asp?SupI,鑽孔機、壓合機、成型機、雙面垂直網印機,,121.22226,24.92725
新易機電股份有限公司,99717996,,桃園市龜山區文化里科技一路29號2樓,桃園市龜山區文化里,林育生,25076857,股份有限公司,,0990112,生產中,26電子零組件製造業、28電力設備及配備製造業、31其他運輸工具及其零件製造業、33其他製造業,264光電材料及元件、269其他電子零組件、281發電、輸電及配電機械、284照明設備及配備、289其他電力設備及配備、312機車及其零件、313自行車及其零件、331育樂用品,,,,,
塑熙精密有限公司平鎮廠,99688915,,桃園市平鎮區雙連里３９鄰民族路雙連二段１１８巷４９弄１７號,桃園市平鎮區雙連里,徐永利,12738784,有限公司,,0950404,生產中,25金屬製品製造業,251金屬刀具、手工具及模具,,模具,,121.181831,24.9610634
四貝企業有限公司,03000677,,桃園市八德區茄苳里19鄰永豐路326號,桃園市八德區茄苳里,王鈺傑,22291333,有限公司,,1000930,生產中,25金屬製品製造業,259其他金屬製品,,其他金屬結構,,121.276749,24.9698544
升易有限公司,99707753,,桃園市蘆竹區瓦窯里南山路1段349巷10號,桃園市蘆竹區瓦窯里,徐子桓,16197850,有限公司,,0970806,生產中,11紡織業、12成衣及服飾品製造業、29機械設備製造業,111紡紗、112織布、115紡織品、121成衣、123服飾品、291金屬加工用機械設備、293通用機械設備,,機械設備製造,,121.287941,25.0586929
聯安精密工業股份有限公司林口廠,99622638,08410000652035,桃園市龜山區樂善里文明路六八號,桃園市龜山區樂善里,林桂陽　　　,89468197,股份有限公司,0840913,0841006,生產中,28電力設備及配備製造業,283電線及配線器材,,電線、電子線,,121.3794,25.0544186
華碩電腦股份有限公司蘆竹廠,99621598,08410003070661,桃園市蘆竹區山鼻里南山路三段一七巷一○號,桃園市蘆竹區山鼻里,施崇棠　　　,23638777,股份有限公司,0840502,0840519,生產中,27電腦、電子產品及光學製品製造業,271電腦及其週邊設備,,個人電腦主機板、電腦介面卡、終端機（纜線數據機）,,121.283058,25.0771484
碩灃科技股份有限公司二廠,99626005,08410003148474,桃園市蘆竹區蘆竹里蘆興街51號地上1樓及地下1樓,桃園市蘆竹區蘆竹里,莊玉明,12621095,股份有限公司,0840801,0840823,生產中,26電子零組件製造業,263印刷電路板,,溼膜加工,,121.277122,25.0553741
記熥企業有限公司,68003099,,桃園市桃園區汴洲里塩庫街68巷14號,桃園市桃園區汴洲里,李淑滿,70660763,有限公司,,1081212,生產中,23非金屬礦物製品製造業,233水泥及其製品,,水泥及其製品,,121.309265,25.0225849
慈豐木業股份有限公司,99624259,06910000098175,桃園市大溪區康安里內柵路一段６１、６３號,桃園市大溪區康安里,陳茂松　　　,43848913,股份有限公司,0580101,0690711,生產中,32家具製造業、11紡織業,321非金屬家具、115紡織品、114染整,,木器類家具、木器彫刻品、窗簾布製造,,121.281723,24.8592243
佳總興業股份有限公司,99625234,07610000193102,桃園市桃園區大林里興邦路３９之２、３９之４號,桃園市桃園區大林里,曾繼立　,23063420,股份有限公司,0760428,0780306,生產中,26電子零組件製造業,263印刷電路板、269其他電子零組件,http://www.gia-tzoong.com.tw,印刷電路板,基板、油墨,121.32724,24.9812717
陸弗特企業股份有限公司,03001462,,桃園市龜山區大坑里南上路417號,桃園市龜山區大坑里,陳勝宗,70699134,股份有限公司,,1011207,生產中,31其他運輸工具及其零件製造業,312機車及其零件、313自行車及其零件,,ＣＯ２充氣組,,121.304893,25.0454025
麗煌工業股份有限公司,99623125,08610003306619,桃園市蘆竹區山鼻里南山路二段四七０巷六弄一號,桃園市蘆竹區山鼻里,莊順發　　　,16035498,股份有限公司,0861004,0870211,生產中,29機械設備製造業、28電力設備及配備製造業、30汽車及其零件製造業、31其他運輸工具及其零件製造業、27電腦、電子產品及光學製品製造業,293通用機械設備、284照明設備及配備、285家用電器、303汽車零件、312機車及其零件、272通訊傳播設備,,金屬製品、機械零件、燈具,,121.28669,25.0722618
立昌先進科技股份有限公司龜山二廠,68002228,,桃園市龜山區山頂里山鶯路340巷1號（1、2樓及夾層）,桃園市龜山區山頂里,連清宏,70475866,股份有限公司,,1070926,生產中,26電子零組件製造業,262被動電子元件,http://www.sfi.com.tw,突波吸收器,,121.327461,24.9839
巨昌精密有限公司,68000685,,桃園市蘆竹區瓦窯里長榮路18號,桃園市蘆竹區瓦窯里,呂奕辰,42588410,有限公司,,1050603,生產中,25金屬製品製造業,259其他金屬製品、252金屬結構及建築組件,,鋁片,,121.288422,25.05738
順寶機械工業有限公司,99628130,07610003102235,桃園市八德區永豐里華康街207巷16號,桃園市八德區永豐里,鄧貴香,22693998,有限公司,0760805,0770203,生產中,28電力設備及配備製造業、29機械設備製造業,285家用電器、293通用機械設備,,鋼骨結構,,121.270149,24.9701977
海宇針織實業有限公司蘆竹廠,99629949,08410003224220,桃園市蘆竹區新興里龍安街１段９９號,桃園市蘆竹區新興里,吳成翔,23002796,有限公司,0841019,0850321,生產中,11紡織業,112織布,,棉紗、螺紋布,織布,121.271408,24.9931965
三鎰機器股份有限公司,99625074,05810000008994,桃園市中壢區福德里福德路１２８號,桃園市中壢區福德里,劉長益　　　,44512113,股份有限公司,0580101,0600809,生產中,29機械設備製造業、26電子零組件製造業、30汽車及其零件製造業、31其他運輸工具及其零件製造業,291金屬加工用機械設備、262被動電子元件、303汽車零件、312機車及其零件、313自行車及其零件,,金屬加工用機械、汽車及其零件、機車及其零件、自,,121.257851,24.9761086
吉興香環廠,99688614,,桃園市蘆竹區中福里龍壽街１段５５號,桃園市蘆竹區中福里,呂理安,49909232,合夥,,0941004,生產中,33其他製造業,339未分類其他製品,,香環,,121.267159,24.9903355
世紡材料科技股份有限公司,99688617,,桃園市龍潭區烏林里工二路２９８巷８０弄２２之１５號,桃園市龍潭區烏林里,曾榮堂,28709906,股份有限公司,,0941004,生產中,11紡織業,111紡紗,,紡紗、紡紗,,121.204674,24.8880348
哲聖工業股份有限公司桃園廠,99688622,,桃園市桃園區玉山里玉山街１８１號,桃園市桃園區玉山里,謝文哲,96872799,股份有限公司,,0941006,生產中,29機械設備製造業、25金屬製品製造業,291金屬加工用機械設備、293通用機械設備、292其他專用機械設備、251金屬刀具、手工具及模具,,金屬加工用機械、專用生產機械、通用機、械設備、其他機械（治具,,121.300728,24.9859657
金連興業股份有限公司桃園廠,99625826,07310003079517,桃園市蘆竹區內厝里南山路二段二一一號,桃園市蘆竹區內厝里,黃聰生　　　,34068458,股份有限公司,0730720,0740723,生產中,21橡膠製品製造業、28電力設備及配備製造業,210橡膠製品、289其他電力設備及配備,,橡膠製品,,121.286568,25.0660934
長世木業有限公司,99627064,07310003144317,桃園市新屋區東明里中興路三一○巷一二號一樓,桃園市新屋區東明里,張五郎　　　,45914769,有限公司,0731115,0731220,生產中,14木竹製品製造業,140木竹製品,,工業校準用標準尺,,121.097374,24.9663868
昶彥精密工業股份有限公司,99706848,,桃園市龍潭區烏林里３９鄰工五路２２１號,桃園市龍潭區烏林里,陳金明,70687587,股份有限公司,,0960215,生產中,29機械設備製造業、25金屬製品製造業,293通用機械設備、259其他金屬製品,,塑膠成型模具及加工、修理,塑膠模座、鋼板、鋼材、紅銅板等,121.206,24.888773
隆嘉精密工業股份有限公司,99628415,08210003000527,桃園市龜山區南上里民生北路一段五四巷二弄一號,桃園市龜山區南上里,郭碧雲,01633405,股份有限公司,0820212,0820225,生產中,26電子零組件製造業,263印刷電路板,,印刷電路板及其他電子配件,,121.3045,25.0342751
明恩興業有限公司,99706851,,桃園市蘆竹區內厝里南山路２段３５７巷３６弄９號１樓,桃園市蘆竹區內厝里,黃騰億,80610855,有限公司,,0960302,生產中,16印刷及資料儲存媒體複製業,160印刷及資料儲存媒體複製,,塑膠印刷,,121.2841,25.0723228
金易有限公司二廠,S6800128,,桃園市蘆竹區蘆竹里八股路300號,桃園市蘆竹區蘆竹里,李錫堂,86083253,有限公司,,1090515,生產中,11紡織業,112織布、114染整,,,,,
城紹科技股份有限公司二廠,68001483,,桃園市楊梅區東流里中山南路764號1樓,桃園市楊梅區東流里,張安妍,43706702,股份有限公司,,1060907,生產中,33其他製造業,331育樂用品,,運動器材,,121.123306,24.9021034
智暘國際創科股份有限公司平鎮廠,68001181,,桃園市平鎮區南勢里南東路50巷10號5樓,桃園市平鎮區南勢里,蕭瑜颺,69561316,股份有限公司,,1060407,生產中,29機械設備製造業,292其他專用機械設備、293通用機械設備,,通用機械設備，其他專用機械設備，機械零件組裝,,121.213608,24.9197254
豐祥電子科技有限公司,68001885,,桃園市蘆竹區長興里南崁路2段142巷47號,桃園市蘆竹區長興里,羅德順,28896318,有限公司,,1070418,生產中,29機械設備製造業,293通用機械設備,,通用機械設備,,121.275269,25.0631046
富盛企業有限公司蘆竹廠,68002106,,桃園市蘆竹區內厝里5鄰南山路2段205巷22弄36號2樓,桃園市蘆竹區內厝里,陳蘇惠琴,53811204,有限公司,,1070801,生產中,11紡織業、12成衣及服飾品製造業,112織布、113不織布、115紡織品、121成衣,,布,,121.284721,25.066309
靖讚有限公司,68001441,,桃園市八德區茄苳里寶豐街15巷19弄6號1樓,桃園市八德區茄苳里,吳柏青,69608608,有限公司,,1060817,生產中,29機械設備製造業,293通用機械設備,,加工,,121.276665,24.965538
華震精機有限公司八德廠,03001721,,桃園市八德區茄苳里永豐路226巷68弄2號1樓,桃園市八德區茄苳里,翁玉秀,27455221,有限公司,,1020604,生產中,29機械設備製造業,291金屬加工用機械設備、292其他專用機械設備、293通用機械設備,,染布機維修,,121.281013,24.9670753
正和鋼鐵股份有限公司,99622720,07810003106535,桃園市龜山區大華里頂湖路47號,桃園市龜山區大華里,陳建帆,11166999,股份有限公司,0780811,0790703,生產中,25金屬製品製造業,254金屬加工處理,,鍍鋅鋼板、鍍鋁鋅鋼板及烤漆鋼板,鍍鋅鋼板、油漆,121.364464,25.0394611
晶亮電工股份有限公司(楊梅廠),68000322,,桃園市楊梅區高山里獅二路13號,桃園市楊梅區高山里,劉俊賢,28914435,股份有限公司,,1041014,生產中,28電力設備及配備製造業,284照明設備及配備,,,,,
友霖生技醫藥股份有限公司桃園製藥廠,99621346,05810000008398,桃園市桃園區大林里大誠路１１號,桃園市桃園區大林里,蔡正弘　,28924399,股份有限公司,0580515,0600513,生產中,20藥品及醫用化學製品製造業、33其他製造業,200藥品及醫用化學製品、332醫療器材及用品,http://www.oppharma.com/index.php/cht/index,維爾能膠囊、達爾能膠囊、克糖美錠,,121.322563,24.9841022
台旭科技有限公司龜山廠,68001887,,桃園市龜山區龍華里13鄰萬壽路1段492之15號4樓,桃園市龜山區龍華里,李常吉,80475289,有限公司,,1070418,生產中,22塑膠製品製造業、33其他製造業,220塑膠製品、332醫療器材及用品,,塑膠容器,,121.398094,25.0184746
中央炭素股份有限公司中壢工廠,99625812,05810000008218,桃園市中壢區復興里自強五路三號,桃園市中壢區復興里,林鋒熹　　　,03064409,股份有限公司,0580101,0600401,生產中,26電子零組件製造業、23非金屬礦物製品製造業、29機械設備製造業,293通用機械設備、291金屬加工用機械設備、292其他專用機械設備、239其他非金屬礦物製品、269其他電子零組件,http://www.central-carbon.com,電極棒、電刷子、炭精機械零件、石墨製品、石墨電極、吹氧管、石墨粉,,121.2418,24.9742184
日楠企業有限公司觀音廠,99707967,,桃園市觀音區樹林里國光路８號,桃園市觀音區樹林里,游淑珍,86513015,有限公司,,0971222,生產中,18化學原材料、肥料、氮化合物、塑橡膠原料及人造纖維製造業、19其他化學製品製造業,184塑膠及合成橡膠原料、199未分類其他化學製品,,合成樹脂、紡織助劑、合成乳膠,,121.104958,25.059021
岳生生技股份有限公司楊梅廠,68000999,,桃園市楊梅區青山里獅四路1號,桃園市楊梅區青山里,彭秉生,80630590,股份有限公司,,1051223,生產中,08食品製造業、09飲料製造業,089其他食品、092非酒精飲料,,醫療耗材批發,膠囊、發泡錠、錠劑粉包,121.174065,24.9238167
同昌機械股份有限公司中壢廠,S6800360,,桃園市中壢區過嶺里福嶺路273號,桃園市中壢區過嶺里,杜立仁,34080832,股份有限公司,,1091111,生產中,29機械設備製造業,292其他專用機械設備、293通用機械設備,,,,,
東興碾米廠,99628006,06210000014107,桃園市蘆竹區中福里龍安街二段二一一號,桃園市蘆竹區中福里,康有諒　　,43621351,獨資,0580101,0620227,生產中,08食品製造業,086碾榖、磨粉及澱粉製品,,糙米,,121.265221,24.9950924
山欣實業股份有限公司桃園工廠,99629442,06210000080223,桃園市桃園區汴洲里和愛街一九號,桃園市桃園區汴洲里,蔡榮貴　　　,12111641,股份有限公司,0620628,0630114,生產中,13皮革、毛皮及其製品製造業、11紡織業,130皮革、毛皮及其製品、115紡織品,,紡織及其他材質製行李箱及手提袋,,121.30143,25.0321045
畢德麥企業有限公司蘆竹廠,99706410,,桃園市蘆竹區長興里南崁路２段２２８巷１６弄１５號,桃園市蘆竹區長興里,邱禎祥,16077572,有限公司,,0950627,生產中,29機械設備製造業,292其他專用機械設備,http://btm-pack.com.tw/,食品包裝機械,,121.274529,25.06048
和旺昌噴霧股份有限公司,99688627,,桃園市楊梅區瑞原里民富路１段７９６巷２９號,桃園市楊梅區瑞原里,孫華韻,86007262,股份有限公司,,0941011,生產中,22塑膠製品製造業,220塑膠製品,http://www.lorric.com/tw/,工業用塑膠製品、濾器、噴嘴、塑膠製品,,121.11879,24.9271526
沛龍電子有限公司,99688629,,桃園市楊梅區高山里高青路２２巷２２號,桃園市楊梅區高山里,羅晏晴,27451689,有限公司,,0941012,生產中,26電子零組件製造業,263印刷電路板,,印刷電路板,,121.161263,24.9307461
星倫電子企業有限公司,99627274,07410003006129,桃園市新屋區清華里中山東路一段五二巷五二號一樓,桃園市新屋區清華里,范姜復隆　　,45045410,有限公司,0740116,0740508,生產中,26電子零組件製造業、28電力設備及配備製造業,262被動電子元件、289其他電力設備及配備,,可變電阻器,,121.114449,24.9684963
巨揚機械有限公司,99626081,07410003007719,桃園市桃園區龍山里龍壽街二七三巷七號,桃園市桃園區龍山里,賈明祥,27517866,有限公司,0740415,0740809,生產中,29機械設備製造業,293通用機械設備、292其他專用機械設備,,機械零件,,121.266945,24.9889488
晁真股份有限公司,99625232,07110003109504,桃園市八德區廣興里建國路七七二巷一二○弄三衖一四號一樓,桃園市八德區廣興里,呂金順　　　,43889569,股份有限公司,0580101,0711115,生產中,25金屬製品製造業、29機械設備製造業,259其他金屬製品、292其他專用機械設備,,鋅鍋等,,121.293709,24.94964
豐立精機企業有限公司,99629093,07210003022283,桃園市桃園區建國里建國東路一五巷一八號,桃園市桃園區建國里,黃睿炳　　　,43899166,有限公司,0720307,0720425,生產中,29機械設備製造業,293通用機械設備,,機械零件設備等,,121.319786,24.9870358
佳勇塑膠廠有限公司,99625768,07310003135009,桃園市龜山區兔坑里大同路八四九號一樓,桃園市龜山區兔坑里,劉明熙　,44027647,有限公司,0731017,0740603,生產中,26電子零組件製造業、30汽車及其零件製造業、31其他運輸工具及其零件製造業,269其他電子零組件、303汽車零件、331育樂用品,,其他塑膠製品製造業,,121.357819,24.9898815
千鳳產業股份有限公司觀音廠,68001734,,桃園市觀音區廣興里保興路1段170號,桃園市觀音區廣興里,呂宗慶,84922492,股份有限公司,,1070110,生產中,25金屬製品製造業、29機械設備製造業,253金屬容器、293通用機械設備,,雷射切割加工，機架焊接,鐵板（管），不銹鋼板（管），鋁板，角鐵,121.0878,25.0273743
國鑫企業有限公司,99686428,,桃園市八德區大宏里大明街75號一樓,桃園市八德區大宏里,張碧玲,97207082,有限公司,,0920313,生產中,23非金屬礦物製品製造業,232耐火、黏土建材及其他陶瓷製品,,陶瓷管,鋁粉,121.297234,24.969017
矽芝股份有限公司,99627093,07810003147939,桃園市桃園區南門里南豊街七四號,桃園市桃園區南門里,張玉華,84529245,股份有限公司,0790104,0790112,生產中,28電力設備及配備製造業,281發電、輸電及配電機械,,直流馬達速度控制器,,121.306313,24.9857426
帝泰企業社楊梅廠,03002404,,桃園市楊梅區新榮里新榮路311號1樓,桃園市楊梅區新榮里,陳志忠,37813970,獨資,,1030829,生產中,11紡織業,112織布,,織布,,121.159012,24.95596
金裕芳食品有限公司,68002623,,桃園市龍潭區九龍里五福街262巷391號,桃園市龍潭區九龍里,賴金助,16485347,有限公司,,1080408,生產中,08食品製造業,081肉類加工、089其他食品,,其他肉類加工食品,,121.230865,24.8644867
兆豐精密股份有限公司,03002541,,桃園市楊梅區梅溪里新農街2段209巷75號1樓,桃園市楊梅區梅溪里,莊益章,54099916,股份有限公司,,1031106,生產中,25金屬製品製造業,254金屬加工處理,,金屬加工處理、金屬模具加工,,121.169189,24.9146786
先豐電子股份有限公司,99623004,08910003326391,桃園市龜山區南美里南上路290巷33弄12衖7號,桃園市龜山區南美里,劉彥宏,12615018,股份有限公司,0891020,0891025,生產中,26電子零組件製造業,263印刷電路板,,印刷電路板,,121.302879,25.0447159
廣億鋼鐵股份有限公司,99622131,08110000074794,桃園市觀音區樹林里經建一路四０號,桃園市觀音區樹林里,曾顯達　,23045599,股份有限公司,0810824,0811215,生產中,30汽車及其零件製造業、31其他運輸工具及其零件製造業,303汽車零件、312機車及其零件,,鋼鐵管加工、汽機車零件用、鋼管製品等,,121.127068,25.05887
應忠工業社,99623973,07410003118649,桃園市大溪區仁武里員林路一段五八號,桃園市大溪區仁武里,邱黃　　　,43793847,獨資,0740918,0741128,生產中,29機械設備製造業,293通用機械設備,,機械零件加工,,121.28244,24.898819
慶泉企業股份有限公司,99625443,07510003023462,桃園市八德區大安里榮興路七七號,桃園市八德區大安里,林慧玲　　,43918950,股份有限公司,0750501,0770213,生產中,11紡織業,114染整,,布疋，布片印花代工,,121.311249,24.9538155
榮泰環保科技股份有限公司桃園廠,03001286,,桃園市龍潭區烏林里工二路一段52號,桃園市龍潭區烏林里,蔡璟湄,24312242,股份有限公司,,1010905,生產中,29機械設備製造業,293通用機械設備,http://www.rongtay.com,活性碳及其相關設備,,121.204544,24.8876724
聯鑫塑膠有限公司,99626527,07210003066819,桃園市中壢區新興里龍泉街68號,桃園市中壢區新興里,張榮進　　　,86269552,有限公司,0720623,0720816,生產中,22塑膠製品製造業,220塑膠製品,,塑膠模具,,121.232658,24.9345856
晉一化工股份有限公司新屋廠,99624639,06410000168029,桃園市新屋區頭洲里新榮路210巷38號,桃園市新屋區頭洲里,賴宏榮　　,04476652,股份有限公司,0580101,0660607,生產中,19其他化學製品製造業、18化學原材料、肥料、氮化合物、塑橡膠原料及人造纖維製造業,184塑膠及合成橡膠原料、199未分類其他化學製品,http://www.chinyee.com.tw/Page/Home/Index.aspx,紡織及印染助劑、塑膠類添加劑、塑膠類滑劑、合成樹脂,,121.16008,24.9577122
光明絲織廠股份有限公司龜山廠,68001435,,桃園市龜山區楓樹里宏洲街29號,桃園市龜山區楓樹里,詹正田,29576307,股份有限公司,,1060814,生產中,11紡織業,111紡紗,http://www.kwangming.com,聚酯加工絲,聚酯原絲,121.344048,25.0107288
仁仁食品有限公司,99624167,08910000905460,桃園市桃園區建國里林森路六八巷二０弄二號一樓,桃園市桃園區建國里,蔡明坤,70607402,有限公司,0890829,0891106,生產中,08食品製造業,089其他食品,,餐盒食品,,121.320137,24.9873333
高猛有限公司,68000190,,桃園市蘆竹區新興里大竹路121號2樓,桃園市蘆竹區新興里,彭德順,86763385,有限公司,,1040720,生產中,29機械設備製造業,293通用機械設備,,金屬結構製、,,121.270836,25.0146255
僑興碾米工廠,99629993,06310000092238,桃園市大溪區仁善里介壽路二六三號,桃園市大溪區仁善里,邱林初枝　　,43651024,獨資,0630713,0631226,生產中,08食品製造業,089其他食品,,白米,,121.292679,24.91968
川盛信記企業股份有限公司,99622389,06210000050871,桃園市平鎮區北興里金陵路二段三五六號,桃園市平鎮區北興里,徐勝財　,00004131,股份有限公司,0580101,0630814,生產中,22塑膠製品製造業,220塑膠製品,,其他（廠房租賃）．塑膠鞋,,121.224747,24.9352322
華聲電子工業股份有限公司大溪工廠,99626604,06310000009003,桃園市大溪區義和里十二鄰康莊路三段六八二號,桃園市大溪區義和里,張皓欽,04319302,股份有限公司,0630121,0640401,生產中,26電子零組件製造業、27電腦、電子產品及光學製品製造業、33其他製造業、28電力設備及配備製造業,261半導體、262被動電子元件、269其他電子零組件、273視聽電子產品、275量測、導航、控制設備及鐘錶、331育樂用品、339未分類其他製品、282電池,,石英振盪晶體基座,,121.272049,24.8445454
大濶科技股份有限公司,68000233,,桃園市桃園區龍山里龍壽街81巷12弄5號,桃園市桃園區龍山里,黃仁勇,16979067,股份有限公司,,1040817,生產中,29機械設備製造業,292其他專用機械設備,,包裝入料機等,,121.267693,24.9802437
萬通精密工業股份有限公司,99626211,08210003209315,桃園市龍潭區東興里中興路63巷80弄1號,桃園市龍潭區東興里,林家雄　　　,84580262,股份有限公司,0821209,0821216,生產中,29機械設備製造業,293通用機械設備,,塑膠文具成型、模具,,121.23896,24.87369
益興電子股份有限公司,99686391,06310000013076,桃園市大溪區康安里康莊路三段一號,桃園市大溪區康安里,黃文振　　,43638445,股份有限公司,0580101,0630809,生產中,26電子零組件製造業、27電腦、電子產品及光學製品製造業,261半導體、273視聽電子產品,,ＭＯＳ數位式特殊應用ＩＣ、二極體、雷射二極體元件,,121.282928,24.8615627
雨農精機廠有限公司,99625350,07110000111124,桃園市桃園區汴洲里鹽庫街六八巷二三號,桃園市桃園區汴洲里,呂福寶　　　,43820773,有限公司,0710610,0710628,生產中,29機械設備製造業、25金屬製品製造業,292其他專用機械設備、293通用機械設備、251金屬刀具、手工具及模具,,刀片、車刀、刀具、刀架,,121.309586,25.0225353
伽利略科技股份有限公司,99629995,08910003325380,桃園市龍潭區高平里高楊南路一九巷二五號,桃園市龍潭區高平里,張素姝,84160830,股份有限公司,0890815,0890824,生產中,30汽車及其零件製造業、29機械設備製造業,303汽車零件、293通用機械設備,,汽車零件,,121.210014,24.8380051
松全企業有限公司,99625697,07210003109124,桃園市平鎮區東勢里金鷄湖五五之二號,桃園市平鎮區東勢里,葉英全,80603215,有限公司,0720927,0721008,生產中,23非金屬礦物製品製造業,233水泥及其製品,,水泥製品,,121.208488,24.9104671
展承塑膠工業股份有限公司,99628171,07310003135495,桃園市桃園區龍岡里龍壽街二一○之一二號,桃園市桃園區龍岡里,戴淵燦,34226631,股份有限公司,0731030,0781208,生產中,22塑膠製品製造業,220塑膠製品,,塑膠製品,,121.267784,24.9878082
萬錩實業有限公司,99625048,07410000233258,桃園市龜山區山福里頂興路六四巷八號,桃園市龜山區山福里,楊錕浦　　　,22110044,有限公司,0740723,0760114,生產中,22塑膠製品製造業,220塑膠製品,,各類塑膠製品,,121.328896,24.9881363
暉文企業有限公司,99627578,07410000238144,桃園市大園區北港里工六路七號,桃園市大園區北港里,簡聰田　,36075736,有限公司,0740807,0760701,生產中,29機械設備製造業,293通用機械設備,,紡織零件,,121.175964,25.0739746
錡宏科技股份有限公司,99623935,07410003006404,桃園市桃園區玉山里漢中路一一九巷二六弄九二號,桃園市桃園區玉山里,林黃彰　　　,02629490,股份有限公司,0740201,0741002,生產中,29機械設備製造業、26電子零組件製造業,292其他專用機械設備、293通用機械設備、269其他電子零組件,,機械器材,,121.30278,24.98427
名勝塑膠企業有限公司桃園廠,99624892,07210000195654,桃園市龜山區龍壽里東萬壽路六三一號,桃園市龜山區龍壽里,蔡瑞雄　　　,34276630,有限公司,0721128,0790612,生產中,22塑膠製品製造業,220塑膠製品,,塑膠泡綿,,121.375862,25.00952
台強科技股份有限公司,99627978,08410003071007,桃園市桃園區中埔里10鄰永安路1035號3樓,桃園市桃園區中埔里,溫慶華　　　,89380833,股份有限公司,0840522,0840601,生產中,27電腦、電子產品及光學製品製造業、26電子零組件製造業、28電力設備及配備製造業,271電腦及其週邊設備、273視聽電子產品、269其他電子零組件、285家用電器,,電子零組件加工,,121.284126,25.0093327
秉承企業股份有限公司平鎮廠,99686407,07310000248044,桃園市平鎮區東勢里金陵路七段一四八號,桃園市平鎮區東勢里,郭杏圭　　　,04347264,股份有限公司,0730915,0731013,生產中,11紡織業,115紡織品,,絲線織帶、絲線繩索,,121.2338,24.9005642
朕意科技有限公司,03001995,,桃園市蘆竹區長興里長興路四段227巷2號,桃園市蘆竹區長興里,陳文生,54526220,有限公司,,1021104,生產中,26電子零組件製造業,269其他電子零組件,,主機板,,121.268974,25.0658646
佶鼎科技股份有限公司觀音二廠,03001998,,桃園市觀音區樹林里觀音工業區國建三路３號,桃園市觀音區樹林里,鄭博仁,16886005,股份有限公司,,1021104,生產中,24基本金屬製造業,249其他基本金屬,,其他雜項基本化學材料（硫酸銅）,,121.106407,25.0585575
逸風實業股份有限公司一廠,99623140,07510003106132,桃園市蘆竹區內厝里大豐街四八號一樓,桃園市蘆竹區內厝里,林敬服　　,05719810,股份有限公司,0750808,0760527,生產中,11紡織業,112織布,,針織布，紡織布，棉紗布，人造纖,,121.29229,25.0621758
泰研精密工業股份有限公司,99717918,,桃園市八德區大安里和平路528巷29號、29號2樓、31號、31號2樓,桃園市八德區大安里,李進福,23481466,股份有限公司,,0981123,生產中,25金屬製品製造業、29機械設備製造業,251金屬刀具、手工具及模具、293通用機械設備,,通用機械設備,鐵材、五金、螺絲等,121.312256,24.95637
升強金屬工業股份有限公司,99621134,08410003071538,桃園市蘆竹區內厝里長興路三段二二九巷三五號,桃園市蘆竹區內厝里,賴日升　　　,86095841,股份有限公司,0840616,0860227,生產中,25金屬製品製造業,259其他金屬製品,,金屬製品,,121.27684,25.0693169
綺洋企業社,68001249,,桃園市平鎮區金星里南京路288號,桃園市平鎮區金星里,許沛綺,94959659,獨資,,1060509,生產中,29機械設備製造業,293通用機械設備,,機械零件加工,,121.203552,24.9162464
協和塑膠廠,99629806,06210000099614,桃園市龜山區龍壽里萬壽路一段五五一巷一弄四號,桃園市龜山區龍壽里,陳美雪　,43635313,獨資,0620807,0621108,生產中,22塑膠製品製造業,220塑膠製品,,塑膠袋,,121.395241,25.0162277
怡凌股份有限公司,99624964,08710003264102,桃園市蘆竹區內厝里內溪路39巷11號1樓、第1夾層2樓、第3層夾層、第4層,桃園市蘆竹區內厝里,蔡明宏　　　,12951790,股份有限公司,0870226,0880723,生產中,11紡織業、12成衣及服飾品製造業,112織布、114染整、123服飾品,,紡織用染料、糊料加工,,121.28006,25.0671177
鈞銘電子股份有限公司,03000100,,桃園市蘆竹區內厝里南山路2段205巷22弄5號,桃園市蘆竹區內厝里,劉益霞,16272180,股份有限公司,,0991116,生產中,26電子零組件製造業,263印刷電路板,,印刷電路板,,121.284355,25.0657711
台灣超冷科技股份有限公司,99706587,,桃園市楊梅區梅溪里二重溪５５之４號１樓,桃園市楊梅區梅溪里,王瓊凰,16266645,股份有限公司,,0950912,生產中,29機械設備製造業,291金屬加工用機械設備、293通用機械設備、292其他專用機械設備,,表面處理設備,,121.165421,24.902504
健鑫環境工程股份有限公司楊梅廠,99627817,08810000060348,桃園市楊梅區高山里高青路三九號,桃園市楊梅區高山里,吳子卿　　,22874409,股份有限公司,0880119,0890119,生產中,29機械設備製造業,293通用機械設備,http://www.hplusr.com.tw,工廠廢水、城市污水、畜牧養殖污水處理之設計及施工工業用水、軟水、純水處理之設計及施工各種廢氣處理、集塵設備之設計與施工垃圾及廢棄物等焚化處理之設計及施工防洪抽排水工程與設施之製造及施工環保設備之專業製造,不銹鋼材．配管．除臭設備．除臭系統單位控制盤．鐵板等耗材．儀電工程,121.160774,24.9269829
永塑精密工業股份有限公司,99722376,,桃園市龍潭區九龍里中興路九龍段129巷175弄8號,桃園市龍潭區九龍里,李麗珠,24206116,股份有限公司,,0990308,生產中,22塑膠製品製造業,220塑膠製品,,橡膠製品,,121.2473,24.87331
威瑞國際實業有限公司,68001935,,桃園市楊梅區中山里中山北路1段293巷17號3樓,桃園市楊梅區中山里,黃煥全,24646141,有限公司,,1070516,生產中,18化學原材料、肥料、氮化合物、塑橡膠原料及人造纖維製造業,183肥料及氮化合物,,肥料,,121.15712,24.9067326
亞碩企業股份有限公司東龍廠,03000719,,桃園市平鎮區東勢里東龍街1189號,桃園市平鎮區東勢里,葉楚融,84403317,股份有限公司,,1001020,生產中,29機械設備製造業,291金屬加工用機械設備、292其他專用機械設備、293通用機械設備,http://www.ael.com.tw,自動化電鍍設備及設備維修收入,整流器＊ＰＰ板＊電器零件＊不銹鋼鐵材,121.250648,24.9019165
克捷企業有限公司龍潭廠,68000121,,桃園市龍潭區高平里中豐路高平段10巷77號2樓,桃園市龍潭區高平里,洪秋娟,53727213,有限公司,,1040605,生產中,25金屬製品製造業、29機械設備製造業,259其他金屬製品、292其他專用機械設備、293通用機械設備,,其他未分類基本金屬製造,,121.212524,24.83911
巨禾村食品行,68003598,,桃園市八德區大仁里和平路1441巷22弄2衖5號（1樓）,桃園市八德區大仁里,鄭美玲,15831566,獨資,,1090827,生產中,08食品製造業,089其他食品,,,,,
金昱機電工業有限公司,68000279,,桃園市龍潭區北興里中興路54巷50號(2樓),桃園市龍潭區北興里,蔡進富,16965042,有限公司,,1040909,生產中,25金屬製品製造業、29機械設備製造業,254金屬加工處理、291金屬加工用機械設備、292其他專用機械設備、293通用機械設備,,空調箱、送風機,鐵板鋼架,121.24115,24.8796844
昱鐳光電科技股份有限公司中壢廠,99686643,,桃園市中壢區永光里民權路三段334巷56號1樓,桃園市中壢區永光里,王振松,12660131,股份有限公司,,0920411,生產中,19其他化學製品製造業,199未分類其他化學製品,,光電材料,,121.213745,24.9773464
道霖有限公司,03000730,,桃園市龍潭區聖德里湧光路一段161號,桃園市龍潭區聖德里,莊桂芬,80006358,有限公司,,1001028,生產中,08食品製造業,089其他食品,,海帶,,121.193214,24.887207
泰昌電子廠股份有限公司桃園廠,99629895,06010000079973,桃園市八德區廣興里建國路九○四號,桃園市八德區廣興里,謝錫慶　　　,07320915,股份有限公司,0580101,0610701,生產中,27電腦、電子產品及光學製品製造業、26電子零組件製造業、28電力設備及配備製造業,271電腦及其週邊設備、269其他電子零組件、262被動電子元件、264光電材料及元件、283電線及配線器材、289其他電力設備及配備,http://www.tcetaiwan.com,電源變壓器、電源供應器,矽鋼片、漆包銅線、鐵帶,121.291794,24.95328
邦翰企業有限公司,68003371,,桃園市大溪區月眉里信義路455巷21號,桃園市大溪區月眉里,曾坤男,80042431,有限公司,,1090430,生產中,29機械設備製造業,293通用機械設備,,,,,
桃園縣八德市農會,99717855,,桃園市八德區竹園里長興路７２５號１樓,桃園市八德區竹園里,邱顯國,43001900,農會組織,,0981006,生產中,08食品製造業,086碾榖、磨粉及澱粉製品,,白米,,121.266212,24.93303
成源鋼鐵有限公司,68000367,,桃園市八德區瑞豐里友聯街25號（1樓）,桃園市八德區瑞豐里,卓冠廷,24626010,有限公司,,1041119,生產中,25金屬製品製造業,252金屬結構及建築組件,,組合鋼架、成型鋼筋,,121.290657,24.9289474
勵佳科技股份有限公司,68001166,,桃園市蘆竹區錦中里南崁路1段231巷37號1樓,桃園市蘆竹區錦中里,游輝賢,54101321,股份有限公司,,1060330,生產中,29機械設備製造業,293通用機械設備,,螺絲加工,,121.284264,25.0519886
榮興木材行,99626761,06210000099240,桃園市大溪區仁善里介壽路五八四號,桃園市大溪區仁善里,黃春榮　　　,43625390,獨資,0620802,0670411,生產中,14木竹製品製造業,140木竹製品,,角材、板材,,121.287025,24.90894
振興木材行,99628933,06310000160840,桃園市楊梅區富岡里富源街二○號,桃園市楊梅區富岡里,彭勝郎　　　,44718305,獨資,0580101,0660202,生產中,14木竹製品製造業,140木竹製品,,角材、板材,,121.082031,24.9352989
合鎂企業有限公司,99623954,07310003023944,桃園市桃園區中泰里中山路九四三巷一弄二四號,桃園市桃園區中泰里,王麗美　　　,02488864,有限公司,0730410,0750205,生產中,28電力設備及配備製造業、29機械設備製造業、26電子零組件製造業,292其他專用機械設備、269其他電子零組件、289其他電力設備及配備,,電子量測儀器,,121.283684,24.98679
庭美有限公司,99625556,07110003095198,桃園市平鎮區北興里金陵路二段四一三號,桃園市平鎮區北興里,黃淑珠　　　,86397867,有限公司,0580101,0710818,生產中,32家具製造業、25金屬製品製造業、29機械設備製造業,322金屬家具、252金屬結構及建築組件、293通用機械設備,,一般金屬鐵櫃，鐵桌，椅，萬能角,,121.225563,24.9338646
晟有企業有限公司,99624349,07210003046810,桃園市八德區高明里高城七街一四號　　　　　　　　　　　　　　,桃園市八德區高明里,關清祥　　　,43865665,有限公司,0720516,0730131,生產中,28電力設備及配備製造業、29機械設備製造業、25金屬製品製造業,289其他電力設備及配備、259其他金屬製品、293通用機械設備、251金屬刀具、手工具及模具,,各類電子配件,,121.276581,24.9762878
振光精密工業有限公司,99627247,07310003078240,桃園市中壢區忠義里中華路一段八七九巷四號,桃園市中壢區忠義里,謝國源　　　,45158217,有限公司,0730628,0730826,生產中,29機械設備製造業,293通用機械設備,,沖壓模具,,121.24472,24.9667568
台光染整股份有限公司海湖廠,99625676,07610000101056,桃園市蘆竹區濱海里13鄰海湖北路309巷100號,桃園市蘆竹區濱海里,吳志榮　　　,43834853,股份有限公司,0760120,0780213,生產中,11紡織業,114染整,,一般布料之染色加工及整理,,121.261978,25.1132755
春霖機械有限公司,99626149,07410003035243,桃園市桃園區龍岡里龍壽街二七三巷一五號,桃園市桃園區龍岡里,李碧珠　　　,44035230,有限公司,0740501,0740725,生產中,29機械設備製造業,293通用機械設備,,金屬模具、特殊鋼刀具,,121.266731,24.9889164
隆億服裝材料廠股份有限公司,99625002,07210000164475,桃園市龜山區山頂里興業路三一號,桃園市龜山區山頂里,李慶良　　　,43778563,股份有限公司,0720826,0731220,生產中,11紡織業,111紡紗,,縫紉線,,121.329544,24.98814
三友塑膠泡棉有限公司,03002531,,桃園市蘆竹區海湖里中圳街17巷13號,桃園市蘆竹區海湖里,李茂炎,86996856,有限公司,,1031103,生產中,22塑膠製品製造業,220塑膠製品,,塑膠製品、塑膠泡棉,,121.263626,25.1032
台傑食品有限公司,99624279,,桃園市蘆竹區內厝里南山路二段394巷4之1號,桃園市蘆竹區內厝里,林頂洋,86595629,有限公司,,0910419,生產中,08食品製造業,089其他食品,,其他食品,,121.286087,25.0704079
巧瑩科技股份有限公司三廠,68000217,,桃園市大溪區仁善里介壽路250巷50號(1樓),桃園市大溪區仁善里,陳廖淑英,13070746,股份有限公司,,1040804,生產中,16印刷及資料儲存媒體複製業,160印刷及資料儲存媒體複製,http://www.chiaoin.com.tw,電極板、裸片,,121.290855,24.91967
史密特龍沙發有限公司,S6800251,,桃園市大園區後厝里2鄰後厝27-2號,桃園市大園區後厝里,蔡鳳枝,80484674,有限公司,,1090528,生產中,32家具製造業,321非金屬家具,,,,,
藝林鑄機股份有限公司,S6800253,,桃園市新屋區永安里15鄰永慶路5巷200號,桃園市新屋區永安里,徐一峯,22364362,股份有限公司,,1090528,生產中,29機械設備製造業,291金屬加工用機械設備、293通用機械設備,,,,,
立礎真空科技股份有限公司,03001610,,桃園市龜山區龍壽里萬壽路一段549號1樓,桃園市龜山區龍壽里,林雪,97348344,股份有限公司,,1020327,生產中,25金屬製品製造業,254金屬加工處理,,電力設備及零組件,,121.395126,25.0161819
富永洋傘股份有限公司,99624761,05810000005745,桃園市龜山區龍壽里萬壽路一段一號,桃園市龜山區龍壽里,歐長松　　　,43292864,股份有限公司,0580101,0590731,生產中,33其他製造業、11紡織業,339未分類其他製品、115紡織品,,女傘、男傘，塑膠傘，領巾雨衣,,121.4106,25.0209217
東周鋼鐵廠股份有限公司,99626734,05810000005829,桃園市平鎮區廣仁里大昌路三號,桃園市平鎮區廣仁里,周振輝　　　,44508835,股份有限公司,0580101,0590801,生產中,29機械設備製造業、24基本金屬製造業,293通用機械設備、241鋼鐵,,鋼筋,鋼胚,121.208549,24.941061
定誠企業股份有限公司,68002604,,桃園市龜山區大坑里南上路520巷28弄25號4樓,桃園市龜山區大坑里,巫磊德,86934022,股份有限公司,,1080325,生產中,15紙漿、紙及紙製品製造業,151紙漿、紙、紙板、152瓦楞紙板及紙容器,http://w.w.w.dincheng.com.tw,紙漿、紙、紙板，瓦楞紙板及紙容器,瓦楞紙板，Ｌ型角紙,121.307037,25.043457
大東塑膠工業有限公司,68002544,,桃園市大園區南港里長發一路173號（1樓）,桃園市大園區南港里,黃秀美,66279504,有限公司,,1080225,生產中,22塑膠製品製造業,220塑膠製品,,塑膠製品,,121.180809,25.0574474
大亞鋼鐵工業股份有限公司,99626824,07710003096793,桃園市大園區五權里13鄰五青路70巷9號,桃園市大園區五權里,楊國雄　　　,22952538,股份有限公司,0770810,0770829,生產中,24基本金屬製造業、25金屬製品製造業,241鋼鐵、251金屬刀具、手工具及模具,,鋁成型品及鋼鐵五金加工、機械製造買賣、矽鋼片,鐵圈,121.237846,25.0215073
大贏企業行,68000191,,桃園市平鎮區高雙里復旦路三段113號1樓,桃園市平鎮區高雙里,林明聰,41428730,獨資,,1040720,生產中,25金屬製品製造業,252金屬結構及建築組件、259其他金屬製品,,金屬製品,,121.195877,24.9431572
英瑞爾精工股份有限公司,68000192,,桃園市中壢區過嶺里福祥路289巷8號,桃園市中壢區過嶺里,張東暉,24889884,股份有限公司,,1040720,生產中,22塑膠製品製造業,220塑膠製品,,印刷品裁切及加工,,121.174294,24.9766369
好分享生技有限公司,03002029,,桃園市楊梅區中山里環東路289號1、2、3樓,桃園市楊梅區中山里,陳昌集,53961266,有限公司,,1021122,生產中,08食品製造業,089其他食品,,堅果，葡萄乾，蔓越莓乾,,121.157379,24.9070683
光鈦國際工業股份有限公司,99717854,,桃園市蘆竹區南榮里新南路一段３０５巷３６號１、２、３樓,桃園市蘆竹區南榮里,蔡裕豐,97366601,股份有限公司,,0981006,生產中,29機械設備製造業,291金屬加工用機械設備、293通用機械設備,http://fastek.com.tw,鋁擠型機器、機械零件,,121.295532,25.0384159
和興機械廠,99686839,06010003017802,桃園市龜山區新路里萬壽路二段一二八六、一二八八、一二九０號,桃園市龜山區新路里,何宗欽,43160532,獨資,0600216,0601109,生產中,25金屬製品製造業、29機械設備製造業,259其他金屬製品、293通用機械設備,,機械零件,鋼材,121.326172,24.9931488
台灣鐵芯股份有限公司楊梅廠,99626183,06110000019228,桃園市楊梅區梅溪里中山北路二段二六五巷四六號,桃園市楊梅區梅溪里,黃國真,07524930,股份有限公司,0580101,0611109,生產中,28電力設備及配備製造業,283電線及配線器材,,電磁鐵芯及其零件,,121.17466,24.9086475
洋信興業有限公司桃園廠,99706903,,桃園市蘆竹區中福里文中路１段１１９巷３之４號,桃園市蘆竹區中福里,陳恭岳,27467520,有限公司,,0960328,生產中,08食品製造業,089其他食品,,蜂蜜食品,,121.266869,24.9906826
晉菖有限公司二廠,99706915,,桃園市八德區茄苳里永興街３４號,桃園市八德區茄苳里,陳聯錦,16490094,有限公司,,0960330,生產中,11紡織業,112織布,,胚布、紗、絲、代工,,121.275322,24.9756947
宏得螺絲工業股份有限公司桃園廠,99621678,07710003145823,桃園市蘆竹區蘆竹里蘆竹街１１５號,桃園市蘆竹區蘆竹里,呂慶慈,89539171,股份有限公司,0771129,0790901,生產中,25金屬製品製造業,259其他金屬製品,http://www.funda.com.tw,螺絲,鐵線,121.268822,25.0512714
唐瑩實業有限公司,99626470,06210000015772,桃園市蘆竹區內厝里南山路二段二二五號,桃園市蘆竹區內厝里,林宜蓁　　,89988319,有限公司,0580101,0621203,生產中,22塑膠製品製造業,220塑膠製品,,塑膠製品,,121.286415,25.06643
合健木業有限公司,99629270,06310000006222,桃園市新屋區東明里一鄰東勢六號,桃園市新屋區東明里,葉張蘭菊　　,43691243,有限公司,0580101,0630607,生產中,14木竹製品製造業,140木竹製品,,其他木製品,,121.100594,24.9653168
君億企業股份有限公司龍潭廠,99628278,,桃園市龍潭區烏林里工五路三五號,桃園市龍潭區烏林里,陳福文,27814985,股份有限公司,,0911205,生產中,33其他製造業,339未分類其他製品,,銅廢料及碎屑,,121.211296,24.88834
俊誠實業有限公司,68001728,,桃園市觀音區樹林里經建一路46巷36號,桃園市觀音區樹林里,姜義誠,86724243,有限公司,,1070108,生產中,28電力設備及配備製造業,284照明設備及配備,,石英加熱管，石英燈，石英器具,,121.12822,25.059288
江岳企業有限公司,03000538,,桃園市平鎮區建安里平東路1段178巷35號,桃園市平鎮區建安里,莊景棟,16923183,有限公司,,1000720,生產中,16印刷及資料儲存媒體複製業,160印刷及資料儲存媒體複製,,印刷加工,,121.232544,24.913887
金旻瑞實業有限公司,99623137,07710003007339,桃園市大園區後厝里國際路二段四二五號,桃園市大園區後厝里,林聰益　　　,22315497,有限公司,0770319,0770623,生產中,29機械設備製造業、25金屬製品製造業,293通用機械設備、259其他金屬製品,,機械及五金零件,,121.221939,25.0852413
萬能企業社,68003632,,桃園市中壢區篤行里永福路18巷52號(一樓),桃園市中壢區篤行里,城國峰,34822477,獨資,,1090907,生產中,25金屬製品製造業,252金屬結構及建築組件,,,,,
祥好塑膠股份有限公司蘆竹廠,99629802,08910000905781,桃園市蘆竹區坑口里三德街一五巷一號,桃園市蘆竹區坑口里,陳鎬,09408562,股份有限公司,0890919,0891009,生產中,22塑膠製品製造業,220塑膠製品,,清潔劑瓶、漂白水瓶、塑膠成型模具、機器,,121.265076,25.0972157
聯王國際有限公司桃園廠,99707295,,桃園市蘆竹區內厝里南山路2段205巷22弄17號,桃園市蘆竹區內厝里,江惠莉,27342037,有限公司,,0961031,生產中,18化學原材料、肥料、氮化合物、塑橡膠原料及人造纖維製造業,181化學原材料,,基本化學材料,,121.283882,25.0665474
鴻銳科技股份有限公司二廠,68002364,,桃園市中壢區忠福里南園二路8號2樓,桃園市中壢區忠福里,林陳興,53055480,股份有限公司,,1071115,生產中,29機械設備製造業,292其他專用機械設備,http://www.acutetouch.com.tw/,觸控關鍵材料、觸控感測元件、觸控面板／模組,塑膠薄膜、強化玻璃、光學膠,121.231285,24.97197
葦昌有限公司,68002302,,桃園市平鎮區新榮里崇德街13巷9號(1樓),桃園市平鎮區新榮里,吳春香,86758799,有限公司,,1071025,生產中,15紙漿、紙及紙製品製造業,152瓦楞紙板及紙容器,,紙箱,,121.212112,24.9460869
耀鼎資源循環股份有限公司,03002211,,桃園市觀音區樹林里國建三路7-1號,桃園市觀音區樹林里,施雲鵬,54506287,股份有限公司,,1030326,生產中,19其他化學製品製造業,199未分類其他化學製品,,其他化學製品,溶劑,121.108086,25.05974
柯富伊企業有限公司二廠,S6800246,,桃園市大園區五權里青昇路一段47巷79號,桃園市大園區五權里,高生龍,27260485,有限公司,,1090527,生產中,22塑膠製品製造業,220塑膠製品,,,,,
驊紘實業股份有限公司二廠,03001520,,桃園市桃園區大林里大仁路50巷55號,桃園市桃園區大林里,賴銘珠,80746298,有限公司,,1020128,生產中,11紡織業,115紡織品,,布,,121.321419,24.972229
金益鐵工廠,99627196,06110000010204,桃園市中壢區中原里文化路一二六號,桃園市中壢區中原里,林正康　　　,44621787,獨資,0610202,0610629,生產中,25金屬製品製造業,252金屬結構及建築組件,,金屬門窗,,121.2538,24.9741726
乘福工業有限公司,99686221,,桃園市蘆竹區長興里南崁路２段２２６巷１６、１８號,桃園市蘆竹區長興里,王枝蘭,35900225,有限公司,,0920217,生產中,25金屬製品製造業、29機械設備製造業,292其他專用機械設備、291金屬加工用機械設備、259其他金屬製品,,樹脂定型機,,121.275787,25.0596428
民享工業股份有限公司,99629342,06410000001985,桃園市新屋區頭洲里新榮路五八三號,桃園市新屋區頭洲里,吳修哲　　　,43716933,股份有限公司,0580101,0650430,生產中,25金屬製品製造業、24基本金屬製造業,259其他金屬製品、254金屬加工處理、243銅、249其他基本金屬、242鋁,,鋁合金錠鋁輪圈,,121.150826,24.9536476
毅全有限公司,68001724,,桃園市蘆竹區長興里南崁路2段228巷113弄23號,桃園市蘆竹區長興里,張軍毅,69691768,有限公司,,1070108,生產中,25金屬製品製造業,254金屬加工處理,,鋁合金製品,,121.271912,25.062088
滙弘針織廠有限公司,99626078,08310003065813,桃園市八德區福興里廣興路三一六巷六號,桃園市八德區福興里,吳孟宏　　　,84692386,有限公司,0830701,0830917,生產中,11紡織業,112織布,,針織布,,121.2857,24.9376469
偉倢股份有限公司,68001758,,桃園市蘆竹區中福里龍壽街1段77之6號(7樓),桃園市蘆竹區中福里,徐啟清,28540886,股份有限公司,,1070125,生產中,30汽車及其零件製造業、31其他運輸工具及其零件製造業,303汽車零件、312機車及其零件,,汽車零件,,121.2671,24.9909515
珈新金屬有限公司,68001754,,桃園市桃園區汴洲里春日路1434巷115號,桃園市桃園區汴洲里,吳鑫彥,24856510,有限公司,,1070123,生產中,25金屬製品製造業、29機械設備製造業,252金屬結構及建築組件、254金屬加工處理、293通用機械設備,,金屬加工處理,,121.307526,25.0288258
順臆股份有限公司八德廠,68001649,,桃園市八德區茄苳里永豐路226巷68弄5號(1樓),桃園市八德區茄苳里,呂芷,27832745,股份有限公司,,1061201,生產中,29機械設備製造業,291金屬加工用機械設備、292其他專用機械設備、293通用機械設備,,機械軸封,,121.2807,24.96655
葳鴻科技股份有限公司,03001779,,桃園市龜山區南上里民生北路一段40之2號3樓之11,桃園市龜山區南上里,黃淑華,53034845,股份有限公司,,1020717,生產中,22塑膠製品製造業、25金屬製品製造業、26電子零組件製造業,220塑膠製品、251金屬刀具、手工具及模具、262被動電子元件、269其他電子零組件,,其他電子零組件,,121.30584,25.032383
肯進實業股份有限公司,03002593,,桃園市蘆竹區宏竹里南青路633號-2,桃園市蘆竹區宏竹里,吳政峰,53146258,股份有限公司,,1031208,生產中,27電腦、電子產品及光學製品製造業,275量測、導航、控制設備及鐘錶,,量測、導航、控制設備及鐘錶,鈹銅、橡膠圈、游絲,121.249168,25.0462589
宜春企業股份有限公司,68000062,,桃園市觀音區富源里新富路183號,桃園市觀音區富源里,吳廷財,86151287,股份有限公司,,1040511,生產中,27電腦、電子產品及光學製品製造業,271電腦及其週邊設備,,顯示器,,121.147652,24.9670963
鼎宏製麵廠,68003246,,桃園市中壢區內定里內定二十街15巷19號(1樓),桃園市中壢區內定里,吳孟則,85252408,獨資,,1090304,生產中,08食品製造業,089其他食品,,,,,
震湘工業股份有限公司,99621564,06110000099599,桃園市楊梅區青山里幼獅工業區獅二路3號,桃園市楊梅區青山里,吳家宇,33701691,股份有限公司,0580101,0900726,生產中,13皮革、毛皮及其製品製造業,130皮革、毛皮及其製品,,塑膠鞋、皮鞋、運動鞋、工作鞋其它化粧品類,,121.17482,24.9254131
鋁粒企業有限公司,68002898,,桃園市中壢區普忠里普忠路211巷7弄7號(3樓),桃園市中壢區普忠里,呂雅莉,50960854,有限公司,,1080819,生產中,25金屬製品製造業、29機械設備製造業,254金屬加工處理、293通用機械設備,,,,,
立英德有限公司,03001297,,桃園市龍潭區高平里高楊南路17號,桃園市龍潭區高平里,羅孝一,24255018,有限公司,,1010914,生產中,33其他製造業,332醫療器材及用品,,助行器、洗澡床,,121.209335,24.8374176
天富實業有限公司,68001138,,桃園市中壢區龍興里龍興路401巷26-1號2樓,桃園市中壢區龍興里,王林偉,69588075,有限公司,,1060321,生產中,28電力設備及配備製造業,285家用電器,,家庭電器,,121.241272,24.9403687
台融電子有限公司二廠,68001127,,桃園市八德區大發里後庄街33巷8號,桃園市八德區大發里,林榮翰,16236729,有限公司,,1060320,生產中,29機械設備製造業,293通用機械設備,,印刷電路板加工,油墨,121.3241,24.9572449
曲記食品有限公司桃園廠,99629299,08310000156469,桃園市大園區南港里長發一路177號,桃園市大園區南港里,陳金英　　　,04655326,有限公司,0830627,0840829,生產中,08食品製造業,089其他食品,,豆沙、糕餅,,121.181969,25.05763
國華琺瑯製衣機械工業股份有限公司,99621597,05810000001159,桃園市龜山區嶺頂里萬壽路二段四一五號,桃園市龜山區嶺頂里,黃林阿嬌　　,11594943,股份有限公司,0580101,0900801,生產中,12成衣及服飾品製造業,121成衣,,成衣,,121.351669,25.0015335
日皓造紙工業股份有限公司觀音二廠,03001322,,桃園市觀音區樹林里工業園區國建三路5號1樓,桃園市觀音區樹林里,林哲慧,24001900,股份有限公司,,1010928,生產中,29機械設備製造業,292其他專用機械設備、293通用機械設備,,文化用紙,紙漿、澱粉、碳酸鈣、上膠劑,121.128777,25.0140514
寶銘工業股份有限公司,99628895,07610003136747,桃園市蘆竹區錦興里南工路一段8-3號,桃園市蘆竹區錦興里,邱繼緯　　　,22289603,股份有限公司,0761130,0771231,生產中,26電子零組件製造業,263印刷電路板,,印刷電路板,,121.2783,25.05846
立菖國際有限公司,68001089,,桃園市蘆竹區山鼻里南山路3段17巷2-5號(2樓),桃園市蘆竹區山鼻里,楊明豐,69517001,有限公司,,1060218,生產中,12成衣及服飾品製造業,121成衣、123服飾品,,各式成衣制服製造,,121.284462,25.07716
禾昇精密有限公司,03001567,,桃園市八德區茄苳里寶豐街15巷2弄15號1樓,桃園市八德區茄苳里,鄭耀堂,80639662,有限公司,,1020305,生產中,29機械設備製造業,291金屬加工用機械設備、293通用機械設備,,軸心,,121.275574,24.96597
詠翰科技股份有限公司大溪廠,99686998,,桃園市大溪區中新里１７鄰大鶯路１３２０巷６２號,桃園市大溪區中新里,施俊仲,22249384,股份有限公司,,0920624,生產中,19其他化學製品製造業,199未分類其他化學製品,,焊錫膏、助焊劑,,121.315186,24.92671
呈宸企業有限公司,99707238,,桃園市八德區瑞泰里瑞源一街38號,桃園市八德區瑞泰里,呂俊男,28389158,有限公司,,0960929,生產中,22塑膠製品製造業、29機械設備製造業,220塑膠製品、292其他專用機械設備、293通用機械設備,,金蔥粉,ＰＶＣ（塑膠片）、ＰＥＴ,121.295624,24.939455
福泉木業工業股份有限公司,99629266,05810000016765,桃園市蘆竹區山鼻里五鄰南山路二段五二一號,桃園市蘆竹區山鼻里,陳慶忠　　　,12210608,股份有限公司,0580101,0690109,生產中,32家具製造業,321非金屬家具,,木製家俱製品,,121.285141,25.07392
天明化工有限公司,99624431,05810000106444,桃園市新屋區埔頂里一九號,桃園市新屋區埔頂里,魏丁明　　　,44539817,有限公司,0581217,0590430,生產中,23非金屬礦物製品製造業、18化學原材料、肥料、氮化合物、塑橡膠原料及人造纖維製造業,239其他非金屬礦物製品、181化學原材料,,石灰、石灰石粉、其他石灰製品,,121.096947,24.9580975
華兆企業股份有限公司,99628504,06310000049418,桃園市大溪區一心里一九鄰一○三之一號,桃園市大溪區一心里,呂永金　　　,43806723,股份有限公司,0580101,0631014,生產中,14木竹製品製造業、32家具製造業,140木竹製品、321非金屬家具,,木桌椅、雕刻品、（木製品）,,121.338226,24.876833
王日進機械股份有限公司,99626884,08110003059291,桃園市八德區大發里一鄰和平路七○四巷一六號,桃園市八德區大發里,蔡桂芳　　　,86632461,股份有限公司,0810514,0810521,生產中,29機械設備製造業,293通用機械設備,,機械及零件,,121.318062,24.9555149
伍加實業股份有限公司,99623366,07110003156598,桃園市大溪區瑞興里11鄰大鶯路479號,桃園市大溪區瑞興里,簡進添　　　,44408287,股份有限公司,0711213,0720715,生產中,30汽車及其零件製造業、31其他運輸工具及其零件製造業,303汽車零件、319未分類其他運輸工具及其零件,,銅製品、鋁製品、槽鐵,鐵板、鋁錠、角鐵、型鋼,121.294853,24.9068127
安宇企業有限公司大園廠,99686104,08510000430443,桃園市大園區內海里中山北路268巷7號,桃園市大園區內海里,吳阿美　　　,22019427,有限公司,0850506,0880915,生產中,19其他化學製品製造業,199未分類其他化學製品,,皮膜劑、脫脂劑、促進劑,,121.186958,25.077177
新光紡織股份有限公司桃園廠,99629046,06310000174380,桃園市大溪區仁善里15鄰松樹21-1號,桃園市大溪區仁善里,黃永鑫　,43730317,股份有限公司,0580101,0641202,生產中,11紡織業,112織布,,衣料用布、毛料用布,,121.28923,24.9194164
金龍開發企業有限公司,99707809,,桃園市龜山區大華里大華里頂湖一街１５號１樓,桃園市龜山區大華里,曾博靖,80506430,有限公司,,0970908,生產中,15紙漿、紙及紙製品製造業,159其他紙製品,,,,,
靖灃應用材料股份有限公司,03001403,,桃園市楊梅區永平里永平路501號,桃園市楊梅區永平里,高文正,53788745,股份有限公司,,1011112,生產中,18化學原材料、肥料、氮化合物、塑橡膠原料及人造纖維製造業,184塑膠及合成橡膠原料,,壓克力感壓膠、工程塑膠,,121.175865,24.9194489
倍鴻有限公司,03000336,,桃園市平鎮區東勢里洪圳路1125巷8號1樓,桃園市平鎮區東勢里,曾桂蘭,97361514,有限公司,,1000406,生產中,25金屬製品製造業,251金屬刀具、手工具及模具,,模具設計、模具製造維修,,121.243515,24.89105
逢春鋼業有限公司,03000224,,桃園市中壢區內定里合定路24號,桃園市中壢區內定里,羅時浩,36050427,有限公司,,1000114,生產中,25金屬製品製造業,254金屬加工處理,,其他金屬,,121.242882,24.9886284
璐瑪企業有限公司新屋廠,03000606,,桃園市新屋區九斗里中山東路二段257號1樓,桃園市新屋區九斗里,盧南志,86764743,有限公司,,1000819,生產中,21橡膠製品製造業、11紡織業、33其他製造業,210橡膠製品、115紡織品、332醫療器材及用品,,橡膠製品,,121.13765,24.9692936
錦昱企業有限公司,99628133,08610003302889,桃園市八德區大發里和成路二四之二號,桃園市八德區大發里,曾淑嬅　　　,12608924,有限公司,0860416,0860421,生產中,29機械設備製造業、26電子零組件製造業,293通用機械設備、269其他電子零組件,,電子加工產品,,121.32225,24.9617767
佑鑫電機有限公司,68000041,,桃園市龜山區大華里頂湖五街12巷8號(1樓),桃園市龜山區大華里,謝鑫雄,80171933,有限公司,,1040428,生產中,28電力設備及配備製造業,281發電、輸電及配電機械,,配電盤、配電箱,,121.365707,25.0405941
敦邦針織廠股份有限公司,99686561,07310003078795,桃園市龜山區南上里民生北路一段二巷四弄一號,桃園市龜山區南上里,李文隆　　　,22557966,股份有限公司,0730718,0730919,生產中,11紡織業,112織布,,針織布,,121.3054,25.0309448
統笙塑膠廠有限公司,99686264,08010003148736,桃園市八德區大發里後庄街九七號,桃園市八德區大發里,許永源　　　,86267920,有限公司,0800907,0800920,生產中,22塑膠製品製造業,220塑膠製品,,塑膠袋,,121.326965,24.9582615
合力精密電子股份有限公司,03001299,,桃園市平鎮區平南里天津街203巷20號1樓,桃園市平鎮區平南里,蔡昆泰,89716767,股份有限公司,,1010914,生產中,29機械設備製造業、26電子零組件製造業,293通用機械設備、269其他電子零組件,,網通產品,電子零件等,121.2065,24.9083157
索億科技有限公司,68002447,,桃園市中壢區內定里內定二十街158巷13號,桃園市中壢區內定里,杜茂斌,24629902,有限公司,,1071221,生產中,28電力設備及配備製造業、29機械設備製造業,285家用電器、293通用機械設備,http://WWW.BESP.URL.TW,空氣淨化器，新風系統,鋁板，鐵板，電子,121.233086,25.0036125
泰崙工業股份有限公司,99627699,06710000204444,桃園市中壢區忠福里中壢工業區北園路二一號,桃園市中壢區忠福里,謝韻明　　　,30877230,股份有限公司,0580101,0690613,生產中,18化學原材料、肥料、氮化合物、塑橡膠原料及人造纖維製造業,181化學原材料、184塑膠及合成橡膠原料,,醇酸樹脂、聚、樹脂,,121.225342,24.970047
順匯實業有限公司,68003103,,桃園市中壢區內定里內定二十街158巷45號(1樓),桃園市中壢區內定里,簡君麟,54941009,有限公司,,1081213,生產中,29機械設備製造業,293通用機械設備,,通用機械設備,,121.23439,25.003603
廣美針織有限公司,68000130,,桃園市蘆竹區上竹里5鄰大竹圍93號,桃園市蘆竹區上竹里,林祐勤,53878181,有限公司,,1040609,生產中,11紡織業,112織布,,織布，代工繳,,121.263512,25.0208778
富登股份有限公司楊梅一廠,99626661,08610003307578,桃園市楊梅區瑞原里民富路一段７９６巷２５號,桃園市楊梅區瑞原里,陳勝龍　　　,22955681,股份有限公司,0861118,0861124,生產中,15紙漿、紙及紙製品製造業,159其他紙製品,http://www.phomosa.com.tw,衛生用品（看護墊，衛生桌巾）,,121.118652,24.9262676
祥鼎辦公家具有限公司,03002002,,桃園市桃園區玉山里玉山街233巷48弄18號2樓,桃園市桃園區玉山里,楊信賢,16877792,有限公司,,1021105,生產中,32家具製造業、25金屬製品製造業,321非金屬家具、322金屬家具、259其他金屬製品,,辦公家具,,121.301193,24.9835529
尚威西點麵包工廠,99717787,,桃園市平鎮區平南里中豐路南勢２段４６０巷１０２、１０２－１號,桃園市平鎮區平南里,林家毅,29313419,獨資,,0980818,生產中,08食品製造業,089其他食品,,糕餅麵包,,121.204956,24.90764
錫標有限公司,99686779,06310000022228,桃園市觀音區大同里大堀一六五之一號,桃園市觀音區大同里,孫幼英　　　,12175721,有限公司,0630308,0640424,生產中,11紡織業、22塑膠製品製造業,112織布、220塑膠製品,,棉布、混紡布、ＰＰ、ＰＥ、塑膠編,,121.132317,25.0078735
福星製衣廠股份有限公司龜山一廠,99686476,,桃園市龜山區山頂里興業街二號三樓,桃園市龜山區山頂里,蔡昭倫,03527801,股份有限公司,,0920318,生產中,12成衣及服飾品製造業,121成衣、123服飾品,,,,,
錦馨企業有限公司,03001238,,桃園市八德區大安里和平路528巷89號,桃園市八德區大安里,陳勝富,70661947,有限公司,,1010820,生產中,08食品製造業,089其他食品,,食品製造,,121.3131,24.95465
普捷科技有限公司桃園廠,99717794,,桃園市桃園區汴洲里經國路８３８號３樓之３,桃園市桃園區汴洲里,李安中,22652292,有限公司,,0980824,生產中,27電腦、電子產品及光學製品製造業,271電腦及其週邊設備,http://www.clearcast.biz,行動電話增波器，天線,,121.300789,25.0309124
羿威實業有限公司,68002734,,桃園市楊梅區永平里新農街二段209巷62弄71號,桃園市楊梅區永平里,鍾欣學,53985062,有限公司,,1080529,生產中,22塑膠製品製造業,220塑膠製品,,塑膠製品,,121.173454,24.9136028
久霆股份有限公司中壢廠,99717732,,桃園市中壢區永福里西園路１３０號１樓及２樓,桃園市中壢區永福里,葉敏,36265378,股份有限公司,,0980715,生產中,29機械設備製造業、25金屬製品製造業、30汽車及其零件製造業、31其他運輸工具及其零件製造業,293通用機械設備、251金屬刀具、手工具及模具、259其他金屬製品、303汽車零件、319未分類其他運輸工具及其零件,,金屬零件加工、其他鋁裝品,,121.234283,24.9797821
智頻科技股份有限公司,68003663,,桃園市龍潭區高原里渴望路83號（一樓）,桃園市龍潭區高原里,林錫炫,54945912,股份有限公司,,1090925,生產中,27電腦、電子產品及光學製品製造業,272通訊傳播設備、275量測、導航、控制設備及鐘錶,,,,,
寬正機電有限公司,68000914,,桃園市新屋區九斗里11鄰中華南路1段293號,桃園市新屋區九斗里,林光榮,16027526,有限公司,,1051025,生產中,29機械設備製造業,293通用機械設備,,各種乘人電梯、客貨電梯、昇降梯,,121.114067,24.9609814
艾克爾國際科技股份有限公司龍潭廠,99622766,08510000406067,桃園市龍潭區高平里中豐路高平段1號,桃園市龍潭區高平里,周玉樹,16631664,股份有限公司,0850704,0860827,生產中,26電子零組件製造業,261半導體,,ＩＣ構裝測試,,121.210625,24.841608
全風風機股份有限公司幼獅廠,03000652,,桃園市楊梅區高上里幼一路10號,桃園市楊梅區高上里,謝嘉邦,29099641,股份有限公司,,1000920,生產中,29機械設備製造業,292其他專用機械設備、293通用機械設備,,鼓風機、集塵機,,121.169914,24.9282818
福益興有限公司,99624747,08710003267388,桃園市龍潭區高原里1鄰高原路367巷163弄26號,桃園市龍潭區高原里,羅仕青　　　,16266975,有限公司,0870803,0890301,生產中,29機械設備製造業,293通用機械設備,,冷氣、冷凍空調設備,,121.19873,24.8264122
大生鐵工廠,99629019,05410000034234,桃園市龍潭區龍潭里龍華路三四號,桃園市龍潭區龍潭里,王興鎮　　　,44503803,獨資,0540715,0610731,生產中,29機械設備製造業、25金屬製品製造業,293通用機械設備、259其他金屬製品,,農藝機械零組件,,121.21508,24.8656654
台灣富貴電子工業股份有限公司,99623226,05410000045792,桃園市龜山區山頂里山鶯路一五八號,桃園市龜山區山頂里,李益然,43431508,股份有限公司,0540801,0550111,生產中,26電子零組件製造業、29機械設備製造業、28電力設備及配備製造業,262被動電子元件、281發電、輸電及配電機械、293通用機械設備,https://twnoble.blogspot.com/,炭膜可變電阻器、開關器、編碼器、水泥電阻,,121.324738,24.9880447
閔富科技股份有限公司,68001034,,桃園市龜山區南美里南上路290巷42弄11號2樓,桃園市龜山區南美里,陳美玉,53863933,股份有限公司,,1060105,生產中,25金屬製品製造業,254金屬加工處理,,ＰＣＢ板,,121.301559,25.0440712
研碩實業有限公司,68003336,,桃園市觀音區崙坪里忠愛路二段198-187號、198-189號,桃園市觀音區崙坪里,劉馥樓,27471209,有限公司,,1090521,生產中,19其他化學製品製造業,192塗料、染料及顏料,,,,,
有吉工業有限公司,03001563,,桃園市平鎮區平鎮里平德路49巷1弄4號,桃園市平鎮區平鎮里,張祥添,54123079,有限公司,,1020304,生產中,29機械設備製造業,292其他專用機械設備,,其他專用機械設備,,121.193275,24.9271946
下寮農業生物科技有限公司龜山廠,68003090,,桃園市龜山區大華里27鄰忠義路二段260巷58號(1樓),桃園市龜山區大華里,楊棋幃,42957476,有限公司,,1081217,生產中,08食品製造業,089其他食品,,其他食品,,121.359474,25.0454178
三商餐飲股份有限公司大園廠,99686378,07810000181577,桃園市大園區北港里工一路九號,桃園市大園區北港里,曾俊雄,97301707,股份有限公司,0780202,0780505,生產中,08食品製造業,081肉類加工、085乳品、089其他食品,,冷凍牛肉調理包、生麵條、肉品分切,,121.178009,25.065094
華新科技股份有限公司楊梅廠,99621353,08110000086636,桃園市楊梅區高山里高獅路５６６之１號２樓、３樓,桃園市楊梅區高山里,焦佑衡　　　,19004316,股份有限公司,0811109,0821207,生產中,26電子零組件製造業,262被動電子元件,http://www.passivecomponent.com,積層陶瓷、晶片電容,,121.158752,24.9241123
中祥食品工業股份有限公司八德三廠,68001502,,桃園市八德區廣興里廣福路613-1號（4樓）,桃園市八德區廣興里,李昭志,04850123,股份有限公司,,1060918,生產中,25金屬製品製造業,254金屬加工處理,,治具,,121.283951,24.9592285
晶勇實業股份有限公司,99626198,06210000058142,桃園市桃園區中埔里永安路九六四巷二二弄一○號,桃園市桃園區中埔里,余淑晶,43766222,股份有限公司,0620516,0630530,生產中,22塑膠製品製造業、28電力設備及配備製造業、26電子零組件製造業,220塑膠製品、262被動電子元件、289其他電力設備及配備,,其他線圈,,121.289612,25.0090828
普泰光電股份有限公司,99707538,,桃園市中壢區內定里松江北路２號１樓,桃園市中壢區內定里,張永宗,28173988,股份有限公司,,0970408,生產中,26電子零組件製造業、27電腦、電子產品及光學製品製造業、29機械設備製造業、25金屬製品製造業,269其他電子零組件、272通訊傳播設備、292其他專用機械設備、251金屬刀具、手工具及模具,,電子連接器,,121.248695,24.985384
愛加食品有限公司龍潭廠,99722304,,桃園市龍潭區烏林里中豐路５３３巷１４６弄６７號１樓,桃園市龍潭區烏林里,黃何合,01861408,有限公司,,0990115,生產中,08食品製造業,089其他食品,,巧克力糖,,121.207458,24.88501
琉璃天奈米生物科技有限公司桃園廠,03000395,,桃園市龜山區嶺頂里萬壽路2段341號10樓,桃園市龜山區嶺頂里,蕭智遠,80724956,有限公司,,1000502,生產中,18化學原材料、肥料、氮化合物、塑橡膠原料及人造纖維製造業,183肥料及氮化合物,,奈米肥料,,121.356766,25.00113
易鼎股份有限公司二廠,99707104,,桃園市中壢區文化里松江南路１號,桃園市中壢區文化里,林崑津,96856411,股份有限公司,,0960710,生產中,,,,軟性印刷電路板,,121.244308,24.9799747
永豐鑫實業有限公司,99626909,06310000038713,桃園市八德區廣興里新興路一七○巷十一號,桃園市八德區廣興里,黃賴秀麗,70690921,有限公司,0580101,0640219,生產中,11紡織業,111紡紗,,混紡布，胚布（毛，龍，棉），毛,,121.287125,24.9515018
營邦企業股份有限公司二廠,99707246,,桃園市蘆竹區新莊里大興路20巷21弄22號（地下一層、地上一層、地上四層、突出物一層）,桃園市蘆竹區新莊里,梁順營,96994977,股份有限公司,,0961001,生產中,27電腦、電子產品及光學製品製造業,271電腦及其週邊設備、272通訊傳播設備,,電腦及其零組件,,121.2516,25.0211544
富詠富機具有限公司,68002780,,桃園市桃園區中信里中山路1000之2號14樓之3,桃園市桃園區中信里,張宗麟,54930782,有限公司,,1080624,生產中,25金屬製品製造業、30汽車及其零件製造業,259其他金屬製品、303汽車零件,,其他金屬製品,,121.285126,24.98884
真國級興業有限公司,S6800055,,桃園市楊梅區高上里10鄰幼獅路二段407號,桃園市楊梅區高上里,陳秋梅,86632477,有限公司,,1090423,生產中,32家具製造業,321非金屬家具,,,,,
振興機械股份有限公司,68000154,,桃園市觀音區廣興里保興路一段198號,桃園市觀音區廣興里,杜富義,35949206,股份有限公司,,1040623,生產中,25金屬製品製造業、29機械設備製造業,254金屬加工處理、292其他專用機械設備、293通用機械設備,http://www.jet-shine.com.tw,金屬零件加工,,121.086967,25.0283146
群瑞精密股份有限公司,68001634,,桃園市楊梅區梅溪里新農街二段209巷79-3號1樓,桃園市楊梅區梅溪里,鄒平貴,45121824,股份有限公司,,1061121,生產中,27電腦、電子產品及光學製品製造業、29機械設備製造業,275量測、導航、控制設備及鐘錶、277光學儀器及設備、293通用機械設備,,通用機械設備,,121.168304,24.915062
郁霖股份有限公司中壢廠,03002080,,桃園市中壢區永福里東園路30之2號,桃園市中壢區永福里,張國裕,89686139,股份有限公司,,1021219,生產中,25金屬製品製造業、28電力設備及配備製造業、29機械設備製造業,252金屬結構及建築組件、259其他金屬製品、281發電、輸電及配電機械、291金屬加工用機械設備、292其他專用機械設備、293通用機械設備,,焊件、機械座、機械臺、吊軌,,121.240227,24.9750576
栓揚有限公司,68003317,,桃園市龜山區大坑里南上路520巷20號五樓,桃園市龜山區大坑里,蕭穆輝,84853066,有限公司,,1090407,生產中,25金屬製品製造業、29機械設備製造業,259其他金屬製品、293通用機械設備,,,,,
賀鈞企業有限公司,99623631,08210003144431,桃園市蘆竹區新興里中興二街七號,桃園市蘆竹區新興里,洪玉美　　　,89245350,有限公司,0820806,0831217,生產中,25金屬製品製造業,252金屬結構及建築組件,,金屬門窗,,121.264832,25.0148621
佳圓軸承股份有限公司,03000832,,桃園市中壢區中山里永福路602號,桃園市中壢區中山里,蔡聰能,53611655,股份有限公司,,1001215,生產中,,,http://www.exfiro.com.tw,滾柱、滾子、圓棒、有限行程、軸承、滑臺,,121.260284,24.9591446
佳鑫針織有限公司,03000250,,桃園市蘆竹區內厝里長安路二段120巷8弄12號,桃園市蘆竹區內厝里,許淑玲,53290350,有限公司,,1000209,生產中,11紡織業、12成衣及服飾品製造業,112織布、121成衣,,織布,,121.28421,25.0646172
今和印刷企業股份有限公司,99625263,08410003149737,桃園市桃園區玉山里玉山街二三三巷九號,桃園市桃園區玉山里,陳朝培　　,89682507,股份有限公司,0840929,0841018,生產中,15紙漿、紙及紙製品製造業,159其他紙製品,,工商表格，海報,,121.299927,24.9840736
成豐企業社,03002547,,桃園市蘆竹區蘆竹里南崁路2段419巷22弄17號（1樓）,桃園市蘆竹區蘆竹里,蘇麗雪,19681147,獨資,,1031107,生產中,25金屬製品製造業,252金屬結構及建築組件、254金屬加工處理,,金屬結構及建築組件，金屬加工處理,,121.268265,25.0605965
台灣優芮特股份有限公司龍潭廠,99623886,08710000905601,桃園市龍潭區烏林里工二路298巷80弄26-5號,桃園市龍潭區烏林里,陳錦源　　　,16416519,股份有限公司,0870622,0870821,生產中,19其他化學製品製造業,199未分類其他化學製品,,聚多元醇配方及異氰酸鹽配方、ＰＯＬ２５８８、ＰＯＬ３１２１,,121.20446,24.8886051
賀將科技有限公司,99626944,,桃園市八德區瑞豐里友聯街２９巷２３號,桃園市八德區瑞豐里,柯龍,80236605,有限公司,,0910917,生產中,27電腦、電子產品及光學製品製造業、26電子零組件製造業,271電腦及其週邊設備、277光學儀器及設備、269其他電子零組件,,電腦週邊設備,,121.291649,24.9290066
辰維科技工程有限公司桃園廠,03000710,,桃園市平鎮區廣仁里大昌路55巷18號3樓,桃園市平鎮區廣仁里,周怡君,16278472,有限公司,,1001019,生產中,29機械設備製造業,293通用機械設備,,停車場設備,電子產品,121.210022,24.939806
協益電子股份有限公司觀音廠,99621974,08010000418001,桃園市觀音區樹林里觀音工業區經建一路30號,桃園市觀音區樹林里,王自軍,35229109,股份有限公司,0801220,0820615,生產中,22塑膠製品製造業、27電腦、電子產品及光學製品製造業、33其他製造業,220塑膠製品、271電腦及其週邊設備、331育樂用品,http://www.sirtec.com.tw,塑膠外殼,,121.124886,25.0573177
有駿實業股份有限公司,68000773,,桃園市龍潭區烏林里工二路1段213號,桃園市龍潭區烏林里,黃春妹,24714914,股份有限公司,,1050729,生產中,30汽車及其零件製造業,303汽車零件,,汽車零件製造,,121.207237,24.8906288
聯華製粉食品股份有限公司富岡工廠,99686195,05810000007256,桃園市楊梅區員本里民富路3段647號,桃園市楊梅區員本里,吳漢民,82823910,股份有限公司,0580101,0600101,生產中,08食品製造業,089其他食品、084動植物油脂、086碾榖、磨粉及澱粉製品,,麵粉、義大利麵,,121.091408,24.93356
鼎旺工業社,99625558,06310000160480,桃園市平鎮區宋屋里新光路二段八三號,桃園市平鎮區宋屋里,程思偉　　　,44963952,獨資,0631116,0670707,生產中,29機械設備製造業、31其他運輸工具及其零件製造業,293通用機械設備、313自行車及其零件,,雜項鋼材,,121.204849,24.9311943
萬鑫鋼鐵有限公司蘆竹廠,99688378,,桃園市蘆竹區新興里中興二街３１號,桃園市蘆竹區新興里,黃慶重,29110435,有限公司,,0940517,生產中,24基本金屬製造業,241鋼鐵,,鋼板裁切,,121.265068,25.0133839
伊麗莎白化粧品生化科技工廠二廠,99717895,,桃園市桃園區中信里中山路１０００號１３樓之２,桃園市桃園區中信里,魯憲謄,24398228,獨資,,0981106,生產中,19其他化學製品製造業,193清潔用品,,化粧水、洗髮精等,蘆薈、丙二醇等,121.285378,24.9887218
通英股份有限公司桃園廠,99625875,07610000322206,桃園市八德區福興里廣興路三一六巷一四弄三號,桃園市八德區福興里,羅志勲,35958892,股份有限公司,0761221,0780503,生產中,29機械設備製造業、28電力設備及配備製造業,293通用機械設備、281發電、輸電及配電機械、289其他電力設備及配備,,配電皿、熔絲鏈、套管附件、呼吸器,,121.28688,24.9376717
順益麵行,99707274,,桃園市桃園區東山里１１鄰春日路２８號１樓,桃園市桃園區東山里,洪慈穗,10009281,獨資,,0961019,生產中,08食品製造業,089其他食品,,麵條,,121.3177,24.99172
仙暉工業有限公司二廠,99624776,,桃園市蘆竹區內厝里內新路５３號,桃園市蘆竹區內厝里,林枝富,86560240,有限公司,,0910613,生產中,25金屬製品製造業、28電力設備及配備製造業、27電腦、電子產品及光學製品製造業,259其他金屬製品、284照明設備及配備、272通訊傳播設備,,避難器具、安全出口門燈、逃生設備,沖床、鐵板,121.287613,25.070322
君易科技實業有限公司,99707658,,桃園市大溪區仁和里仁和九街１１８號１樓,桃園市大溪區仁和里,邱奕郎,29090607,有限公司,,0970617,生產中,15紙漿、紙及紙製品製造業,151紙漿、紙、紙板、152瓦楞紙板及紙容器、159其他紙製品,,各種包裝材料包裝紙加工紙之裁切分條加工,,121.273445,24.896965
秝軒廣告工程有限公司,99628004,,桃園市桃園區泰山里中山路五０七巷五二號,桃園市桃園區泰山里,謝漢忠,28561571,有限公司,,0911113,生產中,28電力設備及配備製造業、25金屬製品製造業、33其他製造業,284照明設備及配備、259其他金屬製品、339未分類其他製品,,廣告燈箱、進出口貿易,,121.296753,24.9896126
永來香燒腊食品股份有限公司楊梅工廠,99686112,06010000065009,桃園市楊梅區楊梅里大成路一九一號,桃園市楊梅區楊梅里,吳盛永　　　,44570210,股份有限公司,0580101,0600907,生產中,08食品製造業,089其他食品,,豬肉乾、牛肉乾、肉鬆,,121.145706,24.9127026
捷升興業股份有限公司,03001348,,桃園市楊梅區永平里永平路607巷2-1號,桃園市楊梅區永平里,劉兆敏,53689061,股份有限公司,,1011015,生產中,19其他化學製品製造業,192塗料、染料及顏料,,水性顏料色漿,,121.1714,24.9178638
承廣精密機械有限公司,99707106,,桃園市龜山區兔坑里茶專一街１１２巷３２號２樓,桃園市龜山區兔坑里,李東憲,28728468,有限公司,,0960711,生產中,29機械設備製造業,292其他專用機械設備,,換刀機構、分割器,,121.362633,24.9952621
雄煒工業有限公司,S6800345,,桃園市平鎮區東勢里洪圳路1228號1樓,桃園市平鎮區東勢里,魏村帆,22577772,有限公司,,1090703,生產中,30汽車及其零件製造業,303汽車零件,,,,,
伍吉塑膠有限公司,99717640,,桃園市八德區福興里廣興路３１６巷１８號１、２樓,桃園市八德區福興里,陳雨蓮,15814953,有限公司,,0980417,生產中,11紡織業,115紡織品,,航空、客運、高鐵、輪船業用不織布頭靠墊,,121.286568,24.93811
銘辰企業股份有限公司,99623365,07710000280424,桃園市中壢區復興里中壢工業區自強一路三七號,桃園市中壢區復興里,張健雄,22958982,股份有限公司,0771005,0791210,生產中,25金屬製品製造業,254金屬加工處理,,銅製品加工（銅板，分條加工）,,121.2441,24.97523
新加坡商趨勢光學鏡片股份有限公司台灣分公司,03000364,,桃園市龜山區南山里1鄰民生北路1段40-2號6樓之6,桃園市龜山區,陳青峯,53007381,股份有限公司,,1000414,生產中,27電腦、電子產品及光學製品製造業、33其他製造業,277光學儀器及設備、332醫療器材及用品,,鏡片,,121.30584,25.032383
嘉森塑膠股份有限公司,68001596,,桃園市龍潭區北興里6鄰民主街132號,桃園市龍潭區北興里,張聖易,34288571,股份有限公司,,1061107,生產中,22塑膠製品製造業,220塑膠製品,,塑膠粒,,121.239822,24.8811569
雷昇科技股份有限公司桃園廠,99626235,08410003009620,桃園市蘆竹區錦興里南崁路一段二三一巷二六號,桃園市蘆竹區錦興里,謝宗源,39209203,股份有限公司,0840307,0840325,生產中,12成衣及服飾品製造業,121成衣,,雷達測速儀,,121.284042,25.0520649
羿邦實業有限公司,S6800161,,桃園市中壢區月眉里圓光一路138號,桃園市中壢區月眉里,吳文樹,70514349,有限公司,,1090518,生產中,22塑膠製品製造業,220塑膠製品,,,,,
華創車電技術中心股份有限公司,03002296,,桃園市大園區橫峰里中山南路二段596-3號,桃園市大園區橫峰里,李俊忠,27932239,股份有限公司,,1030526,生產中,29機械設備製造業,293通用機械設備,,通用機械設備（內燃機組裝加工）,五金材料、鑄鐵、氣體、油料,121.213707,25.0224476
辰心股份有限公司,68002855,,桃園市八德區瑞豐里豐成街55號(1樓),桃園市八德區瑞豐里,葉博文,69537034,股份有限公司,,1080802,生產中,22塑膠製品製造業,220塑膠製品,,塑膠製品,,121.292137,24.9308949
富威爾科技股份有限公司,68002856,,桃園市蘆竹區內厝里內溪路9號(3樓),桃園市蘆竹區內厝里,陳瑞彬,50956654,股份有限公司,,1080802,生產中,27電腦、電子產品及光學製品製造業,272通訊傳播設備,,通訊傳播設備,,121.283745,25.07036
勝泰棉廠,99686263,05810000006282,桃園市龜山區嶺頂里萬壽路二段四八七號,桃園市龜山區嶺頂里,邱金榮,43459976,獨資,0580101,0591001,生產中,11紡織業,111紡紗,,棉紗,,121.35041,25.0017
裕豐企業社,99621994,07510003120484,桃園市中壢區成功里大華路一四號一樓,桃園市中壢區成功里,林怡汝,45056416,獨資,0751018,0751114,生產中,11紡織業,111紡紗,,尼龍特多龍加工,特多龍聚酯廢絲,121.257767,24.9811344
三惠金屬股份有限公司中壢廠,68001886,,桃園市中壢區永福里中福路2段2-1號,桃園市中壢區永福里,鄭明傑,69531094,股份有限公司,,1070419,生產中,25金屬製品製造業,254金屬加工處理,http://www.mold-tech.jp/set-asia,金屬壓花、噴砂,,121.2345,24.98047
京諭金屬有限公司,99622381,08310003140707,桃園市新屋區永興里7鄰東興路二段1526巷33號,桃園市新屋區永興里,蔡志輝,54921806,有限公司,0830815,0830902,生產中,25金屬製品製造業,259其他金屬製品,,鋁製品、臺電地下電覽固定店,,121.0387,25.0121918
慶鋒工程有限公司,99707728,,桃園市蘆竹區長興里厚生路９４號１樓,桃園市蘆竹區長興里,黃家慶,28907440,有限公司,,0970724,生產中,29機械設備製造業,293通用機械設備,,產業用機械設備、維備及安裝業,,121.27858,25.0539246
勝鋒企業有限公司,99623911,06410000015163,桃園市龜山區楓樹里長壽路八九號,桃園市龜山區楓樹里,游明崇　　　,43744918,有限公司,0580101,0670909,生產中,22塑膠製品製造業,220塑膠製品,,工業用塑膠,,121.344582,25.0015488
松勝創新股份有限公司,68002469,,桃園市中壢區永福里南園二路7號,桃園市中壢區永福里,陳勇志,69697812,股份有限公司,,1071228,生產中,11紡織業,113不織布,,紡粘不織布,,121.237068,24.97099
同良機械有限公司,99623238,06010000032502,桃園市桃園區大林里興隆路六之一號,桃園市桃園區大林里,陳忠夫　　　,43098720,有限公司,0600422,0601119,生產中,29機械設備製造業,292其他專用機械設備、293通用機械設備,,木工機械,,121.3205,24.984705
香榮實業股份有限公司二廠,68002687,,桃園市龜山區山頂里山鶯路352-1、354-1及354號,桃園市龜山區山頂里,蔡榮江,13035951,股份有限公司,,1080506,生產中,11紡織業,115紡織品,http://www.xr.com.tw,印染整理加工,,121.329155,24.98254
淞竹塑膠股份有限公司龜山廠,99629964,08510003139277,桃園市龜山區兔坑里15鄰茶專一街112巷11號,桃園市龜山區兔坑里,施秀玉　　　,23398066,股份有限公司,0850822,0860225,生產中,22塑膠製品製造業,220塑膠製品,,其他塑膠製品製造,,121.362907,24.9960384
幸瑞營有限公司,68002419,,桃園市平鎮區鎮興里興隆路29號,桃園市平鎮區鎮興里,張培柏,80012984,有限公司,,1071219,生產中,19其他化學製品製造業,199未分類其他化學製品,,油灰，矽力康油加工製造,,121.190041,24.9042625
永欣鋁業股份有限公司楊梅廠,99626538,07610000268563,桃園市楊梅區高榮里13鄰高榮路841號及榮平路323號,桃園市楊梅區高榮里,林要然　　　,33937872,股份有限公司,0760925,0770307,生產中,24基本金屬製造業、25金屬製品製造業,242鋁、259其他金屬製品,,鋁門窗．鋁擠型,,121.173386,24.9399166
雷焰工業股份有限公司蘆竹廠,99629209,07910003087370,桃園市蘆竹區內厝里南山路二段二○五巷二二弄六號,桃園市蘆竹區內厝里,陳文發,22931181,股份有限公司,0790809,0791020,生產中,25金屬製品製造業、29機械設備製造業、26電子零組件製造業、30汽車及其零件製造業,259其他金屬製品、293通用機械設備、269其他電子零組件、303汽車零件,,船艇五金,,121.284981,25.0649414
長鼎電機工業股份有限公司,99622091,08610003307615,桃園市桃園區龍山里龍壽街１９５號(地下層、1、2、4、5樓及屋頂突出物一、屋頂突出物二),桃園市桃園區龍山里,柯文儀　　　,97052382,股份有限公司,0861122,0861203,生產中,27電腦、電子產品及光學製品製造業、33其他製造業,276輻射及電子醫學設備、331育樂用品,,汽，機車零件、磁控發電機、運動器材錶,,121.267754,24.98359
詮宏企業社二廠,68001832,,桃園市中壢區普忠里普忠路157號,桃園市中壢區普忠里,范佐奎,17477112,獨資,,1070320,生產中,08食品製造業,089其他食品,,一般麵條,,121.245148,24.9621983
盛存塑膠廠有限公司,99626303,06210000055727,桃園市龍潭區凌雲里竹龍路225巷69號,桃園市龍潭區凌雲里,温光源　　,44415549,有限公司,0621003,0621003,生產中,22塑膠製品製造業,220塑膠製品,,塑膠花盆、塑膠水盆,,121.20134,24.8654175
建泰欣業股份有限公司,68000835,,桃園市蘆竹區瓦窯里南山路一段175號,桃園市蘆竹區瓦窯里,陳泰明,42778018,股份有限公司,,1050826,生產中,11紡織業,114染整,,印花加工,,121.289375,25.0562057
駿騰工業有限公司桃園廠,68002431,,桃園市蘆竹區內厝里內溪路68巷51弄12號,桃園市蘆竹區內厝里,高鈺程,54538696,有限公司,,1071214,生產中,22塑膠製品製造業,220塑膠製品,,塑膠薄膜製造,,121.2758,25.0673084
鉅祥企業股份有限公司頭洲廠,99626606,06210000155545,桃園市新屋區九斗里8鄰九洲路1號,桃園市新屋區九斗里,林於晃　　　,04403568,股份有限公司,0580101,0630411,生產中,25金屬製品製造業、29機械設備製造業、26電子零組件製造業,259其他金屬製品、293通用機械設備、291金屬加工用機械設備、292其他專用機械設備、269其他電子零組件,,模具、沖床製品、電子零組件、自動化專用機,,121.14064,24.96228
豐山傢俱行,99624232,07910003006768,桃園市平鎮區建安里華隆街138號,桃園市平鎮區建安里,陳勇良　　　,44988362,獨資,0790219,0790227,生產中,32家具製造業,321非金屬家具,,木器加工，傢俱,,121.238396,24.9173412
昌寰實業股份有限公司楊梅廠,99623301,08510000409485,桃園市楊梅區高上里高獅路813巷22弄5號,桃園市楊梅區高上里,吳忠興　　　,86411185,股份有限公司,0851012,0880503,生產中,11紡織業,111紡紗,http://www.metatex.com.tw,塑膠包裝材料、金銀絲、金銀箔、燙金箔,,121.163651,24.9276638
常榮機械股份有限公司新屋廠,68001295,,桃園市新屋區埔頂里埔頂路6號,桃園市新屋區埔頂里,周佳君,04363904,股份有限公司,,1060608,生產中,29機械設備製造業、30汽車及其零件製造業、31其他運輸工具及其零件製造業,293通用機械設備、303汽車零件、312機車及其零件,,其他專用機械設備,,121.11364,24.95798
金華興鐵工廠,99629272,05410000055701,桃園市桃園區西門里建興街一六號,桃園市桃園區西門里,葉光雄　　　,43177105,獨資,0541118,0550808,生產中,29機械設備製造業,293通用機械設備,,食品加工機械,,121.306686,24.9954014
建旭工業股份有限公司龍潭廠,99628404,07810000179087,桃園市龍潭區九龍里中興路九龍段一一號,桃園市龍潭區九龍里,梁世明　　　,07692696,股份有限公司,0780605,0780815,生產中,29機械設備製造業,293通用機械設備,,連座軸承．軸承．軸承座,,121.249664,24.88015
建發機器廠,99686776,05510000063849,桃園市桃園區文明里復興路二六一號,桃園市桃園區文明里,徐建發　　　,43227506,合夥,0551203,0560529,生產中,29機械設備製造業,293通用機械設備,,機械零件（紡織）,,121.307526,24.98892
騰鐽科技有限公司,03000372,,桃園市蘆竹區長興里南崁路二段9號5樓之2,桃園市蘆竹區長興里,呂學藤,25179072,有限公司,,1000420,生產中,28電力設備及配備製造業,284照明設備及配備,,照明設備製造（ＬＥＤ燈）,,121.279953,25.0562859
弘泰玻璃工程有限公司,68003049,,桃園市新屋區石磊里三民路二段842巷72號,桃園市新屋區石磊里,黃碧華,70659858,有限公司,,1081114,生產中,23非金屬礦物製品製造業,231玻璃及其製品,,玻璃及其製品,,121.0781,24.9934616
漢昇機械有限公司,99707888,,桃園市八德區瑞發里民權街７６號,桃園市八德區瑞發里,程玉華,86530921,有限公司,,0971021,生產中,29機械設備製造業,293通用機械設備,,其他機械,,121.293945,24.9315758
協新鋼鐵股份有限公司,99627714,06310000170912,桃園市平鎮區鎮興里中興路五一八號,桃園市平鎮區鎮興里,劉讚輝　　　,44950582,股份有限公司,0580101,0650806,生產中,24基本金屬製造業、29機械設備製造業,241鋼鐵、293通用機械設備,,鋼筋,,121.193451,24.8975525
怡王生物科技有限公司,99706452,,桃園市蘆竹區山鼻里南山路３段１７巷１號,桃園市蘆竹區山鼻里,鄭同孝,28028177,有限公司,,0950712,生產中,08食品製造業,089其他食品,,蜂產品,,121.283821,25.0767479
山福工業股份有限公司,99623893,06210000025785,桃園市中壢區內定里5鄰合圳北路二段395巷90號,桃園市中壢區內定里,劉吉星　　　,43642237,股份有限公司,0580101,0630323,生產中,25金屬製品製造業,251金屬刀具、手工具及模具,,金屬模具,,121.245148,25.005085
晨亮豆腐店,S6800044,,桃園市新屋區赤欄里73-2右3號1樓,桃園市新屋區赤欄里,江德亮,34817827,獨資,,1090416,生產中,08食品製造業,083蔬果加工,,,,,
琨奇科技有限公司,03002045,,桃園市蘆竹區錦興里錦華路78號,桃園市蘆竹區錦興里,郭啟漢,53297115,有限公司,,1021202,生產中,25金屬製品製造業、29機械設備製造業,251金屬刀具、手工具及模具、259其他金屬製品、293通用機械設備,,蝕刻刀模,,121.284584,25.0497913
瀚總實業有限公司,99628589,08610003307328,桃園市八德區大發里後庄街９０巷２８號,桃園市八德區大發里,黃新興　　　,84997508,有限公司,0861107,0861110,生產中,11紡織業,112織布,,紡織品,,121.327393,24.9573536
給力食品有限公司,68000150,,桃園市八德區茄苳里寶豐街15巷11號(1樓),桃園市八德區茄苳里,黃堯民,24611375,有限公司,,1040622,生產中,08食品製造業,089其他食品,,麵包、餅乾,,121.276505,24.9659481
飛利昇工業股份有限公司蘆竹廠,68002332,,桃園市蘆竹區長興里厚生路82號3樓之3,桃園市蘆竹區長興里,石鳳修,16187374,股份有限公司,,1071102,生產中,29機械設備製造業,293通用機械設備,,輸送機．昇降機,不鏽鋼材料．螺絲．機械零件,121.278259,25.0545177
慶騰精密科技股份有限公司,99707839,,桃園市中壢區復興里吉林路20號,桃園市中壢區復興里,王光彬,84189908,股份有限公司,,0970923,生產中,25金屬製品製造業、29機械設備製造業,259其他金屬製品、293通用機械設備,,五金零件、機械零件、電動工具齒輪箱,,121.243866,24.97912
億彰實業股份有限公司龍潭二廠,99626242,07610003021187,桃園市龍潭區烏林里中豐路五三三巷八○號,桃園市龍潭區烏林里,柯振發　　　,58673736,股份有限公司,0760311,0760925,生產中,11紡織業、12成衣及服飾品製造業,112織布、123服飾品,,紡織品,,121.209587,24.8842278
降火谷葯品有限公司桃園廠,68002480,,桃園市龍潭區烏林里工七路72號(2樓),桃園市龍潭區烏林里,邱芬香,80249067,有限公司,,1080111,生產中,08食品製造業,089其他食品,,其他食品,,121.206505,24.89067
寶利徠光學科技股份有限公司三廠,99717808,,桃園市大園區南港里11鄰長發路406號,桃園市大園區南港里,宋一新,84449952,股份有限公司,,0980828,生產中,33其他製造業,332醫療器材及用品,,鏡片,,121.181969,25.05763
全盛機械自動平衡有限公司,03000934,,桃園市蘆竹區長興里厚生路98號二樓之5,桃園市蘆竹區長興里,黃名紅,84249167,有限公司,,1010210,生產中,29機械設備製造業,293通用機械設備,,未分類其他通用機械設備製造,,121.2788,25.0536823
多元精密工業股份有限公司,99707892,,桃園市中壢區內定里松江北路２號１樓,桃園市中壢區內定里,吳仁宏,28499090,股份有限公司,,0971024,生產中,25金屬製品製造業、29機械設備製造業,251金屬刀具、手工具及模具、293通用機械設備,,機械零件,,121.248695,24.985384
佳長良機有限公司,99707895,,桃園市中壢區莊敬里永福路６３４號,桃園市中壢區莊敬里,張國長,12831297,有限公司,,0971027,生產中,29機械設備製造業,291金屬加工用機械設備、292其他專用機械設備、293通用機械設備,,通用機械設備及其零件,,121.259026,24.9597435
上暙工業有限公司平鎮廠,99707898,,桃園市平鎮區高雙里復旦路三段１１１巷２之１號,桃園市平鎮區高雙里,劉坤斌,04516021,有限公司,,0971028,生產中,29機械設備製造業,293通用機械設備,,齒輪、鏈條、機械五金零件,,121.195923,24.9429874
元嘉紙器有限公司,99626314,07410003007000,桃園市龜山區龍壽里萬壽路一段二六九號（一樓及地下室）,桃園市龜山區龍壽里,蔡春梅　　　,43956503,有限公司,0740322,0740530,生產中,15紙漿、紙及紙製品製造業,152瓦楞紙板及紙容器,,瓦楞紙箱，紙盒，其他紙器,,121.40374,25.0173054
雙慶化工股份有限公司,99623031,08510000403865,桃園市觀音區樹林里國光路１０號,桃園市觀音區樹林里,倪美聯　　,16911264,股份有限公司,0850502,0870413,生產中,18化學原材料、肥料、氮化合物、塑橡膠原料及人造纖維製造業、24基本金屬製造業、22塑膠製品製造業,181化學原材料、243銅、220塑膠製品,,氟化鈣（人工螢石）,,121.10463,25.0593719
安博全球航太科技股份有限公司,99621064,08410000651818,桃園市觀音區樹林里觀音工業區工業三路1號,桃園市觀音區樹林里,徐宗助,89396976,股份有限公司,0840912,0860131,生產中,31其他運輸工具及其零件製造業,319未分類其他運輸工具及其零件,,商用飛機引擎零件（高壓定子）,,121.125839,25.0573883
豐田流通供應鏈物流有限公司,68002990,,桃園市大園區田心里國際路一段195號,桃園市大園區田心里,吳錚錞,25199746,有限公司,,1081015,生產中,29機械設備製造業,293通用機械設備,,通用機械設備,,121.190216,25.0682468
訊鴻企業有限公司,68002389,,桃園市龍潭區烏林里工二路269-1號,桃園市龍潭區烏林里,鄭吉佑,70439932,有限公司,,1071127,生產中,29機械設備製造業,293通用機械設備,http://www.protool.com.tw,深孔鑽頭,,121.205635,24.8863182
富煒食品有限公司,99687666,,桃園市楊梅區中山里環東路二九三號一樓,桃園市楊梅區中山里,鄧秀蘭,80705682,有限公司,,0930512,生產中,08食品製造業,089其他食品,http://www.fuwei-food.com.tw,其他食品,,121.157394,24.9071884
谷綠林股份有限公司蘆竹廠,68001217,,桃園市蘆竹區坑口里後壁厝88之18號（2樓）,桃園市蘆竹區坑口里,陳世文,27920493,股份有限公司,,1060426,生產中,14木竹製品製造業、32家具製造業,140木竹製品、321非金屬家具,http://www.greensystem.com.tw,木製櫃,,121.272041,25.10013
康祥實業有限公司觀音廠,S6800339,,桃園市觀音區富源里7鄰富源一路126之3號,桃園市觀音區富源里,徐美珠,70620777,有限公司,,1090630,生產中,24基本金屬製造業、29機械設備製造業,241鋼鐵、293通用機械設備,,,,,
嘉發實業工廠股份有限公司埔心三廠,03002682,,桃園市楊梅區高上里青年路二段20號,桃園市楊梅區高上里,鄭雅仁,04457563,股份有限公司,,1040127,生產中,24基本金屬製造業,249其他基本金屬,http://www.chiafar.com,不鏽鋼捲片、不鏽鋼板,,121.1683,24.9296837
嘉發實業工廠股份有限公司埔心二廠,03000819,,桃園市楊梅區高上里幼五路9號,桃園市楊梅區高上里,鄭雅仁,04457563,股份有限公司,,1001213,生產中,24基本金屬製造業,241鋼鐵,http://www.chiafar.com,不銹鋼捲片,,121.170525,24.9299831
詠聯股份有限公司三廠,03002031,,桃園市蘆竹區長興里南崁路二段66之5號,桃園市蘆竹區長興里,簡金龍,84570757,股份有限公司,,1021125,生產中,22塑膠製品製造業、29機械設備製造業,220塑膠製品、293通用機械設備,,塑膠射出成品,,121.278778,25.0574436
達勝機械股份有限公司楊梅廠,99687214,,桃園市楊梅區新榮里快速路五段1120號、桃園市楊梅區新榮里新榮路369號,桃園市楊梅區新榮里,蔡金水,36025357,股份有限公司,,0920930,生產中,29機械設備製造業,293通用機械設備,,其他機械、通風機、送風機、葉輪,,121.155418,24.9546413
台灣耐力股份有限公司桃園廠,99625302,07910003136178,桃園市蘆竹區內厝里長興路三段9號,桃園市蘆竹區內厝里,汪楠彬　　　,07678250,股份有限公司,0790918,0810313,生產中,29機械設備製造業,293通用機械設備,http://www.conveyor.com.tw,輸送及搬運工具設備,,121.283379,25.0730247
雲珍企業社,68001733,,桃園市八德區茄苳里永豐路226巷68弄18號(1樓),桃園市八德區茄苳里,李振斌,42180497,獨資,,1070115,生產中,08食品製造業,081肉類加工,,主要生產大薄片及破酥包等食用品,,121.281525,24.96728
正麗科技股份有限公司,68003406,,桃園市蘆竹區內厝里安中街12巷2號(3樓),桃園市蘆竹區內厝里,林盈直,27736412,股份有限公司,,1090520,生產中,33其他製造業,339未分類其他製品,,,,,
德春股份有限公司,68001090,,桃園市新屋區九斗里上青埔58-2、58-10號,桃園市新屋區九斗里,林水清,86892402,股份有限公司,,1060218,生產中,29機械設備製造業、22塑膠製品製造業,292其他專用機械設備、220塑膠製品,,生產塑料回收射出件,,121.139641,24.9626
廣華紡織有限公司,03000424,,桃園市蘆竹區蘆竹里南工路5之1號,桃園市蘆竹區蘆竹里,李運發,82773974,有限公司,,1000523,生產中,29機械設備製造業,292其他專用機械設備,,梭織布整理機械,,121.272705,25.0543957
亞積股份有限公司,99686968,,桃園市平鎮區高雙里復旦路三段一０三號,桃園市平鎮區高雙里,莊進東,80402765,股份有限公司,,0920610,生產中,29機械設備製造業,293通用機械設備,,沖模加工、鋁擠模加工、朔膠模加工、五金另件加工,,121.196182,24.9433384
帝凱國際實業股份有限公司,03001009,,桃園市桃園區中成里國際路二段561巷4號,桃園市桃園區中成里,蔡宗琪,28757152,股份有限公司,,1010418,生產中,22塑膠製品製造業,220塑膠製品,http://www.360mop.com,清潔用品、家庭用品,,121.285065,25.006422
辰炎企業社,03002558,,桃園市桃園區建國里林森路68巷20弄12號1樓,桃園市桃園區建國里,邱富裕,41036137,獨資,,1031114,生產中,22塑膠製品製造業,220塑膠製品,,塑膠製品,塑膠粒,121.319939,24.9872589
建富國際有限公司,68002989,,桃園市蘆竹區濱海里中圳街275號,桃園市蘆竹區濱海里,陳漳堯,24430281,有限公司,,1081014,生產中,25金屬製品製造業、30汽車及其零件製造業,259其他金屬製品、303汽車零件,,,,,
上展金屬工業股份有限公司桃園二廠,99707512,,桃園市龜山區山頂里興邦路３７之１號,桃園市龜山區山頂里,張國興,22361371,股份有限公司,,0970321,生產中,24基本金屬製造業,241鋼鐵,http://san-chan.com.tw/,球狀石墨鑄鐵，各種鑄件毛胚，人手孔蓋架、金屬手工具及模具、閥類,釸鋼片，銑鐵粉，矽鐵，加碳劑，球化劑,121.324608,24.9815
宏展光電科技股份有限公司,03002109,,桃園市龍潭區烏林里39鄰工五路251號,桃園市龍潭區烏林里,李榕梃,24266134,股份有限公司,,1030106,生產中,27電腦、電子產品及光學製品製造業、28電力設備及配備製造業,272通訊傳播設備、277光學儀器及設備、281發電、輸電及配電機械、283電線及配線器材,http://www.toploop.com.tw,通訊傳播設備，及設備，發電、輸電、配電機械，電線及配線器材,,121.204933,24.8889465
榮勝鋼鐵股份有限公司平鎮廠,03001259,,桃園市平鎮區東勢里34鄰中興路九龍段192巷1號2樓,桃園市平鎮區東勢里,蔡卓芳,80429413,股份有限公司,,1010823,生產中,25金屬製品製造業,254金屬加工處理,http://www.finesteel.com.tw,工具鋼，鋼鐵裁切,,121.246445,24.879179
連結機械股份有限公司楊梅廠,99624472,08010003001796,桃園市楊梅區瑞塘里梅獅路二段385號,桃園市楊梅區瑞塘里,王正雄　　　,20629303,股份有限公司,0800411,0800816,生產中,29機械設備製造業、30汽車及其零件製造業,293通用機械設備、292其他專用機械設備、303汽車零件,,油壓機,,121.18129,24.9022884
凱懿國際有限公司,68003151,,桃園市龍潭區烏林里39鄰工二路一段197號,桃園市龍潭區烏林里,鍾久龍,27900476,有限公司,,1090103,生產中,29機械設備製造業,293通用機械設備,,,,,
芳宇機器工業股份有限公司,99625953,06210000122835,桃園市八德區廣興里廣興路４９４號,桃園市八德區廣興里,陳宏興,11819730,股份有限公司,0580101,0640623,生產中,30汽車及其零件製造業、25金屬製品製造業、29機械設備製造業,303汽車零件、292其他專用機械設備、251金屬刀具、手工具及模具,,砂輪機,,121.284676,24.9422169
美宏泰實業有限公司,03001646,,桃園市龜山區龍壽里萬壽路一段1251號2樓,桃園市龜山區龍壽里,謝美娥,24427271,有限公司,,1020425,生產中,25金屬製品製造業、29機械設備製造業,254金屬加工處理、291金屬加工用機械設備、293通用機械設備,,金屬製品噴烤漆,,121.377251,25.0115814
泰鋒染化工業股份有限公司,99625696,06710000041591,桃園市八德區廣興里廣興路一四三三號,桃園市八德區廣興里,邱武雄　　　,07604764,股份有限公司,0580101,0670615,生產中,19其他化學製品製造業,192塗料、染料及顏料、199未分類其他化學製品,,反應性染料、酸性染料、直接染料、其他染料,,121.2805,24.9593678
金永豐機械廠,99629549,06610000136812,桃園市桃園區大林里大原路七五號,桃園市桃園區大林里,陳阿素　　　,43771908,獨資,0660819,0660923,生產中,25金屬製品製造業、31其他運輸工具及其零件製造業,259其他金屬製品、313自行車及其零件,,金屬零組件,,121.320129,24.9758663
東鎰有限公司,68002258,,桃園市龜山區南上里民生北路一段228號(1樓),桃園市龜山區南上里,王錦松,54947088,有限公司,,1071001,生產中,14木竹製品製造業、29機械設備製造業,140木竹製品、293通用機械設備,,木竹製品（鑄造用木型模具），通用機械設備（機械零件加工）,,121.301765,25.0368462
見興高週波金屬工業有限公司,99629066,06510000190814,桃園市桃園區大林里大明街五六巷三、五號,桃園市桃園區大林里,楊金菘　　　,43762372,有限公司,0651125,0660629,生產中,25金屬製品製造業,254金屬加工處理,,熱處理,,121.317978,24.979681
東哲工業股份有限公司,68002715,,桃園市八德區大安里長安街63號,桃園市八德區大安里,邱金寶,35992842,股份有限公司,,1080516,生產中,25金屬製品製造業,254金屬加工處理、259其他金屬製品、291金屬加工用機械設備、293通用機械設備,,金屬加工處理，其他金屬製品，金屬加工用機械設備，通用機械設備,,121.317154,24.9515724
稜裕實業股份有限公司,99621364,,桃園市蘆竹區長興里長興路四段四三號,桃園市蘆竹區長興里,張春英,16488323,股份有限公司,,0900706,生產中,19其他化學製品製造業,193清潔用品,,其他清潔用品,,121.271866,25.0682049
綠壯國際股份有限公司蘆竹廠,99717901,,桃園市蘆竹區長興里南崁路二段６６之８號６樓,桃園市蘆竹區長興里,蔡進坤,89261528,股份有限公司,,0981111,生產中,08食品製造業,089其他食品,http://www.greenstrong.com.tw/about,食品製造加工,菌菇粉,121.278778,25.0582657
群寶科技股份有限公司海湖廠,68002272,,桃園市蘆竹區海湖里海山東街398號,桃園市蘆竹區海湖里,郭煥榮,80733532,股份有限公司,,1071018,生產中,19其他化學製品製造業,199未分類其他化學製品,,其他化學製藥,,121.26609,25.1053238
宏章實業股份有限公司,99623889,07510000339068,桃園市龍潭區聖德里湧光路一段169巷75號,桃園市龍潭區聖德里,宋文景　,11307702,股份有限公司,0751226,0770827,生產中,19其他化學製品製造業,192塗料、染料及顏料、199未分類其他化學製品,,補強膠、填縫膠、防濕補土、防震膠,,121.193367,24.8858757
台振食品有限公司,99624585,08910000905753,桃園市中壢區仁義里育樂路五八號一樓,桃園市中壢區仁義里,李世偉,28166945,有限公司,0890919,0891019,生產中,08食品製造業,089其他食品,,土司,,121.2349,24.9654636
佳世達科技股份有限公司雙星二廠,68000108,,桃園市龜山區山頂里山鶯路159號（4樓）,桃園市龜山區山頂里,陳其宏,12490306,股份有限公司,,1040605,生產中,33其他製造業,332醫療器材及用品,,醫療器材及用品〔醫療影像儀器（超音波），超音波探頭，醫療口內掃描儀器〕,,121.326141,24.9877281
勝昌製藥廠股份有限公司中壢廠,99621625,06310000048885,桃園市中壢區過嶺里民族路六段436、436-1號,桃園市中壢區過嶺里,陳志中,18930007,股份有限公司,0580101,0670418,生產中,,,http://www.herb.com.tw,六味地黃丸、加味逍遙散,甘草、黃耆、黨參,121.157227,24.9627419
永惠物流股份有限公司,68001915,,桃園市龍潭區高平里高楊南路238巷126弄2號4樓,桃園市龍潭區高平里,黃淑美,80076234,股份有限公司,,1070502,生產中,29機械設備製造業,291金屬加工用機械設備、292其他專用機械設備,,汽機車零件,,121.210815,24.8329144
偉普橡膠股份有限公司,68000332,,桃園市龍潭區北興里中興路54巷36號,桃園市龍潭區北興里,李正忠,36185179,股份有限公司,,1041021,生產中,21橡膠製品製造業,210橡膠製品,,橡膠製品,,121.241264,24.8787842
昕慶股份有限公司,99686316,07410000366963,桃園市中壢區永福里東園路４１號,桃園市中壢區永福里,黃林麗珠,28335941,股份有限公司,0741217,0750529,生產中,26電子零組件製造業、28電力設備及配備製造業、25金屬製品製造業,269其他電子零組件、289其他電力設備及配備、254金屬加工處理,,金屬製品,,121.239258,24.9758358
祺源股份有限公司桃園廠,03000525,,桃園市蘆竹區內厝里內溪路50之1號,桃園市蘆竹區內厝里,胡朝源,16725536,股份有限公司,,1000715,生產中,22塑膠製品製造業,220塑膠製品,http://www.cheer-young.com.tw/,工程塑膠粒子,,121.280418,25.0692425
詠煌企業社,68002876,,桃園市中壢區內定里內定二十街158巷22號(1樓),桃園市中壢區內定里,楊宏偉,82070545,獨資,,1080812,生產中,29機械設備製造業、30汽車及其零件製造業,293通用機械設備、303汽車零件,,通用機械設備，汽車零件,,121.233238,25.0034027
台灣耐力股份有限公司蘆竹廠,99706464,,桃園市蘆竹區海湖里２鄰海山中街７號,桃園市蘆竹區海湖里,汪楠彬,07678250,股份有限公司,,0950719,生產中,29機械設備製造業,293通用機械設備,http://www.conveyor.com.tw,輸送設備,,121.258873,25.1062374
開元食品工業股份有限公司觀音廠,99622096,07710000272268,桃園市觀音區樹林里經建一路２８號,桃園市觀音區樹林里,蔡弼鈞,42612538,股份有限公司,0770727,0790829,生產中,08食品製造業、09飲料製造業,085乳品、086碾榖、磨粉及澱粉製品、092非酒精飲料,http://www.creation.com.tw,人造奶油，果汁,,121.123192,25.056551
峻晟金屬股份有限公司,68000691,,桃園市平鎮區東勢里太平西路207巷37弄1號,桃園市平鎮區東勢里,黃元銅,86962758,股份有限公司,,1050608,生產中,,,,冷軋鋼板、鍍鋅板,,121.243874,24.9043713
信服嘉工業股份有限公司桃園廠,99629307,08310003006889,桃園市蘆竹區瓦窯里南山路一段三八五號,桃園市蘆竹區瓦窯里,蒲文煉　　　,23992761,股份有限公司,0830204,0841009,生產中,29機械設備製造業、25金屬製品製造業,293通用機械設備、259其他金屬製品,http://www.hfcind.com,零件加工,,121.288574,25.0597744
傻師傅食品有限公司,03002363,,桃園市楊梅區青山里獅二路3號1樓,桃園市楊梅區青山里,江修逸,54791058,有限公司,,1030806,生產中,08食品製造業,089其他食品,,其他食品、湯包,,121.174828,24.9254112
鐿晴精密齒輪廠股份有限公司新屋廠,99624228,,桃園市新屋區槺榔里七鄰上槺榔一之二號,桃園市新屋區?榔里,劉秋香,47303722,股份有限公司,,0910415,生產中,29機械設備製造業,293通用機械設備,,齒輪、減速機,,121.043938,24.9760017
野夫藏臻股份有限公司,03002192,,桃園市龜山區嶺頂里萬壽路二段412之2號10樓,桃園市龜山區嶺頂里,黃瑞志,54780138,股份有限公司,,1030318,生產中,08食品製造業,089其他食品,http://www.ifreecafe.com,其他食品咖啡豆,,121.352211,25.00202
泳達精密科技股份有限公司大園廠,S6800021,,桃園市大園區北港里潮音二路771號,桃園市大園區北港里,黃俊堯,43803562,股份有限公司,,1090415,生產中,27電腦、電子產品及光學製品製造業,273視聽電子產品,,,,,
彩力染整股份有限公司,99686058,07310000034599,桃園市蘆竹區坑口里海山路六三六號,桃園市蘆竹區坑口里,蘇慶福　　,07718680,股份有限公司,0730402,0731115,生產中,11紡織業,114染整,http://www.beauty-strong.com.tw,印染整理,,121.2712,25.0926857
銓為精機股份有限公司桃園二廠,99628101,08910003324901,桃園市桃園區玉山里玉山街二０九號,桃園市桃園區玉山里,林瑞娥,86371557,股份有限公司,0890720,0890902,生產中,29機械設備製造業、31其他運輸工具及其零件製造業,292其他專用機械設備、293通用機械設備、313自行車及其零件,,汽機車及機械另件,,121.300354,24.98475
合錩國際股份有限公司,99706530,,桃園市蘆竹區內厝里長興路３段２２９巷９３號,桃園市蘆竹區內厝里,黃祺,69624564,股份有限公司,,0950818,生產中,25金屬製品製造業,254金屬加工處理,,鋼鐵,鋼材、鐵材,121.2768,25.0683022
寶豐生物科技股份有限公司楊梅廠,99623221,,桃園市楊梅區大同里行善路６６號,桃園市楊梅區大同里,張怡新,80168058,股份有限公司,,0910207,生產中,19其他化學製品製造業,193清潔用品,,,,,
澤昌科技股份有限公司新屋廠,68001355,,桃園市新屋區社子里1鄰社子1之12號（1樓）,桃園市新屋區社子里,邱淑圓,12999128,股份有限公司,,1060712,生產中,26電子零組件製造業、29機械設備製造業,269其他電子零組件、293通用機械設備,,連接器,,121.093857,24.9603615
鶴通有限公司,S6800337,,桃園市楊梅區三湖里楊湖路3段442巷202弄7號,桃園市楊梅區三湖里,莊牧昀,53861436,有限公司,,1090701,生產中,25金屬製品製造業,259其他金屬製品,,,,,
億鴻系統科技股份有限公司,99707936,,桃園市蘆竹區長興里南工路１段１８號,桃園市蘆竹區長興里,張家豪,28830463,股份有限公司,,0971128,生產中,26電子零組件製造業,269其他電子零組件,http://www.e-formula.com,通訊設備工程建置、設備買賣及安裝、設備維修及保養,,121.279564,25.0605545
金陵豆干廠,S6800353,,桃園市平鎮區北興里金陵路二段379巷45號,桃園市平鎮區北興里,温超鳯,34816587,獨資,,1090825,生產中,08食品製造業,083蔬果加工,,,,,
帝壹雷射精機股份有限公司,99707819,,桃園市八德區茄苳里聯明街８號,桃園市八德區茄苳里,呂俊峯,23805438,股份有限公司,,0970914,生產中,29機械設備製造業,292其他專用機械設備,,其他機械（雷射切割加工）,,121.278137,24.968235
立泰化學工業股份有限公司桃科廠,68002146,,桃園市觀音區白玉里1鄰桃科九路190號,桃園市觀音區白玉里,江玉嬌,22938234,股份有限公司,,1070822,生產中,18化學原材料、肥料、氮化合物、塑橡膠原料及人造纖維製造業、19其他化學製品製造業,184塑膠及合成橡膠原料、199未分類其他化學製品,,人造樹脂、助劑,,121.087784,25.0516281
東華環境節能有限公司,03000374,,桃園市蘆竹區內厝里南山路2段245號1樓,桃園市蘆竹區內厝里,陳敬銘,24427960,有限公司,,1000420,生產中,28電力設備及配備製造業、29機械設備製造業,285家用電器、293通用機械設備,,家用電扇，工業用電扇，空氣循環機,,121.285866,25.066515
聯懿金屬股份有限公司二廠,S6800118,,桃園市中壢區內厝里內厝段1568地號,桃園市中壢區內厝里,張鴻聯,23186529,股份有限公司,,1090511,生產中,25金屬製品製造業,252金屬結構及建築組件,,,,,
源昌豆腐店,68000815,,桃園市大溪區月眉里信義路376號1樓,桃園市大溪區月眉里,魏慶昌,14389657,獨資,,1050822,生產中,08食品製造業,083蔬果加工,,蔬果處理及其製品（豆類製品零售）,,121.300156,24.8901863
太久工業有限公司,99626369,07110000080650,桃園市蘆竹區大竹里上竹里大竹路256號1樓,桃園市蘆竹區大竹里,余秋勇　　　,43881460,有限公司,0710708,0710804,生產中,28電力設備及配備製造業、30汽車及其零件製造業、31其他運輸工具及其零件製造業,282電池、284照明設備及配備、289其他電力設備及配備、303汽車零件,,燈具,鐵材、塑料,121.26915,25.0174446
王佳實業股份有限公司楊梅五廠,99706836,,桃園市楊梅區豐野里富聯路２２１巷３號２、３樓,桃園市楊梅區豐野里,吳加祿,31300690,股份有限公司,,0960209,生產中,22塑膠製品製造業,220塑膠製品,,膠帶、保護膠帶,,121.074181,24.9398174
藤輝機械有限公司玉山廠,68002864,,桃園市桃園區玉山里玉山街233巷5號,桃園市桃園區玉山里,黃吉藤,22297049,有限公司,,1080806,生產中,29機械設備製造業,293通用機械設備,,各種機械零件,,121.29982,24.9840717
鈶富實業有限公司,68002791,,桃園市楊梅區秀才里甡甡路103之1號(1樓),桃園市楊梅區秀才里,楊志願,80461503,有限公司,,1080627,生產中,14木竹製品製造業,140木竹製品,,木竹製品,,121.135895,24.8983
依視路寶利徠光學股份有限公司,99688799,,桃園市大園區南港里11鄰長發路327號2樓,桃園市大園區南港里,宋一新,27761755,股份有限公司,,0950120,生產中,33其他製造業,332醫療器材及用品,,鏡片,,121.181969,25.05763
陞禾實業股份有限公司楊梅廠,99687602,,桃園市楊梅區永平里梅獅路一段256號,桃園市楊梅區永平里,葉束賢,89360610,股份有限公司,,0930420,生產中,22塑膠製品製造業,220塑膠製品,,塑膠製品,,121.177765,24.9180374
穎西工業股份有限公司,99623227,07710000251755,桃園市中壢區山東里14鄰山坪路1號,桃園市中壢區山東里,陳俊宏,33693812,股份有限公司,0770621,0770822,生產中,30汽車及其零件製造業,303汽車零件,,汽車零件（門板、陽板、後裝板、備胎蓋）,,121.168205,25.0102654
盟泰電機有限公司,99629963,08810003330696,桃園市龜山區龍壽里東萬壽路646號(1樓),桃園市龜山區龍壽里,劉國琛,70626745,有限公司,0881222,0881230,生產中,28電力設備及配備製造業,281發電、輸電及配電機械,,馬達檢修,電力機械器材,121.377136,25.0094242
玉豐全食品有限公司,99688723,,桃園市八德區大發里和成路25號,桃園市八德區大發里,劉泓澤,27919453,有限公司,,0941206,生產中,08食品製造業,089其他食品,,麵包、餅乾、蛋糕、糖果及烘培食品,,121.322426,24.96184
臺灣華歌爾股份有限公司二廠,99623567,07010000082142,桃園市龜山區山頂里興邦路27、29號,桃園市龜山區山頂里,陳國鎮　　　,43409251,股份有限公司,0580101,0700617,生產中,12成衣及服飾品製造業,121成衣、123服飾品,,成衣、內衣、胸罩、束腹、褲類,,121.324089,24.9838333
泰毓電子股份有限公司中壢廠,03001454,,桃園市中壢區過嶺里民族路六段260號,桃園市中壢區過嶺里,洪莉雯,45030866,股份有限公司,,1011205,生產中,27電腦、電子產品及光學製品製造業,271電腦及其週邊設備、272通訊傳播設備、273視聽電子產品,http://www.telewind.com.tw,其它未分類電子零組件製造,,121.161133,24.9622345
國昌機械工程有限公司平鎮廠,68001775,,桃園市平鎮區南勢里南東路50巷18號（1樓）,桃園市平鎮區南勢里,魏木昌,53872166,有限公司,,1070201,生產中,25金屬製品製造業,252金屬結構及建築組件、254金屬加工處理,,,,,
冠廷國際有限公司,68003687,,桃園市龜山區南上里民生北路一段534號7樓,桃園市龜山區南上里,林文男,83198725,有限公司,,1091012,生產中,11紡織業、33其他製造業,115紡織品、332醫療器材及用品,,,,,
玖發科技工業股份有限公司,03000478,,桃園市楊梅區高山里高獅路822巷30號1樓,桃園市楊梅區高山里,王嘉靖,53266112,股份有限公司,,1000621,生產中,27電腦、電子產品及光學製品製造業,275量測、導航、控制設備及鐘錶,,水表,,121.167984,24.92197
高駿金屬股份有限公司,03001760,,桃園市龜山區兔坑里茶專一街60巷19弄17號,桃園市龜山區兔坑里,林明清,22968026,股份有限公司,,1020705,生產中,25金屬製品製造業、26電子零組件製造業、29機械設備製造業、30汽車及其零件製造業,254金屬加工處理、259其他金屬製品、269其他電子零組件、293通用機械設備、303汽車零件,,金屬表面處理,,121.363876,24.99519
寶祥貿易股份有限公司,03001919,,桃園市桃園區汴洲里春日路1434巷168號,桃園市桃園區汴洲里,黃根在,12338577,股份有限公司,,1020924,生產中,08食品製造業,089其他食品,,咖哩，食用色素,,121.306679,25.02862
盛新企業社一廠,68003508,,桃園市龍潭區高平里高楊北路200巷150號,桃園市龍潭區高平里,林炳貞,85253342,獨資,,1090713,生產中,23非金屬礦物製品製造業,232耐火、黏土建材及其他陶瓷製品,,,,,
昇鈺光電股份有限公司,68001429,,桃園市龜山區樂善里文明三街1號(2樓),桃園市龜山區樂善里,林南光,25043771,股份有限公司,,1060814,生產中,28電力設備及配備製造業,284照明設備及配備,,ＬＥＤ高功率照明燈具設備（路燈．天井燈．崁燈）,,121.378746,25.0544014
大銓企業股份有限公司,99622083,07810003005834,桃園市桃園區玉山里漢中路119巷26弄17號,桃園市桃園區玉山里,邱輝煌　　　,23243015,股份有限公司,0780417,0780425,生產中,29機械設備製造業,293通用機械設備,,汽車模具,,121.302559,24.9838371
伍享工業股份有限公司,99623705,06710000201486,桃園市中壢區復興里北園路23號,桃園市中壢區復興里,簡榮華　　　,45082977,股份有限公司,0580101,0690202,生產中,30汽車及其零件製造業,303汽車零件,,汽車車身零件及配件,,121.241943,24.98338
德森興業有限公司龍潭廠,99623521,08510000403155,桃園市龍潭區九龍里中興路九龍段129巷175弄11號,桃園市龍潭區九龍里,徐振國　　,34550398,有限公司,0850402,0850415,生產中,25金屬製品製造業,254金屬加工處理,,金屬製品電鍍、五金表面處理,,121.24765,24.8734512
醫電鼎眾股份有限公司林口廠,68000053,,桃園市龜山區樂善里文化一路75-2號(6樓),桃園市龜山區樂善里,詹志俊,27289899,股份有限公司,,1040506,生產中,27電腦、電子產品及光學製品製造業,277光學儀器及設備,,工業用內視鏡,,121.381409,25.0508556
尚泓有限公司蘆竹廠,99628865,08110003155310,桃園市蘆竹區錦興里興隆街四○巷九號,桃園市蘆竹區錦興里,陳英山　　　,22792890,有限公司,0811019,0811105,生產中,25金屬製品製造業、29機械設備製造業、28電力設備及配備製造業、30汽車及其零件製造業、27電腦、電子產品及光學製品製造業、26電子零組件製造業,259其他金屬製品、293通用機械設備、292其他專用機械設備、285家用電器、303汽車零件、271電腦及其週邊設備、269其他電子零組件、251金屬刀具、手工具及模具,,小鐵盒、電腦插片、電腦箱、機械另件,,121.280914,25.0587158
源大環能股份有限公司龜山廠,03000042,,桃園市桃園區大林里興華路10號1樓,桃園市桃園區大林里,彭鴻俊,29120948,有限公司,,0991020,生產中,33其他製造業,339未分類其他製品,,其他製品（蒸氣）,,121.324059,24.9782639
優耐特興業有限公司龜山廠,03002557,,桃園市龜山區舊路里東舊路街118巷95號（1樓）,桃園市龜山區舊路里,李桂孆,27454898,有限公司,,1031114,生產中,22塑膠製品製造業,220塑膠製品,,塑膠製品,,121.368614,25.0124874
有美股份有限公司(公華廠),68002631,,桃園市龜山區大華里忠義路二段358之12號1、2、3樓,桃園市龜山區大華里,陳建利,68213634,股份有限公司,,1080408,生產中,22塑膠製品製造業,220塑膠製品,,,,,
台灣國際航電股份有限公司林口龜山廠,99707176,,桃園市龜山區文化里華亞二路２７０號,桃園市龜山區文化里,王正偉,23527104,股份有限公司,,0960821,生產中,27電腦、電子產品及光學製品製造業,272通訊傳播設備、275量測、導航、控制設備及鐘錶,,全球定位系統導航器（ＧＰＳ）,,121.37381,25.0431633
寶立華車輛工業股份有限公司,03002051,,桃園市龍潭區黃唐里成功路12號,桃園市龍潭區黃唐里,于國孝,02633591,股份有限公司,,1021204,生產中,30汽車及其零件製造業,301汽車、302車體,,１．大客車底盤、２．大客車、３．其他汽車車身,,121.225319,24.8718166
士誠科技股份有限公司,68003678,,桃園市觀音區崙坪里1鄰崙坪1-19號(1樓),桃園市觀音區崙坪里,王士誠,24558863,股份有限公司,,1091006,生產中,11紡織業,115紡織品,,,,,
正峰工業股份有限公司,68003232,,桃園市中壢區內厝里大圳路三段93號、93之1號,桃園市中壢區內厝里,鍾榮昌,44947686,股份有限公司,,1090219,生產中,25金屬製品製造業、28電力設備及配備製造業、29機械設備製造業、33其他製造業,251金屬刀具、手工具及模具、284照明設備及配備、285家用電器、293通用機械設備、331育樂用品,,,,,
南僑鋁業股份有限公司,99626506,07410003094372,桃園市龜山區大華里頂湖路九號,桃園市龜山區大華里,陳恩村　　　,31187705,股份有限公司,0740718,0760630,生產中,24基本金屬製造業、25金屬製品製造業,242鋁、252金屬結構及建築組件,,鋁擠型、鋁門窗,,121.360428,25.046936
益勝紡織有限公司觀音廠,68000978,,桃園市觀音區崙坪里崙坪五路138巷51弄30號(1樓),桃園市觀音區崙坪里,劉豊全,23944017,有限公司,,1051209,生產中,11紡織業,111紡紗、112織布,,紡紗．織布,,121.159233,24.9848843
瑞晟企業社龜山廠,68002550,,桃園市龜山區嶺頂里東萬壽路311巷10號(1樓),桃園市龜山區嶺頂里,邱瑞從,08551202,獨資,,1080305,生產中,30汽車及其零件製造業、31其他運輸工具及其零件製造業,303汽車零件、312機車及其零件、313自行車及其零件,,汽車零件，機車及其零件，自行車及其零件,,121.370132,25.0030823
萬昌科技有限公司,03000894,,桃園市蘆竹區長興里南崁路二段228巷16弄17號及19號,桃園市蘆竹區長興里,鍾遠章,53392434,有限公司,,1010112,生產中,26電子零組件製造業,263印刷電路板,,ＰＣＢ板濕膜代工,,121.27462,25.0605
光正股份有限公司,99621476,06810000125700,桃園市平鎮區湧光里平鎮工業區工業一路一○號,桃園市平鎮區湧光里,邱淮章　　　,29571106,股份有限公司,0580101,0900719,生產中,18化學原材料、肥料、氮化合物、塑橡膠原料及人造纖維製造業、19其他化學製品製造業,199未分類其他化學製品、181化學原材料,http://www.kcchem.com.tw/,塑膠安定劑,,121.20462,24.9027328
偉翔精密工業有限公司一廠,68002802,,桃園市桃園區玉山里玉山街148號(2樓),桃園市桃園區玉山里,簡霈怩,42752100,有限公司,,1080708,生產中,25金屬製品製造業,259其他金屬製品,,其他金屬製品,,121.3005,24.98788
全億金屬工業股份有限公司,99628273,07610000127859,桃園市大園區南港里許厝港二九之一二號,桃園市大園區南港里,陳庚龍　　　,22411251,股份有限公司,0760420,0761118,生產中,30汽車及其零件製造業、31其他運輸工具及其零件製造業、27電腦、電子產品及光學製品製造業,303汽車零件、312機車及其零件、273視聽電子產品,,揚聲器之零件,,121.180527,25.0596752
鈞翔材料科技股份有限公司,68003696,,桃園市楊梅區新榮里電研路69巷56號(1樓),桃園市楊梅區新榮里,楊培儷,82864209,股份有限公司,,1091014,生產中,29機械設備製造業,293通用機械設備,,,,,
宜興食品店,03001416,,桃園市大溪區瑞興里瑞安路一段286號1樓,桃園市大溪區瑞興里,林俊耀,43182944,獨資,,1011116,生產中,08食品製造業,083蔬果加工,,豆乾,,121.279785,24.8856735
裕挺工業股份有限公司,03000817,,桃園市龜山區山頂里山鶯路165號,桃園市龜山區山頂里,黃瑞裕,70506946,股份有限公司,,1001212,生產中,25金屬製品製造業,254金屬加工處理,http://www.yuting.com.tw,不鏽鋼捲（板）,,121.327072,24.9865685
實隆紙器股份有限公司大園廠,S6800056,,桃園市大園區五權里中正東路三段61巷108號,桃園市大園區五權里,黃景福,22134783,股份有限公司,,1090421,生產中,15紙漿、紙及紙製品製造業,152瓦楞紙板及紙容器,,,,,
佳箴工業股份有限公司蘆竹廠,99627494,08310003065711,桃園市蘆竹區內厝里長興路三段二二九巷三○號,桃園市蘆竹區內厝里,黃原勇　　　,36319493,股份有限公司,0830609,0840717,生產中,22塑膠製品製造業、27電腦、電子產品及光學製品製造業、33其他製造業,220塑膠製品、273視聽電子產品、331育樂用品,,塑膠製品,,121.276337,25.06944
上順廚具有限公司,68001534,,桃園市觀音區忠愛路一段223巷9弄27-1號（1樓）,桃園市觀音區,張家福,69685463,有限公司,,1061006,生產中,32家具製造業,321非金屬家具,,金屬家具製造,,121.163261,24.9945717
多提亞食品有限公司林口廠,99688976,,桃園市龜山區大崗里頂湖路7、7之1號1樓,桃園市龜山區大崗里,尹玉仙,12689670,有限公司,,0950509,生產中,08食品製造業,089其他食品,,烘培食品,,121.360588,25.0472469
靖鴻企業有限公司平鎮廠,99625583,08910003325792,桃園市平鎮區北貴里關爺東路三七巷一三號,桃園市平鎮區北貴里,黃炫晟,22233411,有限公司,0890915,0890922,生產中,29機械設備製造業,293通用機械設備,,切片沖床、量測儀,,121.221764,24.9288845
向記食品有限公司,03000635,,桃園市中壢區龍德里龍興路415巷26-1號,桃園市中壢區龍德里,向勇,53498393,有限公司,,1000909,生產中,08食品製造業,089其他食品,,食品製造,,121.241432,24.94078
沂春企業股份有限公司楊梅廠,03000455,,桃園市楊梅區豐野里中正路547-1號,桃園市楊梅區豐野里,林東城,86575449,股份有限公司,,1000608,生產中,25金屬製品製造業、29機械設備製造業,254金屬加工處理、291金屬加工用機械設備、293通用機械設備,,機械零件加工,,121.072739,24.9423542
鎰達精機有限公司,99627446,08710003264605,桃園市中壢區後寮里中山東路二段５２６巷１７號,桃園市中壢區後寮里,林麗琴　　　,16278706,有限公司,0870320,0870325,生產中,29機械設備製造業,293通用機械設備,,鋼片,,121.245033,24.9460773
欣道實業股份有限公司觀音廠,99686950,,桃園市觀音區草漯里１８鄰草漯２９５號,桃園市觀音區草漯里,簡誠輝,86787099,股份有限公司,,0920527,生產中,23非金屬礦物製品製造業,239其他非金屬礦物製品,,瀝青混凝土、砂石,,121.133896,25.0612621
大興鍍金工業股份有限公司,99629901,07410000285916,桃園市龜山區大崗里頂湖二街六六巷二號,桃園市龜山區大崗里,洪秋雄,35007752,股份有限公司,0740912,0770307,生產中,25金屬製品製造業,254金屬加工處理,,金屬表面處理及熱處理,,121.356125,25.04906
東利達股份有限公司蘆竹廠,99627734,,桃園市蘆竹區內厝里南山路二段二０五巷二二弄七之一號,桃園市蘆竹區內厝里,溫武釧,84670550,股份有限公司,,0911025,生產中,18化學原材料、肥料、氮化合物、塑橡膠原料及人造纖維製造業,181化學原材料,,氧化銅、碳酸銅、硫酸銅,,121.284363,25.0662231
日謄油墨工廠股份有限公司桃園廠,99626403,06210000113913,桃園市桃園區龍山里文中路七一二號,桃園市桃園區龍山里,張德興　　　,43058804,股份有限公司,0620905,0651110,生產中,19其他化學製品製造業,192塗料、染料及顏料,,油墨製品,色粉、原料油、化學顏料、塑膠瓶,121.27578,24.9937325
延盛機械有限公司,99628741,06410000067217,桃園市八德區大福里六鄰介壽路一段一二八號,桃園市八德區大福里,許阿美　　　,43828450,有限公司,0580101,0641120,生產中,29機械設備製造業,291金屬加工用機械設備,,切削工具機,,121.302238,24.9755058
昶癸股份有限公司龜山廠,99625533,08110003220027,桃園市龜山區舊路里３鄰東舊路街３號,桃園市龜山區舊路里,廖偉安　　　,86230683,有限公司,0811127,0820317,生產中,29機械設備製造業、25金屬製品製造業,293通用機械設備、259其他金屬製品,,軸心、零件包、導輪、螺絲,,121.361214,25.0148621
暉達精密有限公司,68003180,,桃園市龜山區大坑里南上路520巷6弄14號(二樓),桃園市龜山區大坑里,湯嘉慧,50965984,有限公司,,1090121,生產中,25金屬製品製造業,259其他金屬製品,,,,,
民堡企業有限公司,99625029,08010003000152,桃園市龜山區龍壽里萬壽路一段４９２之２１號１、２樓,桃園市龜山區龍壽里,沈文貴　　　,34719430,有限公司,0800116,0820226,生產中,25金屬製品製造業、29機械設備製造業,259其他金屬製品、293通用機械設備,,支架（機械零件）,,121.398026,25.0165653
晟渝精密企業有限公司,68003673,,桃園市龜山區大華里頂湖路57號,桃園市龜山區大華里,謝碧珠,27309543,有限公司,,1090930,生產中,,,,,,,
金元股份有限公司,99627174,08110003104327,桃園市觀音區廣興里廣興一路192、180、130號,桃園市觀音區廣興里,林當來　　　,86829302,股份有限公司,0810625,0821026,生產中,23非金屬礦物製品製造業,232耐火、黏土建材及其他陶瓷製品,,各種磁磚,,121.086891,25.0312328
台灣迪愛禧色彩股份有限公司,99621970,07610000122700,桃園市觀音區樹林里觀音工業區經建六路15號,桃園市觀音區樹林里,三國歩,80266972,股份有限公司,0760324,0820511,生產中,19其他化學製品製造業,199未分類其他化學製品,,ＰＥＴ絲用色母、ＰＶＣ用色母、ＰＰ色粒、發泡用色膏,,121.119186,25.06432
三劼精機股份有限公司,99686416,08510003011409,桃園市中壢區忠義里中華路２段３６７巷４９號,桃園市中壢區忠義里,呂芳連　　　,45029679,股份有限公司,0850506,0870813,生產中,29機械設備製造業,293通用機械設備,,機械零組件,鋼、鐵,121.236389,24.9627037
天隆電子鍍金工業股份有限公司,99629588,07610000118074,桃園市蘆竹區錦興里錦福路2號,桃園市蘆竹區錦興里,林維祥　　　,20519116,股份有限公司,0760319,0761124,生產中,25金屬製品製造業,254金屬加工處理,,金屬製品電鍍,,121.285446,25.0490074
能翔自動科技股份有限公司,68003770,,桃園市八德區興仁里29鄰中山一路66巷16-1號2樓,桃園市八德區興仁里,翁增鈞,27663234,股份有限公司,,1091119,生產中,,,,,,,
熊谷企業有限公司中壢廠,99688699,,桃園市中壢區內定里內定二十街158巷2號,桃園市中壢區內定里,沈淨菡,86247690,有限公司,,0941118,生產中,29機械設備製造業,293通用機械設備,,機械零件,鐵材,121.23259,25.00079
大將精密有限公司,68000258,,桃園市中壢區普忠里普忠路205號,桃園市中壢區普忠里,廖述通,42568977,有限公司,,1040827,生產中,29機械設備製造業,293通用機械設備,,鋼材二次加工,,121.245781,24.9613152
大銨創新科技股份有限公司桃園廠,99688657,,桃園市新屋區永安里永福路720號,桃園市新屋區永安里,林玉宗,12924823,股份有限公司,,0941027,生產中,19其他化學製品製造業、18化學原材料、肥料、氮化合物、塑橡膠原料及人造纖維製造業,199未分類其他化學製品、184塑膠及合成橡膠原料,,印刷用之助劑,,121.029625,24.98667
嵩大企業有限公司,99687528,,桃園市大園區田心里大觀路二七四巷七號,桃園市大園區田心里,曾清賢,80601693,有限公司,,0930318,生產中,19其他化學製品製造業,199未分類其他化學製品,,其他化學製藥,,121.187904,25.0661011
潤鉅實業有限公司,68000529,,桃園市蘆竹區錦興里南崁路二段66號3樓之1,桃園市蘆竹區錦興里,陳俊吉,28550482,有限公司,,1050303,生產中,27電腦、電子產品及光學製品製造業,277光學儀器及設備,,電子零件,,121.278778,25.0574436
金日實業股份有限公司,99625840,06710000205646,桃園市中壢區內定里合定路一八號,桃園市中壢區內定里,李麟添　　,36533487,股份有限公司,0580101,0680616,生產中,25金屬製品製造業、29機械設備製造業,253金屬容器、293通用機械設備,,冷卻水塔．儲水槽製造及買賣,,121.245689,24.9892063
正謙股份有限公司中壢合江廠,99706895,,桃園市中壢區文化里合江二路7號,桃園市中壢區文化里,鄭馮美蓮,89386055,股份有限公司,,0960321,生產中,26電子零組件製造業,263印刷電路板,,ＰＣＢ板加工製造,,121.242828,24.9857254
斌斌企業股份有限公司,68001416,,桃園市中壢區內定里合圳北路2段473巷27之1號,桃園市中壢區內定里,陳佩姿,22141004,股份有限公司,,1060807,生產中,27電腦、電子產品及光學製品製造業、22塑膠製品製造業,277光學儀器及設備、220塑膠製品,,反射片貼合手工製造,反射片,121.245972,25.0060863
寶躍實業有限公司,68000050,,桃園市桃園區泰山里潮洲街60號2樓,桃園市桃園區泰山里,李乾達,24882003,有限公司,,1040505,生產中,29機械設備製造業,293通用機械設備,,模具加工,,121.299568,24.9877
瑋泰金屬工業股份有限公司龜山廠,99707493,,桃園市龜山區龍壽里東萬壽路632號,桃園市龜山區龍壽里,林佳昱,04437119,股份有限公司,,0970307,生產中,25金屬製品製造業、26電子零組件製造業、28電力設備及配備製造業、29機械設備製造業、32家具製造業,254金屬加工處理、259其他金屬製品、269其他電子零組件、285家用電器、293通用機械設備、322金屬家具,,鋁材、裁剪加工,,121.376343,25.0092049
高爾科技股份有限公司,68001731,,桃園市中壢區至善里後興路1段127號,桃園市中壢區至善里,金也明,80301767,股份有限公司,,1070110,生產中,27電腦、電子產品及光學製品製造業,275量測、導航、控制設備及鐘錶,http://www.gtc.com.tw/,ＬＥＤ照明產品、紅外線熱影像感測系統,,121.246895,24.94193
錫椿企業有限公司,99626817,,桃園市大園區溪海里23鄰溪海路903號1樓,桃園市大園區溪海里,林愛華,70594167,有限公司,,0910913,生產中,30汽車及其零件製造業,302車體,,汽車及其零件,汽車零件,121.189194,25.0209713
印美油墨企業股份有限公司,99688471,,桃園市龜山區兔坑里大同路951之3號,桃園市龜山區兔坑里,林本源,84422047,股份有限公司,,0940707,生產中,,,,油墨、塗料、染料及顏料,,121.360359,24.9901924
政雄橡膠工業股份有限公司,03000868,,桃園市龜山區文化里頂湖一街67巷11號,桃園市龜山區文化里,林罡竹,43837129,股份有限公司,,1010314,生產中,21橡膠製品製造業,210橡膠製品,,橡膠製品,,121.366905,25.04494
創宸科技有限公司,03001617,,桃園市桃園區玉山里漢中路119巷22號,桃園市桃園區玉山里,馮美蓮,54928646,有限公司,,1020329,生產中,27電腦、電子產品及光學製品製造業,272通訊傳播設備,,手機零件代工組裝,,121.302887,24.9834976
翰興商貿有限公司,99707548,,桃園市龜山區福源里湖山街305號１樓,桃園市龜山區福源里,張秉棟,23198927,有限公司,,0970411,生產中,23非金屬礦物製品製造業,231玻璃及其製品,,玻璃製品加工（裁切、鑽孔、組裝）,,121.348045,24.98239
誠栩木業有限公司,68001766,,桃園市楊梅區頭湖里泰圳路313巷116號,桃園市楊梅區頭湖里,石美桂,86334673,有限公司,,1070129,生產中,14木竹製品製造業,140木竹製品,,木箱墊木板,,121.111359,24.9025116
德意生物科技股份有限公司,99622506,08610000805918,桃園市龍潭區九龍里中興路九龍段129巷175弄22號,桃園市龍潭區九龍里,巫中榮,27862304,股份有限公司,0861023,0860926,生產中,09飲料製造業,091酒精飲料、092非酒精飲料,,黑麥汁、鮮啤酒,,121.248085,24.8731365
福來爹有限公司,68003746,,桃園市平鎮區建安里金陵路四段477巷16號(1樓),桃園市平鎮區建安里,劉穎訓,82773377,有限公司,,1091105,生產中,08食品製造業,089其他食品,,,,,
台林電通股份有限公司,99626135,07210003091911,桃園市蘆竹區內厝里榮安路一○號,桃園市蘆竹區內厝里,陳俊廷　　,12278439,股份有限公司,0720912,0721209,生產中,27電腦、電子產品及光學製品製造業、26電子零組件製造業、28電力設備及配備製造業,271電腦及其週邊設備、272通訊傳播設備、262被動電子元件、281發電、輸電及配電機械,http://www.tailyn.com.tw,ＷＩＦＩ、ＳＷＩＴＣＨ、工業電腦類嵌入式卡板,,121.28392,25.06171
耀翔國際實業有限公司長興二廠,68003324,,桃園市蘆竹區長興里長興路四段71巷12-4號,桃園市蘆竹區長興里,劉伯華,29070258,有限公司,,1090409,生產中,14木竹製品製造業、15紙漿、紙及紙製品製造業、21橡膠製品製造業、22塑膠製品製造業,140木竹製品、159其他紙製品、210橡膠製品、220塑膠製品,,,,,
精唐機械股份有限公司,99627769,07610003002111,桃園市桃園區龍山里龍壽街２３０號,桃園市桃園區龍山里,邱梅葱　　　,22380291,股份有限公司,0760112,0760314,生產中,29機械設備製造業,293通用機械設備,,機械加工,,121.267532,24.9882813
詠勝精技有限公司,03002012,,桃園市八德區白鷺里廣福路879巷192弄3號,桃園市八德區白鷺里,陳明勝,53328877,有限公司,,1021112,生產中,22塑膠製品製造業、29機械設備製造業,220塑膠製品、293通用機械設備,http://unsuninc.com.tw,模具零件製造,,121.276443,24.9560051
宏志祥企業社,03001861,,桃園市大園區五權里五青路150巷58弄62號（1樓）,桃園市大園區五權里,呂學儒,83893322,獨資,,1020823,生產中,29機械設備製造業、30汽車及其零件製造業,293通用機械設備、303汽車零件,,汽車零件製造,,121.236046,25.0243359
鴻冠科技股份有限公司,99622597,07510003119142,桃園市桃園區泰山里玉山街二一四號,桃園市桃園區泰山里,喬天宇　　　,22270409,股份有限公司,0750920,0751028,生產中,26電子零組件製造業,263印刷電路板,,多層印刷電路板＊＊且３００列中的計量單位為ＰＣＳ非平方呎,,121.299919,24.985157
美亞鋼管廠股份有限公司幼獅廠,99623903,07810000171796,桃園市楊梅區高山里獅一路六號,桃園市楊梅區高山里,黃春發,44680700,股份有限公司,0780209,0800118,生產中,25金屬製品製造業,254金屬加工處理,,鋼板、不銹鋼管、構架管,,121.1763,24.9243851
松漢企業股份有限公司大溪廠,99688350,,桃園市大溪區瑞興里１鄰大鶯路１２５０號,桃園市大溪區瑞興里,鄭碧華,31238726,股份有限公司,,0940503,生產中,27電腦、電子產品及光學製品製造業、29機械設備製造業、25金屬製品製造業,259其他金屬製品、293通用機械設備、291金屬加工用機械設備、292其他專用機械設備、275量測、導航、控制設備及鐘錶,,瓦斯器材及零件、金屬加工用機械、專用生產機械、通用機械設備,,121.311035,24.9249134
廣霖鋼鐵有限公司,68002455,,桃園市八德區茄苳里茄苳路895號(1樓),桃園市八德區茄苳里,徐健珩,84621073,有限公司,,1071225,生產中,25金屬製品製造業,254金屬加工處理,,鋼鐵,,121.279968,24.9663677
柏元企業有限公司,99629015,08110003104405,桃園市新屋區大坡里三角堀一三四號,桃園市新屋區大坡里,游翔聖　,23083501,有限公司,0810703,0810710,生產中,29機械設備製造業、26電子零組件製造業,293通用機械設備、269其他電子零組件,,電子零件,,121.035522,24.961998
瑞皇企業股份有限公司,99626472,07610003034401,桃園市桃園區汴洲里2鄰幸福路16號,桃園市桃園區汴洲里,黃志賢,22210711,股份有限公司,0760401,0760420,生產中,11紡織業,111紡紗,,針織紗,,121.303291,25.0290813
瑞祥聖企業有限公司,68002953,,桃園市新屋區笨港里5鄰榕樹下68號,桃園市新屋區笨港里,吳美娟,12803763,有限公司,,1080919,生產中,25金屬製品製造業,259其他金屬製品,,鐵材、不銹鋼材切割加工,,121.01757,24.9674778
宏泰電工股份有限公司觀音廠,99622104,08010000329771,桃園市觀音區樹林里國建一路二號,桃園市觀音區樹林里,張永城　　　,43125162,股份有限公司,0801211,0821123,生產中,27電腦、電子產品及光學製品製造業、26電子零組件製造業、28電力設備及配備製造業,272通訊傳播設備、263印刷電路板、283電線及配線器材,http://www.hong-tai.com.tw,電力用電纜、裸銅線、通訊用電纜、銅箔基板,,121.116028,25.05455
台灣造粒股份有限公司楊梅廠,99687009,,桃園市楊梅區高山里高獅路八一三巷二六弄九號,桃園市楊梅區高山里,陳金榮,16373440,股份有限公司,,0920630,生產中,18化學原材料、肥料、氮化合物、塑橡膠原料及人造纖維製造業,184塑膠及合成橡膠原料,http://www.tpp.com.tw/index.php,塑膠粒製造,合成樹脂、塑膠及橡膠,121.163467,24.92829
信祐工業股份有限公司,99626689,08710003297865,桃園市觀音區崙坪里一鄰崙坪一之三三號,桃園市觀音區崙坪里,賴芳泉　　　,16685366,股份有限公司,0871203,0880201,生產中,25金屬製品製造業,253金屬容器,,液化石油氣儲槽、液化石油氣警報器,,121.133179,24.9843521
佳茂化學股份有限公司第二廠,99623769,07710000297196,桃園市中壢區內定里中壢工業區合定路二六之一號,桃園市中壢區內定里,林通義　　,30860651,股份有限公司,0771213,0781103,生產中,18化學原材料、肥料、氮化合物、塑橡膠原料及人造纖維製造業,184塑膠及合成橡膠原料,,樹脂,,121.2441,24.98833
寀呈股份有限公司,68003743,,桃園市蘆竹區內厝里長安路二段120巷7、9號,桃園市蘆竹區內厝里,李佳燕,54807729,股份有限公司,,1091102,生產中,22塑膠製品製造業、33其他製造業,220塑膠製品、339未分類其他製品,,,,,
太業科技股份有限公司員本廠,68000748,,桃園市楊梅區員本里民富路三段254巷8號1樓,桃園市楊梅區員本里,梁國恩,45911340,股份有限公司,,1050715,生產中,29機械設備製造業,293通用機械設備,http://malico.com,散熱片,,121.099258,24.93149
長林電子股份有限公司,99629659,08710003266354,桃園市八德區大安里榮興路７３巷２４號３樓,桃園市八德區大安里,簡尚祿　　,86644570,股份有限公司,0870615,0870921,生產中,26電子零組件製造業、27電腦、電子產品及光學製品製造業,269其他電子零組件、272通訊傳播設備、277光學儀器及設備、271電腦及其週邊設備、275量測、導航、控制設備及鐘錶,,電路板（裝配、焊接）加工,,121.312012,24.9536629
巨青電子有限公司,99688264,,桃園市八德區瑞豐里豐田路160號1樓,桃園市八德區瑞豐里,陳明雁,27610618,有限公司,,0940311,生產中,26電子零組件製造業,263印刷電路板,,ＰＣＢ板鑽孔代工、其他電子零組件,鑽頭、電子零件,121.289688,24.9294376
順鴻金屬股份有限公司,99707575,,桃園市龍潭區烏林里工五路１１２號,桃園市龍潭區烏林里,陳慧瑩,28159992,股份有限公司,,0970424,生產中,25金屬製品製造業,259其他金屬製品,,鋼材二次加工,鋼材,121.208817,24.8889866
新毅電子有限公司二廠,03000930,,桃園市中壢區內定里高邊路7號1樓,桃園市中壢區內定里,陳如英,97407791,有限公司,,1010210,生產中,25金屬製品製造業,254金屬加工處理,,印刷電路板（鍍銅錫、鍍鎳加工）、印刷電路板,,121.241234,24.9892445
萬洲化學股份有限公司楊梅一廠,99623932,06910000245800,桃園市楊梅區瑞原里民富路二段199巷15號,桃園市楊梅區瑞原里,林佑昇,03244705,股份有限公司,0691229,0741202,生產中,18化學原材料、肥料、氮化合物、塑橡膠原料及人造纖維製造業、19其他化學製品製造業、33其他製造業,181化學原材料、199未分類其他化學製品、339未分類其他製品,http://www.achem.com.tw/,電氣管路膠帶、包裝膠帶、雙面膠帶、離型紙,,121.10923,24.9249935
台灣鐵塔股份有限公司,99626668,06210000113589,桃園市龍潭區八德里湧光路一段136號,桃園市龍潭區八德里,李文隆　　,04697368,股份有限公司,0620105,0650103,生產中,25金屬製品製造業、24基本金屬製造業,241鋼鐵、252金屬結構及建築組件、259其他金屬製品,http://www.taitower.com.tw/,鍍鋅鐵塔、鐵塔現場施工、鍍鋅角鋼、鋼管桿加裝防墜裝置、鐵構件,,121.223183,24.8515186
禾億實業社,03000524,,桃園市楊梅區梅溪里新農街二段209巷55號,桃園市楊梅區梅溪里,陳文錦,09929541,獨資,,1000715,生產中,08食品製造業,089其他食品,,麵腸,麵粉,121.170151,24.9135532
山葉家具事業股份有限公司桃園廠,99629983,08510003138937,桃園市龜山區中興里萬壽路二段一二○四之二號,桃園市龜山區中興里,葉新有　　　,18547805,股份有限公司,0850806,0850812,生產中,32家具製造業、14木竹製品製造業,321非金屬家具、140木竹製品,,傢俱、沙發,,121.331238,24.99403
穎台材料股份有限公司,03001912,,桃園市龍潭區三和里新和路255號,桃園市龍潭區三和里,張志成,69488553,股份有限公司,,1020913,生產中,22塑膠製品製造業、26電子零組件製造業,220塑膠製品、269其他電子零組件,,光學級膜,,121.185966,24.846941
瑞興工業股份有限公司二廠,99717888,,桃園市龜山區大華里頂湖路51號,桃園市龜山區大華里,陳麗杏,80748937,股份有限公司,,0981102,生產中,22塑膠製品製造業、33其他製造業,220塑膠製品、339未分類其他製品,,塑膠容器,,121.362953,25.0406322
達航科技股份有限公司林口一廠,99687246,,桃園市龜山區文化里復興三路558號3樓,桃園市龜山區文化里,翁榮隨,86078580,股份有限公司,,0921016,生產中,29機械設備製造業、27電腦、電子產品及光學製品製造業、26電子零組件製造業,293通用機械設備、271電腦及其週邊設備、263印刷電路板,http://www.ofunatech.com,印刷電路板高精度鑽孔機、成型機、雷射鑽孔機研發製造、雷射加工、精密零件製造,,121.372154,25.0402946
極霖鐳射精機股份有限公司,03000847,,桃園市八德區茄苳里永豐路411號1樓,桃園市八德區茄苳里,陳惠鳳,53476840,股份有限公司,,1001226,生產中,25金屬製品製造業,254金屬加工處理,,鋼材加工,,121.274406,24.9722328
台達電子工業股份有限公司中壢二廠,68002310,,桃園市中壢區永福里南園路4號,桃園市中壢區永福里,海英俊,34051920,股份有限公司,,1071029,生產中,28電力設備及配備製造業、29機械設備製造業,289其他電力設備及配備、292其他專用機械設備,http://www.deltaww.com,電源供應器,,121.238548,24.968708
承享有限公司,99624416,08810003327593,桃園市桃園區中德里桃德路八九巷二一號,桃園市桃園區中德里,馮玉蘭　　　,16375658,有限公司,0880622,0890717,生產中,22塑膠製品製造業,220塑膠製品,,未列名塑膠製品,,121.2939,24.9673061
建馨製油廠有限公司,99628390,06810000115755,桃園市大園區沙崙里三鄰下海湖二六號,桃園市大園區沙崙里,顏聰銘,31275025,有限公司,0680409,0680523,生產中,18化學原材料、肥料、氮化合物、塑橡膠原料及人造纖維製造業,184塑膠及合成橡膠原料,,船底漆、油漆原料樹脂,,121.230461,25.1100178
強力機械股份有限公司,68001497,,桃園市楊梅區高上里8鄰高獅路813巷37號,桃園市楊梅區高上里,彭柏東,69685724,股份有限公司,,1060915,生產中,29機械設備製造業,292其他專用機械設備,,底膜切割機，翻轉機,,121.162506,24.9272461
盈亮健康科技股份有限公司,99688152,,桃園市八德區瑞興里介壽路二段252巷71弄66、66-1號,桃園市八德區瑞興里,林月圓,23200064,股份有限公司,,0940106,生產中,33其他製造業,331育樂用品、332醫療器材及用品,https://www.yingliang.com.tw/,育樂用品,,121.295181,24.9503689
信榮五金彈簧有限公司桃園廠,99629034,07210003004369,桃園市龜山區大坑里南上路四四五號,桃園市龜山區大坑里,許中全　　　,35275341,有限公司,0720122,0720209,生產中,25金屬製品製造業、30汽車及其零件製造業、31其他運輸工具及其零件製造業,259其他金屬製品、303汽車零件、312機車及其零件,,彈簧,,121.305794,25.04528
常偉股份有限公司,99688282,,桃園市大園區埔心里中正東路一段840巷97號,桃園市大園區埔心里,徐偉傑,23279266,股份有限公司,,0940322,生產中,19其他化學製品製造業,192塗料、染料及顏料、199未分類其他化學製品,,水性防水塗料、水性填縫劑、塗料、染料及顏料、其他化學製藥,,121.23336,25.034996
桃園市大溪區農會埔頂辦事處碾米廠,99686405,06910000090734,桃園市大溪區仁愛里八鄰二號,桃園市大溪區仁愛里,謝昌明　　,43264608,農會組織,0690310,0700918,生產中,08食品製造業,084動植物油脂、086碾榖、磨粉及澱粉製品,,糙米,,121.278175,24.9001312
凱氏國際有限公司,03002000,,桃園市中壢區過嶺里民族路六段576巷39弄28號,桃園市中壢區過嶺里,謝慶源,16407814,有限公司,,1021106,生產中,19其他化學製品製造業,194化粧品,,面膜，化妝水，面霜，乳液，按摩油,,121.153748,24.96501
西北臺慶科技股份有限公司,99623122,08210000076434,桃園市楊梅區高山里幼四路1號,桃園市楊梅區高山里,謝明諺,86978512,股份有限公司,0820715,0820802,生產中,26電子零組件製造業、25金屬製品製造業,269其他電子零組件、254金屬加工處理,,其他變壓器、磁粉芯、繞線電感、粉末治金,,121.170959,24.9272346
映南股份有限公司桃園二廠,03001596,,桃園市龜山區南美里三鄰南上路290巷23號1樓,桃園市龜山區南美里,李威霖,12221020,股份有限公司,,1020326,生產中,19其他化學製品製造業,194化粧品,http://www.earldom.com.tw,康媚花沐浴精,介面活性劑、香精,121.302277,25.0448971
耐特利機械股份有限公司,03001426,,桃園市蘆竹區南崁里建新街41號1樓,桃園市蘆竹區南崁里,楊永民,25163450,股份有限公司,,1011120,生產中,29機械設備製造業,292其他專用機械設備、293通用機械設備,,機械製造,,121.300232,25.0379925
美好精密電子股份有限公司,99623827,08410003225042,桃園市龍潭區高平里崁頂五號,桃園市龍潭區高平里,謝武雄　　　,22522881,股份有限公司,0841204,0850411,生產中,26電子零組件製造業、22塑膠製品製造業,262被動電子元件、220塑膠製品,,金屬膜電阻器,,121.215965,24.8343887
國際富琳企業有限公司,99686127,08510003138123,桃園市蘆竹區錦興里錦福路30號,桃園市蘆竹區錦興里,謝勝利　　,96982347,有限公司,0850614,0850621,生產中,22塑膠製品製造業,220塑膠製品,,塑膠製品、電子配件、體育用品,,121.285049,25.0490837
正旻工業股份有限公司,68002749,,桃園市平鎮區平南里天津街203巷19號,桃園市平鎮區平南里,吳萬定,34545558,股份有限公司,,1080610,生產中,25金屬製品製造業、28電力設備及配備製造業、29機械設備製造業、30汽車及其零件製造業,251金屬刀具、手工具及模具、254金屬加工處理、259其他金屬製品、283電線及配線器材、293通用機械設備、303汽車零件,,金屬刀具、手工具及模具，金屬加工處理，其他金屬製品，電線及配線器材，通用機械設備，汽車零件,,121.206825,24.9082222
臺灣華歌爾股份有限公司一廠,99623554,07010000072882,桃園市龜山區山頂里興邦路二九之一號,桃園市龜山區山頂里,陳國鎮　　　,43409251,股份有限公司,0580101,0700617,生產中,12成衣及服飾品製造業,123服飾品,,成衣、內衣、胸罩，束腹，褲類,,121.324089,24.9838333
榮記鋼鐵企業有限公司,68002208,,桃園市觀音區保障里大觀路1段221號,桃園市觀音區保障里,楊茂榮,27264399,有限公司,,1070907,生產中,25金屬製品製造業,259其他金屬製品,,廢鐵鋁等,,121.15239,25.0520878
亞特吉科技股份有限公司八德廠,68000865,,桃園市八德區廣興里永豐南路26號(1、2樓),桃園市八德區廣興里,張倉晏,16187121,股份有限公司,,1050910,生產中,27電腦、電子產品及光學製品製造業、29機械設備製造業、26電子零組件製造業,271電腦及其週邊設備、274資料儲存媒體、293通用機械設備、269其他電子零組件,,電子產品,,121.28009,24.9585838
錦鴻塑膠股份有限公司,68003555,,桃園市龜山區大坑里南上路520巷28弄39號5樓,桃園市龜山區大坑里,許靜雄,42705888,股份有限公司,,1090731,生產中,22塑膠製品製造業,220塑膠製品,,,,,
桃園汽車客運股份有限公司修車廠,99623953,06110000074894,桃園市桃園區大林里興中街五號,桃園市桃園區大林里,黃伯弘　　,43266009,股份有限公司,0610731,0641202,生產中,30汽車及其零件製造業、31其他運輸工具及其零件製造業,303汽車零件、319未分類其他運輸工具及其零件,,客運汽車維修廠，針對車輛維修，零件更換，無生產任何產品。,,121.321434,24.9809647
新美光股份有限公司楊梅工廠,99622570,07710003096062,桃園市楊梅區秀才里秀才路845巷250號,桃園市楊梅區秀才里,李正美,07450418,股份有限公司,0770707,0790927,生產中,19其他化學製品製造業、22塑膠製品製造業,192塗料、染料及顏料、220塑膠製品,,油墨,ＰＶＣ粉、顏料、添加劑、溶劑,121.141495,24.8842373
鴻創科技股份有限公司,68001122,,桃園市龍潭區烏林里工二路一段159號,桃園市龍潭區烏林里,黃志烽,53049896,股份有限公司,,1060313,生產中,26電子零組件製造業,262被動電子元件,http://www.hungtron.com.tw/,電感,,121.205193,24.8897057
鑫品國際有限公司,68000075,,桃園市蘆竹區錦興里錦福路24號（1樓及夾層）,桃園市蘆竹區錦興里,陳鵬智,12714050,有限公司,,1040515,生產中,32家具製造業,321非金屬家具,,家具製造,,121.285088,25.048872
印順企業社,03000072,,桃園市中壢區內厝里內厝三路199巷108號,桃園市中壢區內厝里,蔡印順,36471588,獨資,,0991104,生產中,11紡織業,111紡紗,,紡紗,,121.188225,24.97615
同達一股份有限公司,99623181,08310000150954,桃園市中壢區內定里定寧路八號,桃園市中壢區內定里,賴玉崑,84542916,股份有限公司,0830201,0840116,生產中,17石油及煤製品製造業,170石油及煤製品,,潤滑成品油脂,,121.243622,24.9919415
南成有限公司,68003283,,桃園市桃園區玉山里玉山街233巷16號(2樓),桃園市桃園區玉山里,陳潮靖,82788337,有限公司,,1090317,生產中,25金屬製品製造業,254金屬加工處理,,,,,
鈺生粧企業有限公司,99627806,08510000401617,桃園市蘆竹區長興里興隆街7號,桃園市蘆竹區長興里,陳秀庭,86129286,有限公司,0850213,0850321,生產中,19其他化學製品製造業,194化粧品,,化粧品,,121.279442,25.0599422
森賢化學有限公司,99707060,,桃園市桃園區汴洲里春日路１６５１巷１２弄４號,桃園市桃園區汴洲里,黃健治,28663541,有限公司,,0960623,生產中,19其他化學製品製造業,199未分類其他化學製品,,固化劑、水泥添加劑,,121.3054,25.0262585
新協塑膠工業股份有限公司,99628731,06710000300262,桃園市蘆竹區長興里南崁路2段255號,桃園市蘆竹區長興里,劉陳惠芬　,43818360,股份有限公司,0580101,0690403,生產中,22塑膠製品製造業,220塑膠製品,,汽車零件、保險桿、水箱罩、葉子板、擋泥板,,121.27301,25.0595531
台灣荏原電產股份有限公司二廠,68002922,,桃園市中壢區忠福里南園二路7號,桃園市中壢區忠福里,韮澤和夫,23528384,股份有限公司,,1080830,生產中,29機械設備製造業,293通用機械設備,,通用機械設備,,121.237068,24.97099
禾健金屬有限公司大園廠,68002504,,桃園市大園區北港里工四路11號,桃園市大園區北港里,林月雲,54695506,有限公司,,1080122,生產中,24基本金屬製造業,243銅,,銅,,121.177818,25.07207
東北國際機械有限公司,68001735,,桃園市龜山區大坑里南上路520巷33弄12號2樓,桃園市龜山區大坑里,江念祖,54513745,有限公司,,1070110,生產中,29機械設備製造業,293通用機械設備,,棒磨機，軸承,Ｈ鋼，鋼板，馬達,121.315414,25.0467262
勤耀科技股份有限公司,68003286,,桃園市桃園區龍祥里裕和街17巷58號(3樓),桃園市桃園區龍祥里,李伯堅,27271482,股份有限公司,,1090320,生產中,29機械設備製造業,293通用機械設備,,,,,
台和光化學股份有限公司,99624033,06910000089728,桃園市龜山區兔坑里海萍路六巷一之三、之四號,桃園市龜山區兔坑里,楊啟聖　　　,34189761,股份有限公司,0690229,0690611,生產中,19其他化學製品製造業,199未分類其他化學製品,http://www.taiwako.com/,其他雜項化學製品（脫脂劑）,,121.345665,24.9813862
東舒美工業股份有限公司,99629854,08110003220314,桃園市八德區大發里一鄰和平路七○四巷二八號,桃園市八德區大發里,王仲修　　　,34474224,股份有限公司,0811207,0830725,生產中,29機械設備製造業,293通用機械設備,,連接器,,121.318657,24.955164
鈜竣精密機械有限公司中壢廠,68003629,,桃園市中壢區文化里長春二路116號1樓,桃園市中壢區文化里,林慧珠,50924176,有限公司,,1090904,生產中,25金屬製品製造業,254金屬加工處理,,,,,
靖緯電子有限公司,68001260,,桃園市桃園區大林里大仁路50巷8號,桃園市桃園區大林里,呂帛靜,28014005,有限公司,,1060517,生產中,16印刷及資料儲存媒體複製業,160印刷及資料儲存媒體複製,,印刷業,,121.322121,24.9724827
亞宙鍛造股份有限公司,99622110,07610000253337,桃園市觀音區樹林里經建四路九號,桃園市觀音區樹林里,黃永松　　　,22513594,股份有限公司,0760724,0770516,生產中,30汽車及其零件製造業、31其他運輸工具及其零件製造業、25金屬製品製造業、29機械設備製造業、33其他製造業,312機車及其零件、303汽車零件、259其他金屬製品、293通用機械設備、339未分類其他製品,,汽機車零件,,121.116478,25.0591431
鴻皓國際有限公司蘆竹廠,68002514,,桃園市蘆竹區坑口里21鄰海山路一段394巷57號（1樓、夾層及2樓）,桃園市蘆竹區坑口里,李雪瑜,79987918,有限公司,,1080211,生產中,08食品製造業,089其他食品,,其他食品,,121.264549,25.0996113
見昇精密廠,99627181,08410003008560,桃園市八德區大和里建國路九八○號,桃園市八德區大和里,簡松柏　　　,36425213,獨資,0840119,0840228,生產中,29機械設備製造業、25金屬製品製造業,259其他金屬製品、293通用機械設備,,螺絲、螺帽,,121.293015,24.9551735
博奇企業有限公司中壢廠,99629864,08610000807997,桃園市中壢區忠福里東園二路二五號,桃園市中壢區忠福里,劉思博,04744405,有限公司,0860917,0891118,生產中,17石油及煤製品製造業,170石油及煤製品,,潤滑油,,121.237656,24.977129
華生水資源生技股份有限公司中壢廠,03000208,,桃園市中壢區永福里5鄰中福路二段10巷7號2樓,桃園市中壢區永福里,胡端圓,86367821,股份有限公司,,1000110,生產中,09飲料製造業,092非酒精飲料,http://www.hwaseng.com.tw,包裝飲用水,,121.2337,24.9800243
東聯和有限公司,03001507,,桃園市蘆竹區瓦窯里南山路一段349巷13號1樓及夾層,桃園市蘆竹區瓦窯里,蔡月珍,54007156,有限公司,,1020117,生產中,26電子零組件製造業,269其他電子零組件,,電子零件組裝、包裝,,121.287781,25.0584469
桃園市大溪區農會碾米廠,99686412,06510000214389,桃園市大溪區一德里康莊路五九一號,桃園市大溪區一德里,謝昌明,43264608,農會組織,0651231,0660806,生產中,08食品製造業,084動植物油脂、086碾榖、磨粉及澱粉製品,,糙米、切碎白米,,121.285339,24.86983
志明雲石股份有限公司,99625196,05810000009124,桃園市八德區大正里桃德路200巷55弄5號,桃園市八德區大正里,邱陳玉雲　　,43869472,股份有限公司,0580101,0601001,生產中,23非金屬礦物製品製造業,234石材製品,,大理石製品、石地,,121.297325,24.96972
錂駿實業有限公司,03001637,,桃園市新屋區清華里清華一街108號,桃園市新屋區清華里,曾素陣,53401428,有限公司,,1020416,生產中,25金屬製品製造業,259其他金屬製品,,１０Ｈ攪拌棒、ＡＴＰＨ２５００系列,,121.115341,24.9686432
台松堆高機股份有限公司新屋廠,68001255,,桃園市新屋區九斗里青富路46號,桃園市新屋區九斗里,許顯榮,23526689,股份有限公司,,1060512,生產中,29機械設備製造業,293通用機械設備,http://www.taiwan-komatsu.tw,通用機械設備（堆高機）,,121.137093,24.9678326
乙泰企業有限公司蘆竹廠,68002443,,桃園市蘆竹區長興里南崁路二段297巷32號6樓,桃園市蘆竹區長興里,賴健峰,28149995,有限公司,,1071220,生產中,33其他製造業,331育樂用品,http://www.eastrich.com.tw,育樂用品，毛刷，化妝刷，美甲刷，美術刷，牙材刷，雷射代工，打點代工，拉線,毛料，鋁管，銅管,121.271294,25.0597878
廣積科技股份有限公司平鎮廠,68003415,,桃園市平鎮區雙連里民族路雙連二段118巷12號、12號1、2、3、4樓,桃園市平鎮區雙連里,林秋旭,70479315,股份有限公司,,1090522,生產中,26電子零組件製造業、27電腦、電子產品及光學製品製造業、28電力設備及配備製造業,269其他電子零組件、271電腦及其週邊設備、273視聽電子產品、281發電、輸電及配電機械、285家用電器、289其他電力設備及配備,,,,,
川慶化學股份有限公司觀音廠,99624174,07510000336009,桃園市觀音區草漯里大同二路15號,桃園市觀音區草漯里,李承宗　　,22374452,股份有限公司,0751205,0800626,生產中,,,http://www.transchief.com.tw,化學溶劑,,121.135452,25.049736
友成玻璃纖維股份有限公司,S6800213,,桃園市楊梅區上湖里4鄰高鐵南路十段599巷118號,桃園市楊梅區上湖里,莊春蘭,14052008,股份有限公司,,1090525,生產中,22塑膠製品製造業,220塑膠製品,,,,,
一信衛生工程有限公司,68003313,,桃園市龜山區大坑里南上路520巷6弄20號(1樓),桃園市龜山區大坑里,莊淑敏,80419581,有限公司,,1090401,生產中,25金屬製品製造業、29機械設備製造業,254金屬加工處理、293通用機械設備,,,,,
金本杉企業股份有限公司,03002187,,桃園市龍潭區高平里中豐路高平段10巷27號,桃園市龍潭區高平里,沈志盛,16926879,股份有限公司,,1030312,生產中,29機械設備製造業,293通用機械設備,,通用機械設備,,121.211739,24.8405323
松聖企業有限公司,68001626,,桃園市中壢區永福里東園路22號2樓,桃園市中壢區永福里,歐美玲,45074717,有限公司,,1061117,生產中,33其他製造業,339未分類其他製品,http://www.ibiopen.com,筆,,121.240082,24.9719143
亞昕科技股份有限公司南崁廠,03001086,,桃園市蘆竹區內厝里內溪路51號2樓（3樓及3樓夾層）,桃園市蘆竹區內厝里,張恩傑,27916049,股份有限公司,,1010525,生產中,26電子零組件製造業,261半導體,http://www.yeashin.com,整流二極體、晶粒,,121.277794,25.06632
財益股份有限公司,99627426,08710003263364,桃園市楊梅區高山里高獅路八二四號,桃園市楊梅區高山里,古義勇　　　,23522121,股份有限公司,0870112,0871124,生產中,22塑膠製品製造業,220塑膠製品,,各項塑膠製品,,121.167854,24.9229946
頂典有限公司,03001952,,桃園市龍潭區烏林里工五路242號,桃園市龍潭區烏林里,劉復華,25176286,有限公司,,1021014,生產中,16印刷及資料儲存媒體複製業,160印刷及資料儲存媒體複製,,１．各類印刷標籤２．（彩色）自黏貼紙印刷３．條碼標籤,,121.205193,24.889185
百福林企業股份有限公司永平廠,99717842,,桃園市楊梅區永平里永平路５４９巷２號,桃園市楊梅區永平里,白雁浦,28082586,股份有限公司,,0980924,生產中,26電子零組件製造業,261半導體,,半導體零組件,,121.173141,24.9183445
大詮塑膠有限公司,68003778,,桃園市龍潭區北興里中興路18巷81號(1樓),桃園市龍潭區北興里,黃清泉,33875622,有限公司,,1091123,生產中,22塑膠製品製造業,220塑膠製品,,,,,
精帝科技企業社,68003272,,桃園市八德區大福里10鄰天祥街24巷15弄18號(1樓),桃園市八德區大福里,鄭欽鴻,66983066,獨資,,1090316,生產中,25金屬製品製造業,251金屬刀具、手工具及模具、259其他金屬製品,,,,,
新世代鋁業股份有限公司,03002696,,桃園市蘆竹區長興里南崁路二段300號及306號,桃園市蘆竹區長興里,彭久銘,27650977,股份有限公司,,1040206,生產中,25金屬製品製造業,252金屬結構及建築組件,,鋁、不銹鋼門窗,,121.27153,25.0606842
智譽企業股份有限公司一廠,99707712,,桃園市楊梅區富豐里富豐南路109巷112號,桃園市楊梅區富豐里,蕭水芋,22058693,股份有限公司,,0970715,生產中,25金屬製品製造業、30汽車及其零件製造業,251金屬刀具、手工具及模具、254金屬加工處理、303汽車零件,,各種汽車零件,,121.090767,24.9297466
旌圓企業有限公司,68002312,,桃園市中壢區永福里南園二路8號(1樓),桃園市中壢區永福里,江宗家,80087400,有限公司,,1071030,生產中,26電子零組件製造業,263印刷電路板,,電路板加工,,121.238335,24.9725189
寬輔科技股份有限公司,68002664,,桃園市新屋區石磊里華興路690巷199弄83號,桃園市新屋區石磊里,簡增祥,25005559,股份有限公司,,1080426,生產中,29機械設備製造業,292其他專用機械設備,,其他專用機械設備,,121.092758,25.0015335
頌揚生化科技有限公司,68002512,,桃園市桃園區汴洲里22鄰經國路888號12樓之11,桃園市桃園區汴洲里,廖運林,54948349,有限公司,,1080129,生產中,19其他化學製品製造業,194化粧品,http://www.groribio.com,化粧品,,121.300705,25.0327168
台灣瀧澤科技股份有限公司楊梅一廠,03000753,,桃園市楊梅區仁美里梅獅路一段89號,桃園市楊梅區仁美里,瀧澤修三,44549792,股份有限公司,,1001104,生產中,29機械設備製造業,293通用機械設備、291金屬加工用機械設備,http://www.takisawa.com.tw,金屬工具機械設備製造,,121.18187,24.9205341
宜昇軸封企業有限公司,68002587,,桃園市蘆竹區新興里中興路100巷5號(1樓),桃園市蘆竹區新興里,廖茂鈞,86246355,有限公司,,1080319,生產中,29機械設備製造業,291金屬加工用機械設備、292其他專用機械設備、293通用機械設備,,金屬加工用機械設備，其他專用機械設備，通用機械設備,,121.264679,25.0164738
