工廠名稱,工廠登記編號,工廠設立許可案號,工廠地址,工廠市鎮鄉村里,工廠負責人姓名,統一編號,工廠組織型態,工廠設立核准日期,工廠登記核准日期,工廠登記狀態,產業類別,主要產品,WebURL,ProductName,Material,Longitude,Latitude
松根美術設計印刷有限公司,63021651,06063000075529,臺北市大同區至聖里臺北市大同區承德路三段一七九號一樓,臺北市大同區至聖里,蕭鈞洲,07229233,有限公司,0601026,0610426,生產中,16印刷及資料儲存媒體複製業,160印刷及資料儲存媒體複製,,各種印刷品,,121.518608,25.06916
名國化粧品廠二廠,63020505,08163000020068,臺北市內湖區週美里新明路三二一巷十弄七號五樓,臺北市內湖區週美里,彭得財,01652845,獨資,0810629,0810715,生產中,19其他化學製品製造業,194化粧品,,洗髮精、潤髮乳,,121.585129,25.056242
宇貹農產產銷股份有限公司,63022439,,臺北市士林區永倫里延平北路六段四五七號二樓、三樓,臺北市士林區永倫里,林郁貹,80684650,股份有限公司,,1070213,生產中,08食品製造業,089其他食品,,水煮蛋,,121.499229,25.0920925
志青企業社,63022431,,臺北市南港區三重里松河街六五八號,臺北市南港區三重里,闕志文,05422710,獨資,,1061030,生產中,29機械設備製造業、30汽車及其零件製造業,291金屬加工用機械設備、303汽車零件,,鑄件等,,121.609222,25.0597134
安閎金屬工程股份有限公司,63022282,,臺北市北投區一德里立德路一二０巷二十七號一樓,臺北市北投區一德里,蔡麗雀,53347038,股份有限公司,,1020408,生產中,25金屬製品製造業,252金屬結構及建築組件,http://ahoard.com.tw/,不銹鋼門窗、不銹鋼玻璃欄杆、樓梯扶手、外牆惟幕包板,,121.473351,25.1267052
和昌國際工業股份有限公司內湖廠,63021677,07863000018156,臺北市內湖區葫洲里安康路一一一號,臺北市內湖區葫洲里,江程金,80670826,股份有限公司,0780705,0800812,生產中,23非金屬礦物製品製造業,233水泥及其製品,http://hc-concrete.com.tw,預拌混凝土、水泥、水泥製品,,121.598564,25.06287
中原食品工業開發股份有限公司,63020568,07763000017149,臺北市萬華區糖廍里艋舺大道二七五巷十三、十五號一樓,臺北市萬華區糖廍里,董晃銘,22640634,股份有限公司,0770305,0770517,生產中,08食品製造業,089其他食品,,餐盒,,121.497589,25.0336933
台灣伊柔國際有限公司,63021532,07363000009553,臺北市北投區八仙里北投路一段四十一號二樓,臺北市北投區八仙里,蘇斐玲,36509819,有限公司,0730517,0730705,生產中,19其他化學製品製造業,194化粧品,,乳劑化粧品、液劑化粧品,,121.500771,25.1247883
東亞齒輪機械廠有限公司,63022392,,臺北市內湖區週美里新明路二七三巷六號,臺北市內湖區週美里,許佑嘉,35187591,有限公司,,1050622,生產中,29機械設備製造業,292其他專用機械設備,,其他專用機械設備,,121.586395,25.0569572
士福美食股份有限公司,63020455,08163000020217,臺北市內湖區石潭里新明路一九三、一九五號一樓,臺北市內湖區石潭里,祝佳琴,83475761,股份有限公司,0811228,0820721,生產中,08食品製造業,089其他食品、083蔬果加工,,,,,
力泰建設企業股份有限公司,63020061,068630000A0007,臺北市士林區福安里延平北路七段七號,臺北市士林區福安里,吳良材,66410981,股份有限公司,0680602,0680602,生產中,23非金屬礦物製品製造業,233水泥及其製品,,預拌混凝土,,121.497032,25.0945911
聖美化工股份有限公司,63020671,08063000019791,臺北市內湖區內湖路一段九十一巷十二弄十二號,臺北市內湖區,蔡貴美,05427308,股份有限公司,0801119,0810630,生產中,19其他化學製品製造業,194化粧品,,液劑、乳劑,,121.562386,25.08459
昆陽包裝實業有限公司,63021979,,臺北市南港區合成里忠孝東路六段三一七號一樓,臺北市南港區合成里,陳登科,12931438,有限公司,,0950424,生產中,33其他製造業,332醫療器材及用品,,,,,
金燕企業有限公司北投廠,63020099,07463000009831,臺北市北投區八仙里中央南路二段十六之一號一、二樓,臺北市北投區八仙里,劉義雄,18715112,有限公司,0740208,0750826,生產中,19其他化學製品製造業,194化粧品,,洗髮精,,121.5002,25.1266785
展霖生化基因股份有限公司,63022001,,臺北市內湖區港墘里瑞光路四三九號,臺北市內湖區港墘里,陳武宗,27343465,股份有限公司,,0950901,生產中,19其他化學製品製造業,194化粧品,,化粧水，乳霜，乳液，洗面乳等產品,有機認證萃取物，大豆乳化劑，天然花草水劑，天然抗菌劑，海藻釋控膠體,121.571091,25.0787964
美之心國際股份有限公司,63022505,,臺北市內湖區西湖里洲子街一０五號（一樓）,臺北市內湖區西湖里,李忠良,24602832,股份有限公司,,1090320,生產中,13皮革、毛皮及其製品製造業,130皮革、毛皮及其製品,,,,,
旭泰染化股份有限公司,63022236,,臺北市內湖區港墘里瑞光路一八八巷四十五號三樓,臺北市內湖區港墘里,吳宗翰,25137159,股份有限公司,,1010402,生產中,19其他化學製品製造業,192塗料、染料及顏料,http://www.sunriseoba.com/,上光色料加工,,121.576523,25.073988
良友國際食品股份有限公司,63022203,,臺北市內湖區湖元里行忠路四十八號二、三、四、五樓,臺北市內湖區湖元里,許异卉,84285579,股份有限公司,,1000706,生產中,08食品製造業,089其他食品,,食品罐頭,,121.578636,25.0656338
延億股份有限公司,63020328,07863000018028,臺北市南港區西新里臺北市南港區南港路三段五十巷十九號、十九號地下室,臺北市南港區西新里,洪國忠,36543366,股份有限公司,0780321,0780516,生產中,25金屬製品製造業,259其他金屬製品,http://www.yeni.com.tw,電腦高架地板,,121.590927,25.0559635
上運股份有限公司,63021680,06663000032634,臺北市內湖區蘆洲里安康路一五０號一至三樓、一五二號二至四樓,臺北市內湖區蘆洲里,李德振,04991159,有限公司,0660711,0680821,生產中,33其他製造業、27電腦、電子產品及光學製品製造業、26電子零組件製造業,331育樂用品、271電腦及其週邊設備、269其他電子零組件,,網球練習網、推水器、網球球夾、高爾夫練習網、高爾夫練習球,,121.600479,25.06297
衛鮮食品股份有限公司,63022223,,臺北市內湖區湖元里民善街一二八號地下二樓,臺北市內湖區湖元里,陳金發,53555767,股份有限公司,,1001222,生產中,08食品製造業,081肉類加工,,肉品切片加工,,121.575027,25.06138
大安工研食品工廠股份有限公司,63021128,04163000000819,臺北市大安區民輝里忠孝東路三段十巷一號一樓,臺北市大安區民輝里,許嘉彬,03028426,股份有限公司,0410101,0410612,生產中,08食品製造業,083蔬果加工、089其他食品,,酢醬油味噌醬菜醬類咖哩粉糯米粉馨油,,121.533684,25.0416
生訊科技股份有限公司,63022233,,臺北市內湖區湖元里新湖一路一四五號五樓,臺北市內湖區湖元里,盧智成,80152632,股份有限公司,,1010330,生產中,26電子零組件製造業、33其他製造業,264光電材料及元件、332醫療器材及用品,http://www.biosensetek.com,無線生理信號傳導器ＶＴ２０００,電子零件、電路板、線材、殼具,121.576904,25.0587616
錦華製版印刷有限公司,S6300016,,臺北市萬華區菜園里西昌街五十六號一樓,臺北市萬華區菜園里,黃秋濱,15489302,有限公司,,1090608,生產中,16印刷及資料儲存媒體複製業,160印刷及資料儲存媒體複製,,,,,
昱陸麵店,S6300014,,臺北市士林區承德里承德路四段五十八巷二十四號,臺北市士林區承德里,林旭祥,48749119,獨資,,1090601,生產中,08食品製造業,089其他食品,,,,,
可林修面樂企業有限公司,63020704,06363000074477,臺北市中正區文祥里杭州南路一段一０五巷十二之一號一樓,臺北市中正區文祥里,林周銘寬,04232426,有限公司,0631005,0631105,生產中,19其他化學製品製造業、25金屬製品製造業,193清潔用品、251金屬刀具、手工具及模具,,乳劑,,121.526489,25.03709
祥至機械有限公司,S6300006,,臺北市南港區東新里興南街一三九號,臺北市南港區東新里,張旭智,23145112,有限公司,,1090429,生產中,29機械設備製造業,293通用機械設備,,,,,
瑞亞生醫股份有限公司,63022449,,臺北市內湖區湖元里新湖一路八十五號七樓,臺北市內湖區湖元里,李典穎,53567692,股份有限公司,,1070821,生產中,33其他製造業,332醫療器材及用品,http://www.swissray.com/index.php,角膜塑型片,,121.575676,25.0584488
台寶儷仕國際有限公司,63022463,,臺北市內湖區石潭里新明路二四一之一號四樓,臺北市內湖區石潭里,陳炳男,24752304,有限公司,,1071224,生產中,19其他化學製品製造業,194化粧品,,斯密露洗液、活膚洗液、儷伶手工皂,,121.587326,25.0579185
湄南小鎮有限公司,63022396,,臺北市南港區合成里忠孝東路六段八一巷六號、六號二樓,臺北市南港區合成里,郭泰生,89476128,有限公司,,1050818,生產中,08食品製造業,089其他食品,,月亮蝦餅,,121.584267,25.0482578
加麥股份有限公司,63020019,07363000006794,臺北市士林區福中里臺北市士林區通河東街一段一八一號一、二、三樓,臺北市士林區福中里,蔡鎮雄,04391681,股份有限公司,0731024,0740208,生產中,27電腦、電子產品及光學製品製造業,273視聽電子產品,,耳機、旋紐組合,,121.515648,25.08868
和椿科技股份有限公司,63021886,,臺北市內湖區港墘里洲子街六十號二樓,臺北市內湖區港墘里,張永昌,12304443,股份有限公司,,0930906,生產中,29機械設備製造業、27電腦、電子產品及光學製品製造業、26電子零組件製造業,293通用機械設備、275量測、導航、控制設備及鐘錶、269其他電子零組件,,ＰＢＣ切割機、自動雷射耦光設備、六軸關節式機械手臂、電腦及其週邊設備,,121.572624,25.0792484
方霖實業有限公司,63021790,06863000037008,臺北市士林區福安里延平北路七段二十七巷十五號一樓,臺北市士林區福安里,盧正一,31252037,有限公司,0680712,0680712,生產中,15紙漿、紙及紙製品製造業,152瓦楞紙板及紙容器,,紙杯，紙盒，紙板,,121.495934,25.0950623
精英廣告有限公司南港廠,63022484,,臺北市南港區重陽里重陽路二六三巷二號二樓,臺北市南港區重陽里,邱耀豪,42827221,有限公司,,1080902,生產中,11紡織業、16印刷及資料儲存媒體複製業,115紡織品、160印刷及資料儲存媒體複製,,紡織品，印刷及資料儲存媒體複製,,121.60318,25.0579586
台灣千妥化學股份有限公司,63020024,08663000022212,臺北市南港區東新里重陽路二六三巷六號四樓,臺北市南港區東新里,劉昌榮,04824913,股份有限公司,0860328,0860501,生產中,19其他化學製品製造業,194化粧品,,化粧品（乳劑、油劑、液劑、油膏劑）,,121.603035,25.0581779
精美化工廠股份有限公司,63020365,04963000001263,臺北市大同區至聖里重慶北路三段一九一巷一弄一號,臺北市大同區至聖里,陳月英,07505722,股份有限公司,0491205,0500210,生產中,19其他化學製品製造業,194化粧品,,液劑、噴霧劑、油劑、油膏乳劑,,121.514336,25.0699043
恩揚生物科技股份有限公司,63022374,,臺北市內湖區西湖里內湖路一段三一八號八樓,臺北市內湖區西湖里,劉文煌,53646182,股份有限公司,,1040917,生產中,08食品製造業,089其他食品,http://www.balay.com.tw,ＫＢＡ牛樟菇子實體原料及產品的開發與生產,培養皿、瓶器、麥芽萃取物、洋菜粉,121.570068,25.0815563
芙麗堂企業有限公司,63020977,08063000018938,臺北市內湖區石潭里新明路一二三巷四號二樓,臺北市內湖區石潭里,林冠豪,22163626,有限公司,0800403,0800429,生產中,19其他化學製品製造業,194化粧品,,化粧品、玻尿酸純液、遮暇粉底乳,,121.589981,25.0592861
浤菖生技股份有限公司台北廠,63022049,,臺北市內湖區葫洲里潭美街五五八號三樓,臺北市內湖區葫洲里,吳月伶,70457298,股份有限公司,,0961218,生產中,19其他化學製品製造業,194化粧品,,化粧品（乳劑、液劑）,,121.598892,25.0604553
賀海有限公司,63020805,07863000018290,臺北市南港區重陽路二三五巷二號一樓,臺北市南港區,謝炳毅,70475471,有限公司,0781108,0781117,生產中,29機械設備製造業,293通用機械設備、292其他專用機械設備,,抽水機、變電機,,121.602165,25.05783
永康科技儀器有限公司,63022492,,臺北市內湖區湖元里陽光街三四五巷二之一號,臺北市內湖區湖元里,朱仁湧,54686160,有限公司,,1081106,生產中,33其他製造業,332醫療器材及用品,http://yongyuemedical.com,醫療器材及用品,,121.577606,25.07293
岱鐠科技有限公司,63022527,,臺北市內湖區石潭里新明路一四三巷七號四樓,臺北市內湖區石潭里,曹忠勇,27980338,有限公司,,1091106,生產中,27電腦、電子產品及光學製品製造業,271電腦及其週邊設備,,,,,
久盛紙器有限公司,S6300017,,臺北市士林區永倫里倫等街五十四巷三十六號,臺北市士林區永倫里,郭素貞,23325944,有限公司,,1090608,生產中,15紙漿、紙及紙製品製造業,152瓦楞紙板及紙容器,,,,,
茂業興業有限公司,63022274,,臺北市南港區東明里向陽路一０六號,臺北市南港區東明里,李盈慧,80659961,有限公司,,1011227,生產中,08食品製造業,089其他食品,,餅乾,,121.5952,25.0535583
頂暘空調冷凍有限公司,63022526,,臺北市北投區八仙里中央南路二段一０三號四樓,臺北市北投區八仙里,張朝煌,23620474,有限公司,,1091022,生產中,28電力設備及配備製造業、29機械設備製造業,285家用電器、293通用機械設備,,,,,
琨鑫工業有限公司,63021190,06063000078701,臺北市大同區至聖里民族西路一八七巷三號一樓,臺北市大同區至聖里,蔣仁倫,07605481,有限公司,0601220,0610410,生產中,28電力設備及配備製造業,281發電、輸電及配電機械、289其他電力設備及配備,,電機零件,,121.514839,25.0689926
蘭亭生物科技股份有限公司,63022411,,臺北市內湖區湖元里行愛路七十七巷三十一、三十三號五樓,臺北市內湖區湖元里,呂金燕,53680569,股份有限公司,,1060317,生產中,08食品製造業,089其他食品,http://www.lantyng.url.tw,蘭亭牛樟芝菌絲體膠囊（９０粒）（３０粒）蘭亭牛樟芝乳霜（５５ｍＬ）,,121.582321,25.0630665
聯和印製廠有限公司,63021044,06363000074418,臺北市萬華區和德里寶興街二十一號一樓,臺北市萬華區和德里,陳元翔,04550358,有限公司,0631002,0640113,生產中,16印刷及資料儲存媒體複製業,160印刷及資料儲存媒體複製,,鋅版印刷品,,121.492874,25.027935
天時國際實業有限公司內湖廠,63022367,,臺北市內湖區湖元里瑞光路七十六巷十六號,臺北市內湖區湖元里,周濬甫,24577094,有限公司,,1040601,生產中,08食品製造業、09飲料製造業,083蔬果加工、092非酒精飲料,http://timesberries.com/,冷凍栽種藍莓／冷凍蔓越莓／冷凍覆盆莓／冷凍野生藍莓,,121.580978,25.07108
永磐科技股份有限公司,63022468,,臺北市內湖區西湖里瑞光路四七八巷十八弄二十二號三樓,臺北市內湖區西湖里,楊清文,20915973,股份有限公司,,1080402,生產中,27電腦、電子產品及光學製品製造業,276輻射及電子醫學設備,http://www.mikoiot.com,輻射及電子醫學設備,,121.568306,25.07846
吉光智慧科技有限公司,63022502,,臺北市南港區重陽里重陽路二六三巷二號三樓,臺北市南港區重陽里,許光裕,52585834,有限公司,,1090214,生產中,33其他製造業,332醫療器材及用品,,,,,
嘉信服裝材料行,63020463,07563000010335,臺北市萬華區雙園里莒光路三二二巷五號一樓,臺北市萬華區雙園里,阮雅鈴,15660036,獨資,0750109,0750606,生產中,33其他製造業,339未分類其他製品,,鈕釦,,121.497551,25.0313435
廣盛科技股份有限公司內湖二廠,63022323,,臺北市內湖區湖元里瑞湖街一０三號四樓之四、四樓之五,臺北市內湖區湖元里,陳志鵬,27345816,股份有限公司,,1030721,生產中,27電腦、電子產品及光學製品製造業,271電腦及其週邊設備,https://www.qsan.com/tw,電腦及其週邊設備,,121.576248,25.07266
八樂企業股份有限公司,63022500,,臺北市內湖區湖元里瑞湖街一九九號五樓,臺北市內湖區湖元里,陳詠麗,12672116,股份有限公司,,1090110,生產中,12成衣及服飾品製造業,121成衣,,,,,
艾訊股份有限公司北投二廠,63022270,,臺北市北投區八仙里公舘路四三二號三樓,臺北市北投區八仙里,楊裕德,23718011,股份有限公司,,1011106,生產中,27電腦、電子產品及光學製品製造業、28電力設備及配備製造業,273視聽電子產品、271電腦及其週邊設備、281發電、輸電及配電機械、289其他電力設備及配備,http://axiomtek.com.tw,其他電腦週邊設備（嵌入式系統、觸控模組、ＬＣＤ顯示器）視聽電子產品（觸控式平板播放系統，數位電子看板）發電、輸電及配電機械（控制開關及工業用電力控制設備等）其他電力設備及配備,,121.501961,25.1204166
正益食品廠有限公司,63020513,06563000026538,臺北市內湖區新明路三二一巷十三號二樓、十五號一、二樓,臺北市內湖區週美里,徐發樹,04777101,有限公司,0650614,0650827,生產中,08食品製造業,089其他食品,,煎餅餅乾糖果西點麵包,,121.584846,25.05619
世揚電業有限公司,63020814,08063000019301,臺北市內湖區環山路一段三十六號地下一樓,臺北市內湖區西康里,鄭禎祥,35949682,有限公司,0801002,0801210,生產中,28電力設備及配備製造業,289其他電力設備及配備、283電線及配線器材,,連接器,,121.565186,25.085865
創今服裝有限公司,63021621,07663000013600,臺北市萬華區糖廍里大理街一五九巷三號六樓、六樓之一,臺北市萬華區糖廍里,盧漢忠,15880138,有限公司,0761208,0780714,生產中,12成衣及服飾品製造業,121成衣,,泳衣，女裝,,121.496307,25.0344486
凱鴻素食有限公司,63020094,08463000020991,臺北市南港區松河街四０六號,臺北市南港區,郭鳳凰,89624042,有限公司,0841220,0850206,生產中,08食品製造業,089其他食品,,餐盒食品,,121.589363,25.0553589
大鈿電業有限公司,63020246,07463000009918,臺北市北投區一德里大度路三段二九六巷二十四號三樓,臺北市北投區一德里,黃麗生,31315531,有限公司,0740504,0740525,生產中,28電力設備及配備製造業,289其他電力設備及配備、283電線及配線器材,,端子、電子線加工,錫、端子片,121.466896,25.1243057
寬庭美學股份有限公司,63020801,08563000021616,臺北市北投區八仙里中央南路二段十六之二號二樓,臺北市北投區八仙里,陳靜寬,86152835,股份有限公司,0850829,0850907,生產中,11紡織業,115紡織品,,床單被套床罩,,121.5002,25.1267776
肝王製藥股份有限公司,63021068,06263000025127,臺北市北投區奇岩里公舘路九十三號一、二樓,臺北市北投區奇岩里,葉恩強,31285852,股份有限公司,0621108,0630322,生產中,20藥品及醫用化學製品製造業,200藥品及醫用化學製品,,中藥丸,,121.504761,25.1304588
蜂韻實業有限公司,63022375,,臺北市南港區西新里南港路三段一三０巷三弄七號四樓,臺北市南港區西新里,林文興,22442276,有限公司,,1040923,生產中,28電力設備及配備製造業,289其他電力設備及配備,,電源啟動器,,121.587769,25.05374
麥詩實業有限公司,63020329,08463000020857,臺北市內湖區西康里內湖路一段九十一巷二十四弄三十八號二樓,臺北市內湖區西康里,曾祥益,31331069,有限公司,0840424,0840518,生產中,19其他化學製品製造業,194化粧品,,保養品、洗髮用品,,121.563011,25.08517
信源企業股份有限公司,63022465,,臺北市內湖區湖元里新湖一路三七０號五樓,臺北市內湖區湖元里,楊麗芬,23444771,股份有限公司,,1080121,生產中,12成衣及服飾品製造業,121成衣,,布疋成衣．各種紡織品加工,,121.583366,25.0630188
正盛印刷有限公司,63021182,06963000022794,臺北市萬華區福音里貴陽街二段九十六巷十二號一樓,臺北市萬華區福音里,蔡慶忠,15880524,股份有限公司,0690510,0690829,生產中,16印刷及資料儲存媒體複製業,160印刷及資料儲存媒體複製,,印刷品,鉛字、油墨、紙,121.503151,25.0392952
來旺行有限公司,63020311,06763000013790,臺北市士林區福順里延平北路五段一三六巷三十四號一樓,臺北市士林區福順里,張建隆,22195134,有限公司,0670330,0670331,生產中,28電力設備及配備製造業,284照明設備及配備,,燈飾照片器具,,121.51181,25.0822411
臺灣脈思股份有限公司,63022511,,臺北市南港區玉成里八德路四段七六八巷一弄二十四號(一樓),臺北市南港區玉成里,張震南,27326819,股份有限公司,,1090415,生產中,25金屬製品製造業、29機械設備製造業,253金屬容器、293通用機械設備,,,,,
健鼎興業有限公司,63021475,08563000021114,臺北市南港區合成里忠孝東路六段一五九巷四弄十二號一樓,臺北市南港區合成里,張春卿,84764775,有限公司,0850314,0850327,生產中,29機械設備製造業,293通用機械設備,,塑膠袋封切機裝配,,121.586662,25.0496368
老絕麻辣美食有限公司,63022491,,臺北市北投區八仙里中央南路二段十六號,臺北市北投區八仙里,林儷蓉,55181602,有限公司,,1081031,生產中,08食品製造業,081肉類加工、089其他食品,,肉類加工，其他食品,,121.500221,25.1267967
鴻虹企業有限公司,63021442,08163000019906,臺北市士林區福中里通河東街一段一六七巷三十九號三樓,臺北市士林區福中里,劉約志,22182118,有限公司,0810317,0810401,生產中,16印刷及資料儲存媒體複製業,160印刷及資料儲存媒體複製,,紙張印刷，標籤印刷,,121.517105,25.0878
唐威電子有限公司,63021403,09063000028125,臺北市南港區中南里忠孝東路七段五三三號二樓,臺北市南港區中南里,韋素珍,22470928,有限公司,0900216,0900315,生產中,28電力設備及配備製造業,285家用電器,,空氣清淨機、負離子產生器、高壓產生器,,121.612793,25.0529671
臺北漁產運銷股份有限公司冷凍廠,63020527,06363000035390,臺北市萬華區興德里萬大路五三一號,臺北市萬華區興德里,黃俊誠,22661975,股份有限公司,0631102,0641126,生產中,33其他製造業,339未分類其他製品,,冰塊魚貨冷藏,,121.497185,25.0186043
欽翔塑膠有限公司,63020450,07763000017363,臺北市內湖區週美里新明路二四六巷三弄二十三號一樓,臺北市內湖區週美里,王瑞珍,22896488,有限公司,0770621,0770808,生產中,22塑膠製品製造業,220塑膠製品,,塑膠外殼,,121.584496,25.0573616
業生科技股份有限公司,63022497,,臺北市南港區西新里南港路三段四十七巷二號三樓,臺北市南港區西新里,戴逸之,42819545,股份有限公司,,1081210,生產中,28電力設備及配備製造業、29機械設備製造業,285家用電器、293通用機械設備,,家用電器，通用機械設備,皂材．零件,121.590309,25.0527287
統園企業股份有限公司士林廠,63022172,,臺北市士林區福中里大南路三六一號五樓之ㄧ,臺北市士林區福中里,王繼中,22387885,股份有限公司,,0991126,生產中,08食品製造業,089其他食品,,保健類之膠囊、錠狀、顆粒粉末、食品添加物：複方,,121.516487,25.08889
吉能塑膠廠股份有限公司,63021376,07463000010258,臺北市內湖區週美里新明路三三三巷二十三號一樓,臺北市內湖區週美里,石朝明,04775997,股份有限公司,0741023,0741030,生產中,22塑膠製品製造業,220塑膠製品,,塑膠燈殼、塑膠柄、塑膠蓋、塑膠盤,塑膠粒、模具,121.584091,25.055748
可好企業股份有限公司內湖廠,63020748,07763000017385,臺北市內湖區週美里南京東路六段三三０巷十八弄十一號一樓,臺北市內湖區週美里,李應運,04426247,股份有限公司,0770704,0770722,生產中,22塑膠製品製造業,220塑膠製品,,塑膠家用品,,121.584023,25.057745
通業技研股份有限公司,63022510,,臺北市內湖區西湖里堤頂大道二段二０五號四樓,臺北市內湖區西湖里,紀崇楠,86822173,股份有限公司,,1090414,生產中,33其他製造業,332醫療器材及用品,,,,,
美福餐飲股份有限公司,63022362,,臺北市內湖區湖元里民善街一二八號三樓,臺北市內湖區湖元里,巫秀鳳,80198341,股份有限公司,,1040422,生產中,08食品製造業,089其他食品,,湯包,,121.575027,25.06139
純香食品行,63022369,,臺北市內湖區週美里南京東路六段三三０巷十八弄十五號,臺北市內湖區週美里,葉浩明,08594146,獨資,,1040626,生產中,08食品製造業,089其他食品,,年糕、豆花、蘿蔔糕,,121.583847,25.0576782
互豐企業有限公司,63022168,,臺北市內湖區港墘里瑞光路二五八巷五十三號一樓,臺北市內湖區港墘里,陳建利,86871841,有限公司,,0991109,生產中,29機械設備製造業,293通用機械設備,http://www.hiwin168.com.tw,線性滑軌,滑軌、滑塊、螺絲、鋼珠,121.574509,25.07463
黑米數位股份有限公司,63022422,,臺北市南港區西新里南港路三段五十巷十一號,臺北市南港區西新里,林建宏,28208620,股份有限公司,,1060707,生產中,16印刷及資料儲存媒體複製業,160印刷及資料儲存媒體複製,,印刷品（印刷曆／相片書／其他印刷品／框畫）,,121.591187,25.055603
墩祐工業有限公司,63021996,,臺北市內湖區蘆洲里安美街一六一號,臺北市內湖區蘆洲里,羅偉洲,97438529,有限公司,,0950718,生產中,28電力設備及配備製造業,281發電、輸電及配電機械,,程序操作控制盤、實驗設備儀錶盤、機械控制盤、生產流程儀電控制、反應器固液分離儀控系統,,121.600052,25.0600986
凱林彩印股份有限公司,63021950,,臺北市內湖區安康路一０六巷五十九號一樓,臺北市內湖區葫洲里,蔡世賢,14094154,股份有限公司,,0941013,生產中,16印刷及資料儲存媒體複製業,160印刷及資料儲存媒體複製,,印刷,,121.599396,25.0603981
原見精機股份有限公司,63022459,,臺北市南港區東明里南港路二段九十九之二十四號,臺北市南港區東明里,蘇瑞堯,55694841,股份有限公司,,1071105,生產中,29機械設備製造業,293通用機械設備,,力覺感測模組,,121.59642,25.0536079
新誼整合科技股份有限公司,63022326,,臺北市內湖區湖元里新湖二路一二八號三樓之二,臺北市內湖區湖元里,林伯峰,12664093,股份有限公司,,1030813,生產中,26電子零組件製造業、27電腦、電子產品及光學製品製造業,269其他電子零組件、271電腦及其週邊設備、272通訊傳播設備、277光學儀器及設備,http://www.shinsoft.com.tw/index.php/tw/,其他電子零組件，電腦及其週邊設備，通訊傳播設備，光學儀器及設備,,121.578842,25.0624981
雙鋼工業有限公司,63020653,07163000008316,臺北市南港區合成里市民大道七段二０二號,臺北市南港區合成里,游榮喬,84462384,有限公司,0710225,0710313,生產中,29機械設備製造業、30汽車及其零件製造業、25金屬製品製造業,293通用機械設備、303汽車零件、259其他金屬製品,,金屬門窗,鋼板、銅板、鋼條、鋼棒,121.586678,25.0499344
一原工程有限公司,63021425,06863000070445,臺北市南港區西新里南港路三段八十巷四十五號一樓,臺北市南港區西新里,林鴻章,04802306,有限公司,0681228,0690115,生產中,25金屬製品製造業,252金屬結構及建築組件、253金屬容器,,鐵桶、鐵窗、鐵門,鐵板,121.590408,25.0550976
三光精密工業股份有限公司,63021568,08663000021944,臺北市士林區永倫里通河西街二段二三二之三號一樓,臺北市士林區永倫里,陳瑞龍,29509841,股份有限公司,0860205,0861114,生產中,29機械設備製造業,293通用機械設備,,電扇軸心、馬達軸心,,121.500496,25.093441
德佳鋼鐵有限公司內湖廠,63022245,,臺北市內湖區蘆洲里安康路一四七號,臺北市內湖區蘆洲里,劉錫穀,21230794,有限公司,,1010515,生產中,25金屬製品製造業,254金屬加工處理,,鋼板加工,,121.601768,25.0633469
利立實業有限公司,63021084,06163000068854,臺北市大同區重慶里哈密街五十九巷七十三弄九號一樓,臺北市大同區重慶里,白啟峰,07165420,有限公司,0610711,0611012,生產中,22塑膠製品製造業、31其他運輸工具及其零件製造業,220塑膠製品、319未分類其他運輸工具及其零件,,文具、文教用品,,121.516075,25.07568
三星實業有限公司,63020835,06163000062809,臺北市士林區永倫里通河西街二段二三０號,臺北市士林區永倫里,計復華,29504079,有限公司,0610310,0620813,生產中,12成衣及服飾品製造業、22塑膠製品製造業、33其他製造業,121成衣、220塑膠製品、331育樂用品、339未分類其他製品,,成衣塑膠製品,,121.500847,25.0937519
永祥西點麵包店,63020480,08363000020750,臺北市內湖區西康里內湖路一段七十七號一樓,臺北市內湖區西康里,廖春梅,81612249,獨資,0831116,0831205,生產中,08食品製造業,089其他食品,,烘焙食品,,121.560608,25.0848141
美泰印刷企業股份有限公司,63021316,06663000001128,臺北市大同區南芳里迪化街一段三四三號一樓,臺北市大同區南芳里,黃清祥,04349538,股份有限公司,0660110,0660207,生產中,16印刷及資料儲存媒體複製業,160印刷及資料儲存媒體複製,,印刷品,,121.509163,25.06238
晶盛材料股份有限公司,63022116,,臺北市內湖區瑞光路二五八巷五十三號三樓、五十五號三樓、五十五號三樓之一,臺北市內湖區,蔡爾賢,28008242,股份有限公司,,0980710,生產中,27電腦、電子產品及光學製品製造業,277光學儀器及設備,http://cristalmat.com,石英玻璃透鏡,,121.574509,25.07463
美特多股份有限公司,63022307,,臺北市內湖區週美里南京東路六段二六二、二六六號二樓,臺北市內湖區週美里,趙福生,27714796,股份有限公司,,1030210,生產中,08食品製造業,081肉類加工,,肉類處理及其製品,牛．羊．豬．雞等肉品,121.582375,25.0571384
緯凱股份有限公司,63022190,,臺北市南港區重陽里重陽路二六三巷四號四樓,臺北市南港區重陽里,張世和,53113876,股份有限公司,,1000412,生產中,27電腦、電子產品及光學製品製造業,272通訊傳播設備,,通訊傳播設備,,121.603073,25.0580826
強生復健器材製造廠有限公司-內湖廠,63022373,,臺北市內湖區湖元里舊宗路二段九十五號二樓,臺北市內湖區湖元里,葉步麟,15324941,有限公司,,1040812,生產中,33其他製造業,332醫療器材及用品,,,,,
大菱鋼鐵股份有限公司,63021439,06363000071267,臺北市南港區玉成里南港路三段一０九巷一之二號一樓,臺北市南港區玉成里,陳銘華,04769480,股份有限公司,0630628,0640927,生產中,29機械設備製造業、25金屬製品製造業、28電力設備及配備製造業,293通用機械設備、252金屬結構及建築組件、253金屬容器、281發電、輸電及配電機械,,化工機械及零件,,121.588196,25.0522442
科藝彩色製版印刷有限公司,63020749,08263000020429,臺北市萬華區糖廍里大理街一五七號三樓之二,臺北市萬華區糖廍里,許賢哲,84135122,有限公司,0820723,0820819,生產中,16印刷及資料儲存媒體複製業,160印刷及資料儲存媒體複製,,各種印刷品．照相製版加工．紙製品之攝影排,紙張、油墨,121.496307,25.0341377
虎山國際股份有限公司內湖廠,63021330,07763000017165,臺北市內湖區西康里內湖路一段九十一巷二十三弄四號四樓,臺北市內湖區西康里,洪舜悅,05639372,股份有限公司,0770405,0770727,生產中,16印刷及資料儲存媒體複製業,160印刷及資料儲存媒體複製,http://www.husan.com.tw/,攝影彩色照片分色，各種書籍刊物之彩色照相,,121.562256,25.0863247
立勝工業股份有限公司,63022215,,臺北市南港區東明里南港路二段一四七號一樓,臺北市南港區東明里,胡馨尹,12216574,股份有限公司,,1000902,生產中,25金屬製品製造業,259其他金屬製品,http://www.david-sports.com.tw,活動舞臺加工、消波塊加工、球柱加工,,121.59584,25.0541821
晉曜有限公司,63022108,,臺北市內湖區石潭里新明路一七四巷一號一樓,臺北市內湖區石潭里,吳美鳳,84787382,有限公司,,0980427,生產中,29機械設備製造業,293通用機械設備,,軸承、齒輪及動力傳動裝置加工,,121.585434,25.057642
統隆企業有限公司,63020086,06663000049358,臺北市北投區一德里立德路一二一巷十八號,臺北市北投區一德里,林美津,31231603,有限公司,0661021,0680914,生產中,08食品製造業,089其他食品,,胡椒粉，五香粉，百草粉，咖哩粉,,121.4707,25.1287441
明誼股份有限公司,63020512,06163000075958,臺北市萬華區頂碩里萬大路三十九號,臺北市萬華區頂碩里,鄭金發,15054101,股份有限公司,0611027,0620130,生產中,28電力設備及配備製造業,284照明設備及配備,,警示燈、警報器、排式警示燈,,121.500656,25.0317326
雅培米堤食品有限公司,S6300007,,臺北市中山區中庄里民生東路二段九十五號二樓、九十七號二樓,臺北市中山區中庄里,廖宜珍,80297911,有限公司,,1090511,生產中,08食品製造業,089其他食品,,,,,
台裕股份有限公司,63021754,,臺北市內湖區西康里內湖路一段九十一巷二十六號二樓,臺北市內湖區西康里,周重義,11892008,股份有限公司,,0920331,生產中,27電腦、電子產品及光學製品製造業,275量測、導航、控制設備及鐘錶,,溫度控制器、感溫棒,,121.561958,25.0852718
豐鴻機械有限公司,63022464,,臺北市內湖區蘆洲里安康路二一六號二樓,臺北市內湖區蘆洲里,李秉豐,42991263,有限公司,,1080111,生產中,29機械設備製造業,292其他專用機械設備,,其他專用機械設備,,121.602592,25.062849
恩沛行食品有限公司,63022351,,臺北市內湖區蘆洲里安康路二二八巷二十一弄三十二號,臺北市內湖區蘆洲里,高燕美,22036848,有限公司,,1040129,生產中,08食品製造業,089其他食品,http://www.mrs.faiths.com.tw,餅乾、西點,,121.601891,25.0619087
汎宇電商股份有限公司,63020532,07963000018517,臺北市南港區西新里南港路三段五十巷七號四樓,臺北市南港區西新里,李宗悌,23997652,股份有限公司,0790507,0790818,生產中,26電子零組件製造業,269其他電子零組件,,資料儲存,,121.591331,25.0552864
瑋嶽實業有限公司,63021274,08963000027504,臺北市南港區玉成里南港路三段一三０巷五弄二十一號,臺北市南港區玉成里,白錦隆,23864941,有限公司,0890928,0891107,生產中,29機械設備製造業,292其他專用機械設備,,攪拌機,,121.586823,25.0537472
盛記食品廠有限公司興富廠,S6300005,,臺北市文山區華興里辛亥路六段十三號,臺北市文山區華興里,周弘文,22179649,有限公司,,1090428,生產中,08食品製造業,089其他食品,,,,,
順發毛刷有限公司,63021089,07463000010175,臺北市南港區玉成里南港路三段一三０巷五弄十四號一樓,臺北市南港區玉成里,顏桑田,01634571,有限公司,0740907,0741113,生產中,33其他製造業,339未分類其他製品,,毛刷,,121.586937,25.0536823
瑞格斯有限公司,63022046,,臺北市北投區八仙里中央南路二段一一一號,臺北市北投區八仙里,吳秋益,22724824,有限公司,,0961210,生產中,26電子零組件製造業、28電力設備及配備製造業,262被動電子元件、283電線及配線器材,,變壓器、插座,,121.50042,25.1218967
台北永昌印刷股份有限公司,63021284,06163000070995,臺北市大同區鄰江里重慶北路三段二五二巷九、十一、十三號一、二樓,臺北市大同區鄰江里,施昌榕,04295879,股份有限公司,0610731,0630708,生產中,16印刷及資料儲存媒體複製業,160印刷及資料儲存媒體複製,,各種印刷品紙盒,,121.513016,25.0713272
宜龍股份有限公司大業廠,63021641,08463000020969,臺北市北投區八仙里大業路一五八號一至三樓,臺北市北投區八仙里,張世雄,31256441,股份有限公司,0841106,0841209,生產中,28電力設備及配備製造業,283電線及配線器材、285家用電器、281發電、輸電及配電機械、284照明設備及配備、289其他電力設備及配備,,微動開關、馬達防震座,,121.499123,25.124876
靖富工業有限公司,63021215,08363000020610,臺北市內湖區週美里新明路二四六巷三弄十九號一樓,臺北市內湖區週美里,林天來,89929760,有限公司,0830523,0831222,生產中,25金屬製品製造業,259其他金屬製品,,五金零件,,121.584312,25.0572948
立光化工股份有限公司,63020116,05563000001661,臺北市文山區博嘉里木柵路四段一００號,臺北市文山區博嘉里,邱顯評,27014506,股份有限公司,0550720,0551119,生產中,18化學原材料、肥料、氮化合物、塑橡膠原料及人造纖維製造業,181化學原材料,,明礬、泡化鹼、硫化鋁,鹽酸、大理石、精白砂、燃料油,121.57708,25.00007
大陽化學股份有限公司,63020414,06263000073640,臺北市北投區八仙里大度路一五五號,臺北市北投區八仙里,許米里,03041906,股份有限公司,0620906,0630306,生產中,19其他化學製品製造業,193清潔用品,,濕性牙粉,,121.4931,25.1212368
舜躍企業有限公司二廠,63022048,,臺北市南港區合成里忠孝東路六段一五九巷四弄十號一樓,臺北市南港區合成里,林彩鳳,23305320,有限公司,,0961214,生產中,29機械設備製造業、25金屬製品製造業,293通用機械設備、259其他金屬製品,,機械零件、螺絲,,121.586594,25.0496178
復泰電器股份有限公司,63020033,07763000017630,臺北市南港區東新里重陽路二六三巷四號二樓,臺北市南港區東新里,施讚登,04926030,股份有限公司,0771103,0780417,生產中,28電力設備及配備製造業,284照明設備及配備,http://www.taiwanprosperity.com,高低壓儀表指示燈炮、汽車用燈泡,玻璃管、鍍鎂絲、鎢絲、ＬＥＤ、燈座,121.603035,25.0581779
振生冷凍機械有限公司,63020803,07763000017525,臺北市士林區永倫里通河西街二段二三二之二號一樓,臺北市士林區永倫里,劉美英,31313007,有限公司,0770829,0770915,生產中,29機械設備製造業、13皮革、毛皮及其製品製造業,293通用機械設備,,冷凍機組、蓄冷式冷凍庫、工業用冰水機、冷凍冷藏展示櫃,,121.500488,25.0934925
兆瑞裝潢有限公司,63021738,08563000021562,臺北市北投區八仙里臺北市北投區北投路一段四十七號一樓,臺北市北投區八仙里,陳秀蓮,31116863,有限公司,0850815,0850902,生產中,32家具製造業,321非金屬家具,,沙發，吧臺椅，房間椅,,121.5008,25.1249981
四海電子彩色製版股份有限公司,63021541,06463000019895,臺北市松山區復盛里光復南路三十五號五樓之一,臺北市松山區復盛里,胡為民,04923532,股份有限公司,0640509,0641206,生產中,16印刷及資料儲存媒體複製業,160印刷及資料儲存媒體複製,,彩色印刷分色過網平版印刷用印刷版,,121.557938,25.0465527
世芯企業有限公司,63020391,08063000019018,臺北市內湖區週美里新明路三二一巷十弄二十三、二十五號四樓、二十五號五樓,臺北市內湖區週美里,蘇保華,55647593,有限公司,0800704,0800807,生產中,27電腦、電子產品及光學製品製造業,273視聽電子產品,,麥克風,,121.585579,25.0567589
大龍機器廠有限公司,63020844,06163000065691,臺北市大同區揚雅里大龍街一六四號一樓,臺北市大同區揚雅里,王孟玲,07041104,有限公司,0610510,0610628,生產中,29機械設備製造業,293通用機械設備,,高壓泵浦、自吸泵浦、污水泵浦、消防泵浦，化工泵浦，耐酸鹼不銹鋼泵浦,馬達、軸承、螺絲、機械軸材,121.515793,25.0681133
達振能源股份有限公司,63022000,,臺北市內湖區葫洲里安美街一八一號一樓,臺北市內湖區葫洲里,陳敦仁,28860819,股份有限公司,,0950825,生產中,28電力設備及配備製造業,282電池,,電池組裝,,121.601166,25.0601349
昆愛企業有限公司,63022020,,臺北市內湖區西湖里內湖路一段三二０號三樓,臺北市內湖區西湖里,劉叔清,12498118,有限公司,,0960205,生產中,12成衣及服飾品製造業、11紡織業、28電力設備及配備製造業,121成衣、123服飾品、115紡織品、289其他電力設備及配備,,梭織成衣、針織成衣、服飾品,,121.570107,25.081543
復大美術印刷有限公司,63021407,06663000016156,臺北市萬華區華中里武成街三十五巷十六弄十五號一樓,臺北市萬華區華中里,陳建興,07493710,有限公司,0660413,0660518,生產中,16印刷及資料儲存媒體複製業,160印刷及資料儲存媒體複製,,印刷品,,121.494759,25.0182343
長春工業有限公司,63020520,05763000000401,臺北市大同區蓬萊里昌吉街一一０巷十六號,臺北市大同區蓬萊里,周賢俊,07217433,有限公司,0570723,0581208,生產中,22塑膠製品製造業、28電力設備及配備製造業,220塑膠製品、289其他電力設備及配備,,各種電木及塑膠成型製品,,121.514618,25.0653381
龍翰科技股份有限公司,63021807,,臺北市內湖區湖元里新湖三路一三四號四樓,臺北市內湖區湖元里,袁万丁,22172293,股份有限公司,,0920722,生產中,28電力設備及配備製造業、26電子零組件製造業,283電線及配線器材、269其他電子零組件,,,,,
力生機械有限公司,63020926,06063000069334,臺北市大同區重慶里哈密街五十九巷五十三弄一之二號一樓,臺北市大同區重慶里,謝世儀,07010714,有限公司,0600728,0600811,生產中,29機械設備製造業,293通用機械設備,,各種電線機械之零件及其配件,,121.515991,25.0754318
夆潤科技有限公司,63022340,,臺北市南港區西新里南港路三段八十巷三十三號,臺北市南港區西新里,王清志,13101451,有限公司,,1031211,生產中,29機械設備製造業,293通用機械設備,http://www.pharmland.com.tw,欄污柵、除砂系統、曝氣系統、刮砂機,,121.5905,25.0548973
台崙電業股份有限公司,63022102,,臺北市南港區中南里市民大道八段五一八號二樓,臺北市南港區中南里,黃坤明,12547531,股份有限公司,,0980219,生產中,27電腦、電子產品及光學製品製造業,275量測、導航、控制設備及鐘錶,,ＰＣ板零組件、定時器、控溫器、遙控器、整流器、充電器、體脂計,,121.612885,25.0537529
天進印刷廠,63020567,07263000008854,臺北市萬華區和平里艋舺大道三三六巷十一號一樓,臺北市萬華區和平里,曾春蘭,15864910,獨資,0720521,0720601,生產中,16印刷及資料儲存媒體複製業,160印刷及資料儲存媒體複製,,印刷品,,121.49604,25.0321884
精益科技股份有限公司,63022284,,臺北市南港區西新里南港路三段五十巷十四號地下一樓,臺北市南港區西新里,顧宥榛,22156759,股份有限公司,,1020426,生產中,27電腦、電子產品及光學製品製造業,271電腦及其週邊設備,,掃瞄器及安全監控系統,,121.59095,25.0555687
通緯鋼鐵股份有限公司,63020121,08263000020362,臺北市南港區重陽路四六五號,臺北市南港區三重里,林朝欽,23295224,股份有限公司,0820514,0820619,生產中,25金屬製品製造業,254金屬加工處理,,各種鋼材切削加工,,121.610687,25.0597153
鴻府金屬工業有限公司,63022495,,臺北市內湖區蘆洲里安康路一四四之一號,臺北市內湖區蘆洲里,彭錫明,86299161,有限公司,,1081119,生產中,25金屬製品製造業,252金屬結構及建築組件、259其他金屬製品,http://www.hongfu.tw/,金屬結構及建築組件，其他金屬製品,,121.600311,25.06296
夢的美食股份有限公司內湖廠,63022194,,臺北市內湖區蘆洲里潭美街五五一號,臺北市內湖區蘆洲里,水野雅也,29048968,股份有限公司,,1000509,生產中,08食品製造業,089其他食品,,,,,
楊玉芬國際企業有限公司,63022477,,臺北市南港區合成里忠孝東路六段七十七號,臺北市南港區合成里,楊玉芬,53931587,有限公司,,1080613,生產中,19其他化學製品製造業,194化粧品,,化粧品,,121.5843,25.0478878
成宜機械工業有限公司,63020967,,臺北市內湖區週美里南京東路六段三一六號,臺北市內湖區週美里,周耀輝,04786636,有限公司,,0910514,生產中,25金屬製品製造業、29機械設備製造業,259其他金屬製品、292其他專用機械設備,,鑄件、鐵架、不銹鋼板,,121.583954,25.0579586
台灣歐盟有限公司,63022130,,臺北市內湖區湖元里新湖一路一三五號四樓,臺北市內湖區湖元里,劉炳均,24469383,有限公司,,0981120,生產中,19其他化學製品製造業,194化粧品,,液劑、乳劑,,121.576729,25.0584812
聯納立貿易有限公司,63022441,,臺北市內湖區蘆洲里潭美街581號2樓,臺北市內湖區蘆洲里,李其叡,23315024,有限公司,,1070320,生產中,29機械設備製造業,293通用機械設備,,自動龍頭、電磁閥,,121.602257,25.0612183
安佑貴金屬有限公司,63020432,08363000020560,臺北市士林區社新里延平北路六段四二七號一樓,臺北市士林區社新里,廖敏燕,31115597,有限公司,0830324,0830407,生產中,25金屬製品製造業,259其他金屬製品,,螺絲、中空鉚釘,,121.499969,25.091362
成創科技股份有限公司,63022378,,臺北市內湖區湖元里新湖一路八十九號六樓,臺北市內湖區湖元里,何志白,29173732,股份有限公司,,1041211,生產中,27電腦、電子產品及光學製品製造業,272通訊傳播設備,http://www.digifocus.com.tw/,７２０４ＨＧＨＩ－ＳＨ７２０８ＨＧＨＩ－ＳＨ７２１６ＨＧＨＩ－ＳＨ８１１６ＨＧＨＩ－ＳＨ,,121.575882,25.058794
成榮軟管廠有限公司,63020820,04863000000615,臺北市萬華區西門里西寧南路一０二巷七之一號,臺北市萬華區西門里,高成榮,15162116,有限公司,0480116,0590101,生產中,22塑膠製品製造業、25金屬製品製造業、29機械設備製造業,220塑膠製品、259其他金屬製品、293通用機械設備,http://www.chengtech.com.tw,軟管、充填器、塑膠軟管及模型,,121.505455,25.0418949
尚通企業社,S6300013,,臺北市士林區社園里延平北路六段一一六巷十五弄三號,臺北市士林區社園里,何鄭秀精,77435989,獨資,,1090527,生產中,28電力設備及配備製造業,283電線及配線器材,,,,,
旭峰印刷有限公司,63020416,06063000065243,臺北市中山區新喜里民族東路二一八號一樓,臺北市中山區新喜里,陳柏廷,11250356,有限公司,0600518,0600615,生產中,16印刷及資料儲存媒體複製業,160印刷及資料儲存媒體複製,,印刷,,121.5314,25.0681229
富琳印刷有限公司,63021210,,臺北市萬華區武成街三十五巷十六弄十七號,臺北市萬華區,吳偉棋,15992470,有限公司,,0911206,生產中,16印刷及資料儲存媒體複製業,160印刷及資料儲存媒體複製,,印刷品,,121.49469,25.0182972
華宇精密有限公司,63022382,,臺北市南港區玉成里南港路三段六七巷二之四號一樓,臺北市南港區玉成里,許宇伸,24644158,有限公司,,1050202,生產中,29機械設備製造業,291金屬加工用機械設備,,專用機械設備製造,,121.58844,25.0525742
妮傲絲翠股份有限公司內湖廠,63022112,,臺北市內湖區湖元里行忠路五十八號三樓,臺北市內湖區湖元里,張裕彬,84473241,股份有限公司,,0980527,生產中,19其他化學製品製造業,194化粧品,,隔離防曬霜、潔顏慕斯、全護防曬乳霜、舒緩乳霜,,121.579529,25.0660744
六和興業有限公司,63022483,,臺北市內湖區湖元里舊宗路2段181巷10號3樓,臺北市內湖區湖元里,張軒慈,22606919,有限公司,,1080829,生產中,27電腦、電子產品及光學製品製造業、29機械設備製造業,275量測、導航、控制設備及鐘錶、293通用機械設備,,量測、導航、控制設備及鐘錶，通用機械設備,,121.574982,25.07165
功得電子工業股份有限公司,63020073,07663000013064,臺北市北投區一德里立德路一二０巷十五號一至四樓,臺北市北投區一德里,邱鴻智,31291411,股份有限公司,0760805,0771201,生產中,26電子零組件製造業、28電力設備及配備製造業,269其他電子零組件、262被動電子元件、281發電、輸電及配電機械,http://www.conquer.com.tw,保險絲管、保險絲座,,121.472542,25.1267452
宥益興業有限公司,63021040,08963000027839,臺北市南港區中南里市民大道八段五八八巷二十五號,臺北市南港區中南里,陳溪川,70564473,有限公司,0891117,0900207,生產中,29機械設備製造業,293通用機械設備,,縫衣機軸心、皮帶輪,鋁材、鋼材,121.614212,25.0536346
川勝企業有限公司,63022191,,臺北市內湖區石潭里安康路三十二巷二十一弄六號一樓,臺北市內湖區石潭里,張家瑋,20886225,有限公司,,1000429,生產中,25金屬製品製造業,259其他金屬製品,,五金零件製品,,121.595322,25.0618324
中華計量器工廠,63022093,,臺北市北投區一德里立德路一二０巷二十號,臺北市北投區一德里,何寬亮,29542102,獨資,,0980117,生產中,27電腦、電子產品及光學製品製造業,277光學儀器及設備,,攝影三角架,,121.472794,25.1264782
首美達實業股份有限公司,63022227,,臺北市內湖區湖元里民權東路六段十五巷十六號四樓之三,臺北市內湖區湖元里,李萬得,97292799,股份有限公司,,1010220,生產中,27電腦、電子產品及光學製品製造業,276輻射及電子醫學設備,,,,,
德律科技股份有限公司磺溪三廠,63021862,,臺北市士林區蘭興里磺溪街三十六號、三十六之一號一樓,臺北市士林區蘭興里,陳玠源,23292535,股份有限公司,,0930415,生產中,27電腦、電子產品及光學製品製造業,275量測、導航、控制設備及鐘錶,,半導體檢測設備、全功能電路板自動測試機線上組裝電路板自動測試,,121.523148,25.1065826
糖話國際股份有限公司保健糖果廠,63022508,,臺北市中山區集英里中山北路三段二十二之一號五樓(新設工大樓),臺北市中山區集英里,蔡明傑,42627482,股份有限公司,,1090406,生產中,08食品製造業,089其他食品,,,,,
凱市有限公司,63022140,,臺北市內湖區週美里南京東路六段三三０巷十八弄六號一樓,臺北市內湖區週美里,陳良蕙,25106640,有限公司,,0990324,生產中,16印刷及資料儲存媒體複製業,160印刷及資料儲存媒體複製,,印刷,,121.584328,25.05772
聖捷達國際股份有限公司,63022432,,臺北市內湖區湖元里民權東路六段十三之二十一號四樓,臺北市內湖區湖元里,童文薰,42647369,股份有限公司,,1061101,生產中,33其他製造業、11紡織業,332醫療器材及用品、115紡織品,,暖墊、發熱纖維布,,121.579994,25.0674477
三茂電機工業有限公司,63021857,,臺北市北投區一德里立功街一五一號三樓,臺北市北投區一德里,黃茂雄,31259427,有限公司,,0930329,生產中,28電力設備及配備製造業,283電線及配線器材,,電力機械器材、音響零配件,,121.473,25.1254463
主向位科技股份有限公司,63021876,,臺北市內湖區港墘里洲子街六十、六十二號八樓,臺北市內湖區港墘里,張靖駭,84297462,股份有限公司,,0930723,生產中,27電腦、電子產品及光學製品製造業、26電子零組件製造業,275量測、導航、控制設備及鐘錶、272通訊傳播設備、269其他電子零組件,http://ctcu.com,電腦網路傳輸通信設備,ＩＣ、ＰＣ板、ＣＡＢＬＥ、ＴＲＡＮＳＣＥＩＶＥＲ,121.572495,25.0793
鍵諻企業有限公司,63021478,07963000018466,臺北市南港區合成里忠孝東路六段二六九巷三弄八號一樓,臺北市南港區合成里,陳志銘,23617061,有限公司,0790320,0790327,生產中,31其他運輸工具及其零件製造業,319未分類其他運輸工具及其零件,,手推車,,121.589844,25.050293
任意門國際股份有限公司,63022383,,臺北市內湖區週美里新明路一七四巷十六號,臺北市內湖區週美里,洪容中,53551827,股份有限公司,,1050205,生產中,08食品製造業,089其他食品,http://www.dayehcare.com.tw/,月子料理,,121.585083,25.05808
智彬電機有限公司內湖廠,63022161,,臺北市內湖區內湖路一段九十一巷二十四弄二號,臺北市內湖區西康里,何麗雪,04824499,有限公司,,0990913,生產中,25金屬製品製造業、28電力設備及配備製造業,259其他金屬製品、281發電、輸電及配電機械,http://www.cp-panel.com.tw,高低壓配電盤、控制箱、拉線箱、電錶箱等,,121.5622,25.0850983
建騰創達科技股份有限公司,63022173,,臺北市內湖區西康里堤頂大道二段四０七巷二十二號六樓之ㄧ、二０弄一號六樓,臺北市內湖區西康里,朱伯倫,80503736,股份有限公司,,0991201,生產中,27電腦、電子產品及光學製品製造業,273視聽電子產品,,網路攝影機,,121.563446,25.0810966
旭光紙器工業有限公司,63020970,06263000001557,臺北市中正區廈安里汀州路一段五十號一樓,臺北市中正區廈安里,張黃玉麗,15117226,有限公司,0620320,0620423,生產中,15紙漿、紙及紙製品製造業,152瓦楞紙板及紙容器,,紙盒紙箱,,121.505966,25.0320911
金鹿服裝工業股份有限公司,63020262,07163000066118,臺北市士林區社園里永平街二十四號一樓,臺北市士林區社園里,呂修平,31213289,股份有限公司,0711123,0711220,生產中,12成衣及服飾品製造業,121成衣,,睡衣成衣,,121.505219,25.0901489
台達電子工業股份有限公司內湖廠,63021561,08663000021935,臺北市內湖區港墘里瑞光路一八六號一樓、一八六之一號﹝一樓辦公室、二樓會議室及員工閱覽室、三至九樓工廠﹞,臺北市內湖區港墘里,海英俊,34051920,股份有限公司,0860201,0880614,生產中,26電子零組件製造業、27電腦、電子產品及光學製品製造業,269其他電子零組件、271電腦及其週邊設備,http://www.deltaww.com,電源供應器,,121.578079,25.074173
台灣歐恩比有限公司,63022068,,臺北市內湖區湖元里民權東路六段二十三號四樓,臺北市內湖區湖元里,周舒傑,28002161,有限公司,,0970717,生產中,33其他製造業,332醫療器材及用品,,背架、義肢、及調整鞋墊,,121.582764,25.0685787
平晟工程事業有限公司,63020560,08863000025619,臺北市內湖區西康里內湖路一段九十一巷三十八弄十一號一樓,臺北市內湖區西康里,蘇淑燕,16284382,有限公司,0880621,0880630,生產中,25金屬製品製造業,252金屬結構及建築組件、259其他金屬製品,,不銹鋼門、窗、花臺,,121.563049,25.0855026
利得鞋業股份有限公司,63020156,06563000002494,臺北市內湖區石潭里新明路一四三巷八號,臺北市內湖區石潭里,張健治,20560450,股份有限公司,0650121,0660518,生產中,13皮革、毛皮及其製品製造業,130皮革、毛皮及其製品,,各種男女塑膠鞋布鞋皮製鞋皮製靴紡織品製鞋,,121.589752,25.0588417
寸乙服裝企業有限公司,63021039,07163000067590,臺北市北投區文林里致遠一路一段一二五巷十一號一樓,臺北市北投區文林里,朱仁湖,01806721,有限公司,0711202,0711210,生產中,12成衣及服飾品製造業,121成衣,,針織成衣,,121.51445,25.1098022
晟強實業有限公司,63021701,07663000011792,臺北市萬華區糖廍里大理街一一二號二樓,臺北市萬華區糖廍里,謝鳳珠,22044930,有限公司,0760430,0760515,生產中,13皮革、毛皮及其製品製造業,130皮革、毛皮及其製品,,皮衣,,121.497719,25.0341854
服星企業有限公司延平廠,63021305,07863000018128,臺北市大同區老師里延平北路四段一五七之四號,臺北市大同區老師里,朱新南,86161784,股份有限公司,0780610,0780703,生產中,12成衣及服飾品製造業,121成衣,,成衣（機關團體制服，西裝）,,121.511375,25.0730839
百倫電子有限公司,63021268,08063000018891,臺北市南港區三重里重陽路四三三號三樓,臺北市南港區三重里,王萬淦,04832478,有限公司,0800128,0800209,生產中,26電子零組件製造業,262被動電子元件,,各型變壓器,,121.609421,25.0591049
冠勝彩色照相製版印刷股份有限公司,63021569,08263000020522,臺北市萬華區糖廍里大理街一五七號三樓之四,臺北市萬華區糖廍里,黃寶麒,15897052,股份有限公司,0821228,0830112,生產中,16印刷及資料儲存媒體複製業,160印刷及資料儲存媒體複製,,,,,
民賢鋼鐵五金有限公司,63021279,08163000020130,臺北市南港區玉成里南港路三段一三０巷五弄十七號一樓,臺北市南港區玉成里,魏子賢,86034654,有限公司,0810908,0811216,生產中,24基本金屬製造業,241鋼鐵,,鐵管彎曲焊接加工,,121.587105,25.0539074
總鋮儀器股份有限公司,63022404,,臺北市內湖區蘆洲里潭美街五八八號二樓,臺北市內湖區蘆洲里,李啟銘,45917392,股份有限公司,,1051130,生產中,27電腦、電子產品及光學製品製造業、29機械設備製造業,275量測、導航、控制設備及鐘錶、276輻射及電子醫學設備、293通用機械設備,,醫療儀器、控制開關、手術電刀、心電圖,,121.5994,25.0605469
笙特科技股份有限公司,63022329,,臺北市北投區一德里立德路一二０巷十六弄一、三號三樓,臺北市北投區一德里,阮天助,24566527,股份有限公司,,1030929,生產中,33其他製造業,332醫療器材及用品,http://www.sangtech.com.tw,醫療器材及用品,,121.472687,25.1263657
艾訊股份有限公司北投廠,63021982,,臺北市北投區八仙里公舘路四三二號二樓,臺北市北投區八仙里,楊裕德,23718011,股份有限公司,,0950427,生產中,26電子零組件製造業,269其他電子零組件,http://axiomtek.com.tw,介面卡＆主機板,,121.501938,25.12042
台聯電訊股份有限公司瑞光廠,63022285,,臺北市內湖區湖元里瑞光路一一０號三樓,臺北市內湖區湖元里,梁基岩,23882531,股份有限公司,,1020607,生產中,27電腦、電子產品及光學製品製造業,272通訊傳播設備,http://www.tainet.net,其它有線通信設備、數據機,,121.580818,25.07197
博錸生技股份有限公司,63022164,,臺北市內湖區湖元里陽光街三五一號六樓之ㄧ、之二,臺北市內湖區湖元里,曹汀,24489199,股份有限公司,,0991012,生產中,20藥品及醫用化學製品製造業,200藥品及醫用化學製品,http://www.plexbio.com,體外檢測試劑,磁珠、緩衝液、寡去氧核醣核酸、酵素及ＳＴＲＥＰＡＴＡＶＩＤＩＮＲＰＥＣＯＮＪＵＧＡＴＥ,121.577408,25.0730114
萬益機械有限公司,63020125,08763000023910,臺北市南港區東新里重陽路一九０巷六弄十四號,臺北市南港區東新里,李文明,16286255,有限公司,0870326,0870427,生產中,29機械設備製造業,293通用機械設備,,葉軸、葉輪、軸心,,121.601974,25.0570488
活力水實業有限公司,63022384,,臺北市南港區重陽里重陽路二六三巷一號,臺北市南港區重陽里,林貞妤,54361917,有限公司,,1050205,生產中,09飲料製造業,092非酒精飲料,,礦泉水,,121.603378,25.0579548
精雅瓶蓋廠,63021794,05663000001659,臺北市萬華區菜園里雅江街四十二號,臺北市萬華區菜園里,林振鋒,15452017,獨資,0560626,0590101,生產中,25金屬製品製造業,259其他金屬製品,,各種瓶蓋,,121.501488,25.0415173
旭典科技股份有限公司,63022335,,臺北市南港區玉成里南港路三段一四三號,臺北市南港區玉成里,陳信勳,53124260,股份有限公司,,1031030,生產中,27電腦、電子產品及光學製品製造業,275量測、導航、控制設備及鐘錶,http://lucernic.com,量測、導航、控制設備及鐘錶,,121.584915,25.0523872
台灣安麗莎醫療器材科技股份有限公司,63022428,,臺北市南港區東新里重陽路二一八之二號,臺北市南港區東新里,連炎,54365575,股份有限公司,,1060926,生產中,27電腦、電子產品及光學製品製造業,276輻射及電子醫學設備,http://www.aulisa.com,脈搏血氧儀,,121.603378,25.0572834
和美印書舘股份有限公司,63020809,07263000009038,臺北市大同區雙連里歸綏街一六七號一樓,臺北市大同區雙連里,張敏聰,07220900,股份有限公司,0721015,0721121,生產中,16印刷及資料儲存媒體複製業,160印刷及資料儲存媒體複製,,各種印刷品,,121.514046,25.0582161
亞尼克菓子工房股份有限公司內湖二廠,63022389,,臺北市內湖區湖元里瑞湖街一七八巷十五號五樓,臺北市內湖區湖元里,吳宗恩,80618239,股份有限公司,,1050519,生產中,08食品製造業,089其他食品,,蛋糕、西點、餅乾,,121.5758,25.0707912
易舜企業有限公司,63022399,,臺北市南港區合成里忠孝東路六段一八五巷一弄六號,臺北市南港區合成里,曹裕隆,70397953,有限公司,,1050913,生產中,26電子零組件製造業,269其他電子零組件,,螺絲,,121.586914,25.049387
鴻泰企業社,63022380,,臺北市內湖區蘆洲里安康路二二八巷一號,臺北市內湖區蘆洲里,王宥涵,48999447,獨資,,1041229,生產中,25金屬製品製造業,252金屬結構及建築組件,,鐵門、鐵窗,,121.603127,25.0634727
優盛醫學科技股份有限公司內湖二廠,63022124,,臺北市內湖區港墘里港墘路一八九號二樓,臺北市內湖區港墘里,劉志平,23123644,股份有限公司,,0981021,生產中,27電腦、電子產品及光學製品製造業,276輻射及電子醫學設備,,血壓計製造及銷售,,121.574776,25.075779
鷹視有限公司士林廠,63021842,,臺北市士林區前港里承德路四段一五０號七樓,臺北市士林區前港里,黃美麗,23890693,有限公司,,0921212,生產中,33其他製造業,332醫療器材及用品,,隱形眼鏡,,121.523117,25.08513
金鑽石瓦斯器材工廠,63020685,08063000019055,臺北市南港區三重里三重路七十九巷八弄十二號一樓,臺北市南港區三重里,張倉明,05430900,獨資,0800824,0800905,生產中,29機械設備製造業,293通用機械設備,,瓦斯調整器,,121.613266,25.0606937
佳順電子股份有限公司,63021042,07863000018271,臺北市內湖區葫洲里臺北市內湖區安康路一四五之一號一至四樓,臺北市內湖區葫洲里,郭美玲,20752083,股份有限公司,0781012,0810320,生產中,26電子零組件製造業、28電力設備及配備製造業,262被動電子元件、283電線及配線器材,https://tw.cse.com.tw/,端子線、電線插頭、電線插座,,121.601067,25.0632076
輝裕實業股份有限公司,63021318,08363000020680,臺北市內湖區西康里內湖路一段九十一巷二十六號一樓,臺北市內湖區西康里,周重義,14058039,股份有限公司,0830831,0831003,生產中,27電腦、電子產品及光學製品製造業,275量測、導航、控制設備及鐘錶,,感溫棒,,121.561958,25.0852718
東錩金屬股份有限公司,63021699,08463000020992,臺北市內湖區葫洲里臺北市內湖區安康路一五四號一樓,臺北市內湖區葫洲里,吳洪愛珠,05006658,股份有限公司,0841220,0850412,生產中,25金屬製品製造業,252金屬結構及建築組件,,不銹鋼門、窗,,121.600555,25.0629654
興霖實業股份有限公司,63020344,07663000013460,臺北市南港區忠孝東路七段五五一號二樓,臺北市南港區中南里,王興建,04822719,股份有限公司,0761116,0761204,生產中,13皮革、毛皮及其製品製造業,130皮革、毛皮及其製品,,,,,
越聖儀器廠股份有限公司,63021948,,臺北市士林區前港里後港街九十六號二樓,臺北市士林區前港里,劉國樑,20811718,股份有限公司,,0940927,生產中,27電腦、電子產品及光學製品製造業,276輻射及電子醫學設備,,醫療器材及設備,,121.5218,25.0862
正全義肢復健器材股份有限公司,63022397,,臺北市士林區前港里承德路四段一八六號十樓,臺北市士林區前港里,楊秀霞,84293249,股份有限公司,,1050824,生產中,33其他製造業,332醫療器材及用品,,義肢．背架,,121.522385,25.08705
永昌食品工業有限公司,63022485,,臺北市北投區八仙里中央南路二段一三三號(一樓),臺北市北投區八仙里,張文德,50880178,有限公司,,1080903,生產中,08食品製造業,081肉類加工,http://www.wtfood.com.tw,肉類加工,,121.500404,25.121006
藍天廚飾股份有限公司,63022473,,臺北市內湖區石潭里南京東路六段三四六號十一樓,臺北市內湖區石潭里,廖志榮,22721447,股份有限公司,,1080523,生產中,28電力設備及配備製造業,285家用電器、322金屬家具,http://www.bluesky-tw.com/tw/,油煙機、烘碗機、炊飯器、收納櫃、層板燈,,121.585114,25.0585175
欣香國際食品有限公司,S6300004,,臺北市文山區興隆路二段九十九號,臺北市文山區,柯文進,97459875,有限公司,,1090420,生產中,08食品製造業、08食品製造業,081肉類加工,,,,,
中央醫療器材股份有限公司,63020387,,臺北市內湖區瑞光路二九八號三樓,臺北市內湖區,林聖富,22343374,股份有限公司,,0901123,生產中,33其他製造業,332醫療器材及用品,https://www.centralmed.com.tw/,手動式骨科手術器械,,121.574593,25.07637
一之鄉股份有限公司北投廠,63020056,08263000020472,臺北市北投區八仙里北投路一段七號,臺北市北投區八仙里,許金龍,14004175,股份有限公司,0821004,0821102,生產中,08食品製造業,089其他食品,http://www.173cake.com/,蜂蜜蛋糕，水果蛋糕，三笠燒,,121.501869,25.1218758
今鴻復健傷殘器材有限公司南京廠,63022401,,臺北市內湖區石潭里南京東路六段三四八號十二樓之二,臺北市內湖區石潭里,王欽正,22334706,有限公司,,1050921,生產中,33其他製造業,332醫療器材及用品,,背架、支架、矯正器、矯正鞋,,121.585236,25.05855
諾維雅國際有限公司,63022414,,臺北市南港區西新里南港路三段八十巷二十八號地下一樓,臺北市南港區西新里,方艷華,86278877,有限公司,,1060328,生產中,12成衣及服飾品製造業,121成衣、123服飾品,,西裝、背心、襯衫、裙子、長褲,,121.590714,25.0549183
三通實業有限公司,63022089,,臺北市南港區忠孝東路六段二五九號,臺北市南港區,許鳳,96946080,有限公司,,0971223,生產中,28電力設備及配備製造業,284照明設備及配備,,燈具。燈管,安定器,121.589371,25.0496845
新醫科技股份有限公司,63022234,,臺北市北投區八仙里中央南路二段三十二號三樓,臺北市北投區八仙里,都暎昊,13112160,股份有限公司,,1010330,生產中,27電腦、電子產品及光學製品製造業,276輻射及電子醫學設備,,輻射及電子醫學設備,,121.5002,25.1252956
凱明有限公司,63022334,,臺北市北投區一德里立功街一五三號,臺北市北投區一德里,鍾福中,27670657,有限公司,,1031027,生產中,26電子零組件製造業、28電力設備及配備製造業,269其他電子零組件、284照明設備及配備,http://kaiming-ace.com.tw,電子零組件加工，消費性產品加工,錫膏，錫條，錫絲，助焊劑，清洗劑,121.473145,25.1254654
列特博生技股份有限公司,63022480,,臺北市士林區前港里承德路四段一五０號三樓之一及地下一樓,臺北市士林區前港里,戴極昇,82901149,股份有限公司,,1080724,生產中,27電腦、電子產品及光學製品製造業、20藥品及醫用化學製品製造業、33其他製造業,276輻射及電子醫學設備、277光學儀器及設備、200藥品及醫用化學製品、332醫療器材及用品,http://labturbo.com.tw,輻射及電子醫學設備，光學儀器及設備,機器手臂，馬達，板金，ＬＥＤ燈，濾鏡，感光器,121.523117,25.08513
以旺企業有限公司,63022376,,臺北市南港區西新里南港路三段四十八號五樓,臺北市南港區西新里,馮湘風,09441730,有限公司,,1041012,生產中,11紡織業、12成衣及服飾品製造業,115紡織品、121成衣,http://www.yvonneco.com,床單、床罩、針織成衣,,121.591667,25.0545959
飛龍照明器具有限公司,63022331,,臺北市內湖區湖元里新湖二路一四八號三樓(僅使用第四層),臺北市內湖區湖元里,張清龍,16136833,有限公司,,1031007,生產中,28電力設備及配備製造業,284照明設備及配備,,照明設備,,121.579376,25.06279
勝利體育事業股份有限公司南港二廠,63022291,,臺北市南港區西新里南港路三段六十七巷一弄一號,臺北市南港區西新里,陳庶榮,04763198,股份有限公司,,1020802,生產中,33其他製造業,331育樂用品,http://www.victorsport.com.tw/index.html,羽球拍,,121.588577,25.0526371
慶揚資訊股份有限公司,63022433,,臺北市內湖區西湖里內湖路一段三一八號十樓,臺北市內湖區西湖里,鄭萬成,13092925,股份有限公司,,1061109,生產中,27電腦、電子產品及光學製品製造業,271電腦及其週邊設備、272通訊傳播設備,,工業電腦,,121.5697,25.0817
華豐美術印刷廠,63021329,06463000044811,臺北市萬華區華江里長順街四十六巷四號一樓,臺北市萬華區華江里,黃鈺高,15369221,合夥,0640927,0641208,生產中,16印刷及資料儲存媒體複製業,160印刷及資料儲存媒體複製,,各種印刷品,,121.489227,25.0313263
益寧精密股份有限公司,63022330,,臺北市南港區玉成里八德路四段七六八巷一弄十八號地下樓,臺北市南港區玉成里,李青茂,84309755,股份有限公司,,1030929,生產中,25金屬製品製造業、27電腦、電子產品及光學製品製造業、29機械設備製造業,251金屬刀具、手工具及模具、275量測、導航、控制設備及鐘錶、292其他專用機械設備,,金屬手工具及模具，量測、導航、控制設備及鐘錶，其他專用機械設備,,121.581329,25.0501385
東城汽車材料有限公司,63022393,,臺北市內湖區週美里南京東路六段三二０號,臺北市內湖區週美里,徐美英,80666148,有限公司,,1050622,生產中,30汽車及其零件製造業、30汽車及其零件製造業,303汽車零件,,汽車零件製造業,,121.584167,25.0580044
萬泉機械有限公司,63021359,05563000001456,臺北市大同區保安里哈密街二十三巷二十八號一樓,臺北市大同區保安里,江新財,04325655,有限公司,0551011,0590711,生產中,29機械設備製造業,292其他專用機械設備,,紡織零件,,121.517776,25.07446
達特普雷生技股份有限公司,63022276,,臺北市內湖區石潭里新明路一四三巷八號,臺北市內湖區石潭里,何德智,53943681,股份有限公司,,1020204,生產中,20藥品及醫用化學製品製造業,200藥品及醫用化學製品,,微生物用培養基,,121.589752,25.0588417
昇廣工業股份有限公司,63020123,06863000065111,臺北市士林區通河西街二段二二五號一樓,臺北市士林區永倫里,張健隆,04336528,股份有限公司,0681201,0681228,生產中,25金屬製品製造業,259其他金屬製品,,銅接頭、鐵接頭,,121.5013,25.0936565
星奕企業有限公司,63022244,,臺北市南港區重陽里重陽路二六三巷三號,臺北市南港區重陽里,李佳祐,25144882,有限公司,,1010514,生產中,08食品製造業,089其他食品,,爆米花,,121.603256,25.0581474
宅不漏實業有限公司,63022408,,臺北市南港區西新里南港路三段六十一號二樓,臺北市南港區西新里,李桂淼,52415515,有限公司,,1060207,生產中,19其他化學製品製造業,199未分類其他化學製品,,防水劑,,121.588585,25.052969
明基口腔醫材股份有限公司,63022333,,臺北市內湖區港墘里洲子街五十二號七樓,臺北市內湖區港墘里,管新寶,54648602,股份有限公司,,1031023,生產中,33其他製造業,332醫療器材及用品,,醫療器材及用品,,121.573135,25.0791
國安鋼鐵有限公司,S6300009,,臺北市士林區葫蘆里延平北路五段二五七巷十五弄一號、三號及三號旁建物(倉庫),臺北市士林區葫蘆里,郭子豪,31084790,有限公司,,1090518,生產中,25金屬製品製造業,254金屬加工處理,,,,,
元鼎金屬股份有限公司內湖廠,63022058,09663000333412,臺北市內湖區石潭里安康路六十五號,臺北市內湖區石潭里,侯義東,27765773,股份有限公司,0970418,0970418,生產中,25金屬製品製造業,254金屬加工處理,,廢銅,,121.596489,25.06277
雅山咖啡有限公司,63021925,,臺北市內湖區葫洲里臺北市內湖區安康路二二八巷二十一弄三十六號,臺北市內湖區葫洲里,溫興源,79970233,有限公司,,0940401,生產中,08食品製造業,089其他食品,,其他食品（咖啡粉、咖啡豆）,,121.602135,25.0615959
世平興業股份有限公司,63020976,07963000018622,臺北市南港區西新里成功路一段七十四、七十六號八樓,臺北市南港區西新里,張蓉崗,05091774,股份有限公司,0790719,0791017,生產中,27電腦、電子產品及光學製品製造業、26電子零組件製造業,271電腦及其週邊設備、269其他電子零組件,,個人電腦、介面卡,,121.59243,25.0568981
雲雀國際股份有限公司,63021867,,臺北市南港區西新里松河街四一０號二樓,臺北市南港區西新里,楊喚豪,27766105,股份有限公司,,0930513,生產中,08食品製造業,089其他食品,,袋裝湯品,,121.589546,25.0554771
綿春纖維工業股份有限公司,63020617,08863000025709,臺北市內湖區港墘里內湖路一段三九二號十樓,臺北市內湖區港墘里,劉建春,22349877,股份有限公司,0880804,0880816,生產中,12成衣及服飾品製造業,121成衣,http://www.mds-intl.com,針織布,,121.572891,25.08064
榮彬食品有限公司,63021112,08963000026829,臺北市士林區福中里福港街一一０巷一弄二之一號,臺北市士林區福中里,劉蕙嬋,70453357,有限公司,0890626,0890715,生產中,08食品製造業,089其他食品,,即食餐盒,肉、牛肉、沙拉油、豆醬類、豆類、魚類、蔬菜,121.517632,25.0884819
力霸工業科技股份有限公司,63020168,06963000014313,臺北市士林區德行里福國路六號二樓,臺北市士林區德行里,陳士禮,31260108,有限公司,0690324,0690419,生產中,28電力設備及配備製造業,285家用電器,,飲水機、熱水爐、開水機裝配,,121.524513,25.102417
冠冕盒餐食品有限公司,63021888,,臺北市內湖區西康里內湖路一段九十一巷三十八弄五、七號一樓,臺北市內湖區西康里,黃崇正,80189309,有限公司,,0930913,生產中,08食品製造業,089其他食品,,即食餐食,,121.56295,25.08552
上準微流體股份有限公司,63022395,,臺北市內湖區湖元里行愛路七十七巷六十九號五樓、七十一號五樓,臺北市內湖區湖元里,張鴻仁,53523175,股份有限公司,,1050815,生產中,33其他製造業、27電腦、電子產品及光學製品製造業,332醫療器材及用品、276輻射及電子醫學設備,http://www.micareo.com,血液分析儀器、生物晶片,,121.58326,25.0637589
精英廣告有限公司二廠,63022446,,臺北市南港區東新里重陽路一六六巷五號二樓,臺北市南港區東新里,邱耀豪,42827221,有限公司,,1070717,生產中,11紡織業、16印刷及資料儲存媒體複製業,115紡織品、160印刷及資料儲存媒體複製,,大圖輸出,,121.601379,25.0568275
裕澤特殊工業股份有限公司,63021123,05763000000296,臺北市內湖區安康路一二五、一二七號,臺北市內湖區,陳水金,20673406,股份有限公司,0570503,0570629,生產中,24基本金屬製造業、25金屬製品製造業、31其他運輸工具及其零件製造業,241鋼鐵、254金屬加工處理、259其他金屬製品、319未分類其他運輸工具及其零件,,延性鑄鐵、強力鑄鐵、可鍛鑄鐵、自動車零件,廢鐵、矽鐵、加碳劑、球化劑,121.599579,25.0630665
協和精機廠,63021064,06063000075066,臺北市萬華區艋舺大道七十二號一樓,臺北市萬華區頂碩里,王秋慧,15181922,獨資,0601013,0610613,生產中,25金屬製品製造業、28電力設備及配備製造業、29機械設備製造業,259其他金屬製品、289其他電力設備及配備、293通用機械設備,,電器電錶零件、機械附屬零件、螺絲及馬達零件,,121.503471,25.033289
宏旻紙品有限公司,63021953,,臺北市內湖區葫洲里臺北市內湖區潭美街五四三號三樓,臺北市內湖區葫洲里,王智全,84758696,有限公司,,0941027,生產中,16印刷及資料儲存媒體複製業,160印刷及資料儲存媒體複製,,紙張批發及加工,,121.600716,25.06116
群升股份有限公司,63020413,08363000020631,臺北市內湖區內湖路一段九十一巷二十四弄五號一樓,臺北市內湖區,黃洪亮,05021406,股份有限公司,0830620,0830706,生產中,19其他化學製品製造業,199未分類其他化學製品,,樹脂接著劑、ＰＵ防水材,,121.562286,25.08489
禾瑞亞科技股份有限公司,63022144,,臺北市內湖區瑞光路三０二號八樓之ㄧ,臺北市內湖區,唐錦榮,80342958,股份有限公司,,0990503,生產中,26電子零組件製造業,264光電材料及元件,,晶片,,121.574257,25.0764771
勝奇印刷燙金有限公司,S6300019,,臺北市士林區富光里葫蘆街四十一號一樓,臺北市士林區富光里,楊玉珊,23046491,有限公司,,1090609,生產中,16印刷及資料儲存媒體複製業、16印刷及資料儲存媒體複製業,160印刷及資料儲存媒體複製,,,,,
承欣企業管理顧問有限公司,63022462,,臺北市內湖區週美里潭美街二二一號,臺北市內湖區週美里,李鴻鈞,27755281,有限公司,,1071129,生產中,08食品製造業,089其他食品,,肉粽．油飯．干貝菜脯,,121.585373,25.0561581
商之器科技股份有限公司,63021739,,臺北市內湖區港墘里臺北市內湖區內湖路一段五一六號五樓,臺北市內湖區港墘里,盤龍,22743619,股份有限公司,,0920313,生產中,27電腦、電子產品及光學製品製造業,276輻射及電子醫學設備,http://www.ebmtech.com/,醫療院所影像儲傳系統,,121.573944,25.08032
允信工業有限公司,63020325,06663000011312,臺北市士林區永倫里延平北路六段四七二號,臺北市士林區永倫里,李重信,31235283,有限公司,0660311,0670428,生產中,25金屬製品製造業、29機械設備製造業、24基本金屬製造業,252金屬結構及建築組件、291金屬加工用機械設備、241鋼鐵,http://www.yunsing.com.tw,鋼門、鋼窗、特殊型鋼冷軋成型機器,鐵板、鋼料,121.498573,25.0934315
珅記科技有限公司,63020106,08563000021009,臺北市士林區延平北路六段四八０之四號三樓,臺北市士林區,蔡水豐,84907106,有限公司,0850124,0850202,生產中,26電子零組件製造業、28電力設備及配備製造業,269其他電子零組件、283電線及配線器材,,電腦連接線,,121.498367,25.0936947
活泉印刷股份有限公司,63020227,07663000013192,臺北市士林區延平北路六段四八０之四號一樓,臺北市士林區社新里,關麗湄,31238079,股份有限公司,0760909,0781115,生產中,16印刷及資料儲存媒體複製業,160印刷及資料儲存媒體複製,,印刷品,,121.498367,25.0936947
台灣瓶蓋廠股份有限公司,63021692,06463000028330,臺北市北投區一德里立德路一二一巷十五號,臺北市北投區一德里,潘旭騰,29785000,股份有限公司,0611018,0640120,生產中,25金屬製品製造業、21橡膠製品製造業、22塑膠製品製造業,259其他金屬製品、210橡膠製品、220塑膠製品,,王冠蓋、馬口鐵蓋、橡膠蓋,,121.470512,25.128624
健美實業有限公司,63020750,05863000055140,臺北市大同區國慶里重慶北路三段一三六巷十四、十六號一樓,臺北市大同區國慶里,張瑞盛,07348239,有限公司,0580716,0600813,生產中,12成衣及服飾品製造業,121成衣,,襯衫學生制服男女游泳衣針織品,,121.513,25.0676689
尚寧生物科技股份有限公司,63022506,,臺北市內湖區湖元里新湖二路一八０號三樓,臺北市內湖區湖元里,林興瑞,82809044,股份有限公司,,1090323,生產中,20藥品及醫用化學製品製造業,200藥品及醫用化學製品,,,,,
湳開股份有限公司,63020185,08163000020212,臺北市內湖區石潭里南京東路六段三四八號四樓,臺北市內湖區石潭里,楊若白,11880755,股份有限公司,0811223,0820115,生產中,27電腦、電子產品及光學製品製造業,276輻射及電子醫學設備,,Ｘ光片洗片機裝配,,121.585236,25.0585575
三方機械工業股份有限公司,63020486,06863000060694,臺北市士林區重慶北路四段四九巷四六號一樓,臺北市士林區福順里,黃三益,31125526,股份有限公司,0681107,0681107,生產中,29機械設備製造業,292其他專用機械設備,,攪拌機、容槽、防水閘門、自動化物流設備、工業用爐,,121.511368,25.0809135
一品光學工業股份有限公司北投二廠,63021225,,臺北市北投區八仙里大業路一六六號二樓,臺北市北投區八仙里,曾明仁,35977856,股份有限公司,,0911225,生產中,27電腦、電子產品及光學製品製造業,277光學儀器及設備,,光學塑膠鏡片、光學玻璃鏡片,,121.499077,25.1252861
毅進鐵工廠有限公司,63021322,06563000038820,臺北市士林區永倫里倫等街三十九巷一號一樓,臺北市士林區永倫里,陳玠蓉,31257552,有限公司,0650823,0650907,生產中,25金屬製品製造業,252金屬結構及建築組件,,金屬製品、突緣活門，法蘭,鐵板,121.501167,25.09226
晉強橡塑膠廠股份有限公司,63020270,05763000000295,臺北市內湖區蘆洲里安康路一二一、一二三號,臺北市內湖區蘆洲里,施育琦,24101008,股份有限公司,0570504,0570704,生產中,21橡膠製品製造業、22塑膠製品製造業,210橡膠製品、220塑膠製品,,工程用橡膠,,121.599388,25.0630684
欣亞電機科技有限公司,63021474,08963000027213,臺北市南港區合成里臺北市南港區忠孝東路六段一八五巷三弄四號,臺北市南港區合成里,李玟葶,70557418,有限公司,0890810,0890915,生產中,28電力設備及配備製造業,289其他電力設備及配備,,充電器、電源供應器,,121.586906,25.0496826
雪蘿菲股份有限公司信義廠,63022402,,臺北市信義區黎忠里和平東路三段四四一號,臺北市信義區黎忠里,鄧民華,80264221,股份有限公司,,1051005,生產中,12成衣及服飾品製造業,121成衣,,塑身內衣,布、鋼條、鋼圈、塑身套等,121.558449,25.0190544
友俊國際股份有限公司,63021542,08863000025584,臺北市內湖區瑞光路二五八巷五十六號四樓之一,臺北市內湖區港墘里,於有慶,22340658,股份有限公司,0880607,0880628,生產中,33其他製造業,339未分類其他製品,http://WWW.EUGENE-ELEC.COM.TW,工業膠帶及加工成型,,121.574524,25.0743256
虹靂企業有限公司,63020194,08263000020483,臺北市南港區合成里忠孝東路六段八十一巷二十二號一樓,臺北市南港區合成里,洪淑惠,22614191,有限公司,0821026,0821109,生產中,27電腦、電子產品及光學製品製造業,275量測、導航、控制設備及鐘錶,,溫度控制用探測棒,,121.583824,25.0479031
建成銲條股份有限公司,63020021,05463000000294,臺北市內湖區石潭里南京東路六段四八二號,臺北市內湖區石潭里,陳芳鵬,03628006,有限公司,0540908,0550119,生產中,25金屬製品製造業,259其他金屬製品,,電焊條,,121.588921,25.0603943
生發號農產有限公司,63022170,,臺北市北投區一德里立德路一二０巷十八、二十號四樓,臺北市北投區一德里,林陳進,27746925,有限公司,,0991112,生產中,08食品製造業,089其他食品,,蛋製品加工,,121.472794,25.1264782
華俐醫療科技有限公司,63022513,,臺北市士林區前港里後港街一八一巷九號,臺北市士林區前港里,張永明,12477325,有限公司,,1090421,生產中,33其他製造業,332醫療器材及用品,,,,,
旭儀科技有限公司,63020266,08963000026280,臺北市內湖區瑞光路二十六巷二十弄二十五號五樓,臺北市內湖區,林勝豐,22859287,有限公司,0890127,0890503,生產中,27電腦、電子產品及光學製品製造業,272通訊傳播設備、273視聽電子產品,,微電腦緊急廣播主機,,121.582016,25.0698032
京華堂實業股份有限公司內湖廠,63020517,08763000024913,臺北市內湖區港墘里瑞光路二五八巷五十二號一樓,臺北市內湖區港墘里,唐上文,84478111,股份有限公司,0871215,0881214,生產中,08食品製造業,089其他食品,http://www.gnt.com.tw,奈米食用金箔,黃金、瓶支、瓶塞、盒,121.574776,25.0745373
雲雀國際股份有限公司一廠,63022264,,臺北市南港區西新里松河街四一０號一樓,臺北市南港區西新里,田中基,27766105,股份有限公司,,1010914,生產中,08食品製造業,081肉類加工,,湯品醬料,,121.589546,25.0554771
都城實業股份有限公司,63022450,,臺北市內湖區西康里內湖路一段九十一巷二十三弄三號,臺北市內湖區西康里,韓家宇,23309091,股份有限公司,,1070824,生產中,08食品製造業,089其他食品,,麵包／餅乾／蛋糕,,121.5623,25.08645
達威光電股份有限公司南港廠,63022496,,臺北市南港區西新里南港路三段四十七巷二號三樓,臺北市南港區西新里,陳政隆,23746488,股份有限公司,,1081210,生產中,26電子零組件製造業,264光電材料及元件,,光電材料及元件,,121.590309,25.0527287
日中有限公司,63020466,07463000009817,臺北市南港區西新里向陽路一九九巷八號一樓,臺北市南港區西新里,林政廷,04832934,有限公司,0740125,0740213,生產中,29機械設備製造業,293通用機械設備,,氣動工具、黃油槍,,121.592957,25.0569077
吉昌衡器股份有限公司,63020716,07863000017917,臺北市南港區中南里市民大道八段五二八號〈一樓工廠、二樓倉庫、辦公室〉,臺北市南港區中南里,亓健源,04783758,股份有限公司,0780119,0781124,生產中,29機械設備製造業,293通用機械設備,,地磅、臺秤、自動指示秤、電子秤,感應器、線路板、顯示器外箱、鋼板,121.61319,25.0538578
珺秝股份有限公司,63020376,08063000019282,臺北市南港區松河街三八六號七樓,臺北市南港區,謝宥莉,20952505,股份有限公司,0800913,0801102,生產中,26電子零組件製造業,269其他電子零組件,,振動子,,121.588196,25.0546074
林華泰茶行有限公司,63021758,04363000001062,臺北市大同區民權里重慶北路二段一九三號一樓,臺北市大同區民權里,林秀峯,07241026,有限公司,0430721,0590415,生產中,08食品製造業,089其他食品,,精製茶葉,茶葉,121.51339,25.06256
立詮有限公司,63021307,07463000010151,臺北市南港區三重里重陽路四二三巷一弄十一號一樓,臺北市南港區三重里,郭文龍,05430937,有限公司,0740830,0741030,生產中,21橡膠製品製造業,210橡膠製品,,汔車橡膠墊、機車橡膠墊、電子墊,,121.60939,25.05949
久春工業有限公司,63020233,07963000018424,臺北市南港區西新里南港路三段五十巷六、八號四樓,臺北市南港區西新里,林冠群,20731601,有限公司,0790221,0790413,生產中,27電腦、電子產品及光學製品製造業、26電子零組件製造業、28電力設備及配備製造業,272通訊傳播設備、264光電材料及元件、285家用電器、289其他電力設備及配備,http://www.fspring.com.tw,中英文字幕機,,121.5911,25.0552254
誠展有限公司,63022354,,臺北市士林區永倫里延平北路六段四六四巷十一號一樓,臺北市士林區永倫里,林李美媥,84294465,有限公司,,1040224,生產中,25金屬製品製造業,251金屬刀具、手工具及模具、259其他金屬製品,,滑軌、金屬零件,鐵片,121.499977,25.0931511
共好食品股份有限公司,63022407,,臺北市內湖區湖元里瑞光路二十六巷三十六弄二號二樓,臺北市內湖區湖元里,葉維中,43944866,股份有限公司,,1051227,生產中,08食品製造業,089其他食品,,,,,
三邑企業社,63022447,,臺北市內湖區蘆洲里安康路一四六號,臺北市內湖區蘆洲里,柯孟宏,38510897,獨資,,1070727,生產中,25金屬製品製造業,259其他金屬製品,,五金零件,,121.600372,25.06297
全太有限公司,63021366,08163000020108,臺北市內湖區西康里臺北市內湖區內湖路一段九十一巷十二弄七號二樓,臺北市內湖區西康里,潘富正,86736000,有限公司,0810818,0810831,生產中,30汽車及其零件製造業,303汽車零件,,汽車前輪傳動軸（加工）,,121.56205,25.08464
中國時報文化事業股份有限公司內湖廠,63020031,08163000020198,臺北市內湖區民權東路六段二十五號,臺北市內湖區,陳春貴,03798509,股份有限公司,0811127,0850926,生產中,16印刷及資料儲存媒體複製業,160印刷及資料儲存媒體複製,,報紙,,121.583138,25.068697
汐紫股份有限公司內湖廠,63021588,08763000024330,臺北市內湖區內湖路一段三六０巷十五號八樓之四,臺北市內湖區,尤士猛,86617320,股份有限公司,0870820,0870921,生產中,22塑膠製品製造業,220塑膠製品,,,,,
唐碩科技股份有限公司,63022352,,臺北市內湖區瑞光里瑞光路一八八巷五十四號二樓,臺北市內湖區瑞光里,余曉錡,28209959,股份有限公司,,1040129,生產中,26電子零組件製造業、26電子零組件製造業,262被動電子元件,http://www.rdm.com.tw,超寬帶直流解耦器,,121.576477,25.07348
神能健康服務股份有限公司,63022509,,臺北市南港區重陽里重陽路二六三巷八號三樓,臺北市南港區重陽里,周同誠,55791273,股份有限公司,,1090406,生產中,08食品製造業、09飲料製造業,083蔬果加工、089其他食品、092非酒精飲料,,,,,
艾波比電網股份有限公司東湖廠,63022490,,臺北市內湖區蘆洲里安美街一八一號二樓,臺北市內湖區蘆洲里,溫文冠,82886772,股份有限公司,,1081031,生產中,28電力設備及配備製造業,289其他電力設備及配備,,其他電力設備及配備,,121.601189,25.06016
晶鈿精品股份有限公司,63022232,,臺北市南港區東明里南港路二段九十九之十七號一樓,臺北市南港區東明里,王問,53319997,股份有限公司,,1010326,生產中,13皮革、毛皮及其製品製造業,130皮革、毛皮及其製品,,皮包．皮夾,,121.597023,25.054018
百年食業股份有限公司,63022427,,臺北市內湖區石潭里新明路二一一號一樓,臺北市內湖區石潭里,呂玟瑩,42848154,股份有限公司,,1060914,生產中,08食品製造業,089其他食品,,,,,
偉塵科技工程股份有限公司,63022425,,臺北市內湖區石潭里潭美街三五三號,臺北市內湖區石潭里,許芝綾,13088008,股份有限公司,,1060822,生產中,28電力設備及配備製造業、29機械設備製造業,281發電、輸電及配電機械、293通用機械設備,,自動控制盤配製,,121.591255,25.0598049
定曜科技股份有限公司,63022445,,臺北市內湖區西湖里內湖路一段三０六號四樓之二,臺北市內湖區西湖里,王立謙,97302157,股份有限公司,,1070528,生產中,28電力設備及配備製造業,285家用電器,http://www.livtec.com.tw,瞬熱飲水機,,121.569176,25.0817413
嘉群印刷事業有限公司,63022360,,臺北市內湖區西康里內湖路一段九十一巷二十三弄四號,臺北市內湖區西康里,陳嘉銘,24784214,有限公司,,1040415,生產中,16印刷及資料儲存媒體複製業,160印刷及資料儲存媒體複製,,各種印刷品，雜誌，刊物，封面,,121.562271,25.0863419
肯信國際開發股份有限公司,63022339,,臺北市南港區玉成里八德路四段七六八巷一弄四號一樓、六號一樓,臺北市南港區玉成里,郭毓庭,45142877,股份有限公司,,1031208,生產中,08食品製造業,089其他食品,,,,,
衛生福利部疾病管制署,63020627,06363000070585,臺北市南港區西新里昆陽街一六一號,臺北市南港區西新里,周志浩,00970553,公營,0630527,0630619,生產中,20藥品及醫用化學製品製造業,200藥品及醫用化學製品,,１．抗百步蛇毒血清凍晶注射劑。２．抗龜殼花及赤尾鮐蛇毒血清凍晶注射劑。３．抗雨傘節及飯匙倩蛇毒血清凍晶注射劑。４．抗鎖鏈蛇毒血清凍晶注射劑,,121.594353,25.0491276
亨泰光學股份有限公司,63022042,,臺北市士林區前港里承德路四段一五０號六樓之一、一五二號六樓之一,臺北市士林區前港里,吳泰雄,04342697,股份有限公司,,0961112,生產中,33其他製造業,332醫療器材及用品,,透氣硬性隱形眼鏡,,121.523117,25.08513
鮑參翅食品有限公司,63022200,,臺北市士林區永倫里延平北路六段四五八號1、2樓,臺北市士林區永倫里,林麗芬,80287527,有限公司,,1000629,生產中,08食品製造業,089其他食品,,海鮮產品,,121.499229,25.09279
敏揚企業股份有限公司,63022092,,臺北市南港區玉成里臺北市南港區南港路三段九十九號五樓,臺北市南港區玉成里,游東穎,09451737,股份有限公司,,0980112,生產中,,,,工業用溫度計,,121.587585,25.0528412
信利昌紙業有限公司台北廠,63022409,,臺北市士林區永倫里通河西街二段二二六號,臺北市士林區永倫里,吳文得,12941702,有限公司,,1060214,生產中,15紙漿、紙及紙製品製造業,151紙漿、紙、紙板、159其他紙製品,http://xlc-paper.com/index.php,塗佈白紙板、灰紙板、白銅、白卡,塗佈白紙板、灰紙板、白銅、白卡,121.501205,25.09369
齊虹實業有限公司安康廠,63022403,,臺北市內湖區蘆洲里安康路二四八號二樓,臺北市內湖區蘆洲里,吳漫榛,16603978,有限公司,,1051012,生產中,12成衣及服飾品製造業,121成衣,,團體制服製造批發,,121.604179,25.0638218
拍拍企業股份有限公司內湖廠,63022180,,臺北市內湖區湖元里瑞光路一０八號五樓、一一０號五樓、一０六號五樓之ㄧ,臺北市內湖區湖元里,王傑,28697900,股份有限公司,,1000112,生產中,08食品製造業,089其他食品,http://www.ipie2.com/,蛋糕,,121.580849,25.0719528
堡麗華企業有限公司,63021673,06663000056523,臺北市士林區富光里延平北路五段八十三巷二十八弄一號一樓,臺北市士林區富光里,何澤融,31299928,有限公司,0661130,0670111,生產中,19其他化學製品製造業,194化粧品,,美髮液劑、乳劑、油劑、噴霧劑,,121.509491,25.0812645
寶磬企業有限公司,63021554,06463000031416,臺北市士林區永倫里臺北市士林區通河西街二段二三二之一號,臺北市士林區永倫里,蔡金福,31135778,有限公司,0640710,0660422,生產中,29機械設備製造業,291金屬加工用機械設備,,機械零件,,121.500519,25.09377
全域股份有限公司,63021063,,臺北市信義區新仁里臺北市信義區東興路五十九號九樓,臺北市信義區新仁里,王敏烈,04934334,股份有限公司,,0910701,生產中,27電腦、電子產品及光學製品製造業,273視聽電子產品,,視聽電子產品,,121.566719,25.0474777
萬宏不銹鋼有限公司,63020775,08463000020912,臺北市南港區玉成里南港路三段一三０巷五弄十五號,臺北市南港區玉成里,華哲甫,21259671,有限公司,0840728,0840808,生產中,25金屬製品製造業、32家具製造業,252金屬結構及建築組件、259其他金屬製品、322金屬家具,,不銹鋼門窗,不銹鋼、角鋼,121.58725,25.0539684
雅緹絲寢具有限公司,63022410,,臺北市北投區八仙里中央南路二段三十四巷八號,臺北市北投區八仙里,許雅萍,42647895,有限公司,,1060303,生產中,11紡織業、12成衣及服飾品製造業,115紡織品、121成衣,,,,,
銓信實業有限公司,63022246,,臺北市北投區一德里立功街七十九巷一號一樓,臺北市北投區一德里,周祖俊,86009634,有限公司,,1010518,生產中,27電腦、電子產品及光學製品製造業,272通訊傳播設備,http://www.faxcont.com,通訊傳播設備,,121.469276,25.1258335
光昶國際股份有限公司,63022516,,臺北市內湖區湖元里行忠路五十七號二樓,臺北市內湖區湖元里,曾憲政,23461644,股份有限公司,,1090605,生產中,27電腦、電子產品及光學製品製造業,275量測、導航、控制設備及鐘錶,,,,,
台芝科技股份有限公司,63020155,07763000010318,臺北市內湖區週美里新明路二四六巷三弄十八號、二十號、二十二號、二十四號、二十四號二至三樓(辦公室)、二十六號、二十八號,臺北市內湖區週美里,廖德北,05432858,股份有限公司,0770610,0770617,生產中,25金屬製品製造業,259其他金屬製品,http://www.tungaloy.com.tw,碳化鎢微鑽頭,碳化鎢鋼,121.584183,25.0573864
鏈豐鐵工廠有限公司,S6300023,,臺北市南港區中南里中南街一六六巷二弄十三號,臺北市南港區中南里,楊蘇綿,04780204,有限公司,,1090811,生產中,25金屬製品製造業,252金屬結構及建築組件,,,,,
皓宇企業股份有限公司,63022400,,臺北市南港區西新里南港路三段五十巷二號三樓,臺北市南港區西新里,侯俊仲,01188170,有限公司,,1050921,生產中,28電力設備及配備製造業,283電線及配線器材、284照明設備及配備,http://www.ritetech.com.tw/,插座．燈具組裝加工,,121.591385,25.0547276
高雄空廚股份有限公司松山廠,63022344,,臺北市松山區精忠里敦化北路四０五巷一二三弄九號一、二樓,臺北市松山區精忠里,張揚,70750455,股份有限公司,,1031231,生產中,08食品製造業,089其他食品,,其他食品,,121.556107,25.0629482
陸普科技股份有限公司,63022217,,臺北市內湖區湖元里行忠路五十七號四樓,臺北市內湖區湖元里,王琮淇,80567359,股份有限公司,,1000915,生產中,28電力設備及配備製造業,284照明設備及配備,,ＬＥＤ背光模組、晶圓,,121.577446,25.06555
全祥茶莊股份有限公司精製廠,63020733,05463000000998,臺北市大同區永樂里貴德街四十九號,臺北市大同區永樂里,林洋波,04262173,股份有限公司,0540410,0590101,生產中,08食品製造業,089其他食品、083蔬果加工,,精製包種茶、綠茶、精製烏龍茶、其他精製茶,,121.508369,25.0550575
小卿宅經濟有限公司,63022418,,臺北市內湖區蘆洲里安康路九十三巷四弄一號、三號,臺北市內湖區蘆洲里,洪瑞卿,25039468,有限公司,,1060508,生產中,08食品製造業,089其他食品,,肉品加工,,121.597176,25.0629673
美瑞婕生醫光電有限公司,63022391,,臺北市內湖區港墘里瑞光路一八八巷四十八號二樓,臺北市內湖區港墘里,林淑玲,42820331,有限公司,,1050616,生產中,33其他製造業,332醫療器材及用品,,紋眉機,,121.5767,25.0737114
龍泰西點麵包店二廠,S6300002,,臺北市中正區文祥里杭州南路一段一三九之四號,臺北市中正區文祥里,呂理烱,05062898,獨資,,1090409,生產中,08食品製造業,089其他食品,,,,,
福客食品有限公司,63020133,08863000025590,臺北市內湖區石潭里臺北市內湖區新明路一一六號四樓,臺北市內湖區石潭里,林國澧,16759084,有限公司,0880609,0880709,生產中,08食品製造業,089其他食品,,即食盒餐,,121.589096,25.0593758
台灣多耐福股份有限公司,63022345,,臺北市內湖區湖元里陽光街三四七號三樓,臺北市內湖區湖元里,陳德欽,24768431,股份有限公司,,1040109,生產中,33其他製造業,339未分類其他製品,,塑膠製品（含塑膠箱包製品）,,121.577713,25.07308
蒙恬實業股份有限公司,63022341,,臺北市內湖區湖興里成功路二段八號,臺北市內湖區湖興里,林澤顯,01406056,股份有限公司,,1031227,生產中,33其他製造業,331育樂用品,http://www.iwic.com,原子筆、鋼筆,,121.591293,25.0601788
晟宏資源回收有限公司,63022489,,臺北市南港區南港里興中路五十九號,臺北市南港區南港里,侯瑞龍,27516402,有限公司,,1081028,生產中,29機械設備製造業,293通用機械設備,,通用機械設備,,121.606682,25.0587978
傑信工業股份有限公司,63020357,07663000011462,臺北市內湖區週美里臺北市內湖區新明路二四六巷三弄二十七號一至五樓,臺北市內湖區週美里,洪啓文,04735807,股份有限公司,0760126,0771001,生產中,28電力設備及配備製造業,281發電、輸電及配電機械、283電線及配線器材,,變壓器、線圈,,121.584694,25.0574474
馥餘實業股份有限公司二廠,63022165,,臺北市內湖區五分里安康路四十八號,臺北市內湖區五分里,簡宜真,16852172,股份有限公司,,0991018,生產中,08食品製造業,089其他食品,http://www.barista.com.tw,烘焙咖啡豆及研磨咖啡粉,,121.5967,25.0618916
磐翔實業股份有限公司,63022413,,臺北市內湖區港墘里瑞光路二一二號四樓,臺北市內湖區港墘里,林偉人,86875847,股份有限公司,,1060328,生產中,28電力設備及配備製造業,284照明設備及配備,,商用照明燈具,,121.576271,25.0752487
上城糕餅小舖股份有限公司,63022420,,臺北市南港區重陽里重陽路二六三巷一號四樓,臺北市南港區重陽里,洪泉平,84743385,股份有限公司,,1060613,生產中,08食品製造業,089其他食品,http://uptown-tw.com,麵包、蛋糕、西點,,121.603378,25.0579376
全德冷凍廠股份有限公司,63020373,06463000034538,臺北市萬華區富福里艋舺大道九十一號,臺北市萬華區富福里,吳修勇,04570538,股份有限公司,0640725,0640807,生產中,33其他製造業,339未分類其他製品,,水果冷藏冰塊製造,,121.502609,25.0337963
金立有限公司,63020777,06163000021685,臺北市士林區社新里延平北路六段一九九巷五號一樓,臺北市士林區社新里,尤尚淵,29612731,有限公司,0610816,0611208,生產中,22塑膠製品製造業,220塑膠製品,,門窗用塑膠導軌,,121.505852,25.0891418
常鋒企業有限公司,63020631,08063000019832,臺北市南港區三重里三重路七十九巷八弄一號一樓,臺北市南港區三重里,洪美援,20789011,有限公司,0801126,0801217,生產中,25金屬製品製造業、29機械設備製造業,251金屬刀具、手工具及模具、293通用機械設備,,模具、機械零件,,121.613419,25.06069
鑫千企業有限公司,63021431,07463000010137,臺北市士林區永倫里延平北路六段五一一巷二十一號一樓,臺北市士林區永倫里,郭明昌,31345134,有限公司,0740827,0740907,生產中,25金屬製品製造業,253金屬容器、259其他金屬製品,,餐具、瓦斯爐蓋、蛋糕模,,121.499115,25.0919113
力祥國際工程股份有限公司,63020899,08763000024317,臺北市內湖區葫洲里安康路五十六巷二十七號,臺北市內湖區葫洲里,林根旺,14042945,股份有限公司,0870815,0870902,生產中,29機械設備製造業、25金屬製品製造業,252金屬結構及建築組件、259其他金屬製品、293通用機械設備,,鋼構、鋼架、鐵塔、橋樑,,121.597565,25.0613575
富山機械廠有限公司,63021252,07963000018453,臺北市南港區東新里松河街六二０號,臺北市南港區東新里,徐玉美,20634517,有限公司,0790303,0790315,生產中,29機械設備製造業,293通用機械設備,,水泥噴漿機,,121.601746,25.0582981
友訂企業社,S6300001,,臺北市信義區景勤里吳興街一七０巷二弄三號,臺北市信義區景勤里,陳維紘,14734898,獨資,,1090409,生產中,08食品製造業,089其他食品,,,,,
數可科技股份有限公司,63022417,,臺北市內湖區港墘里洲子街八十八號二樓之一,臺北市內湖區港墘里,杜秉明,80519456,股份有限公司,,1060419,生產中,22塑膠製品製造業、22塑膠製品製造業、25金屬製品製造業、33其他製造業、31其他運輸工具及其零件製造業,220塑膠製品、251金屬刀具、手工具及模具、332醫療器材及用品、319未分類其他運輸工具及其零件,http://www.digital-can.com,３Ｄ列印－客製化產品,３Ｄ列印－金屬／樹脂／尼龍粉末製成品,121.571259,25.0794773
正大纖維工業股份有限公司,63021705,05163000001586,臺北市北投區八仙里北投路一段五號二樓〈廠房〉、三樓〈倉庫〉,臺北市北投區八仙里,何紀豪,11167006,股份有限公司,0510704,0520123,生產中,11紡織業,112織布,,伸縮尼龍絲針織布,,121.502045,25.121666
伸松企業有限公司,63021343,06363000061666,臺北市內湖區新明路三三三巷五、七號一樓,臺北市內湖區,黃信豪,04765055,有限公司,0630128,0631213,生產中,22塑膠製品製造業、28電力設備及配備製造業,220塑膠製品、284照明設備及配備,,汽機車膠殼、電子、電腦塑膠製品,模具、塑膠粒,121.583946,25.0562286
伸松企業有限公司第二廠,63021323,07463000010053,臺北市內湖區新明路三三三巷一號一樓,臺北市內湖區,黃信豪,04765055,有限公司,0740725,0740815,生產中,22塑膠製品製造業,220塑膠製品,,汽機車膠殼、電子、電腦、塑膠製品,模具、塑膠粒,121.583862,25.0563545
奇唯科技股份有限公司,63022280,,臺北市內湖區港墘里瑞光路三一八號二樓,臺北市內湖區港墘里,范植德,23045057,股份有限公司,,1020325,生產中,27電腦、電子產品及光學製品製造業,276輻射及電子醫學設備,,醫療影像儲存傳輸設備及系統,,121.573654,25.07672
艋舺蒸餾水行,63021212,,臺北市內湖區葫洲里潭美街五四七號,臺北市內湖區葫洲里,張浚瑋,15446825,獨資,,0911212,生產中,09飲料製造業,092非酒精飲料,,包裝飲用水,,121.600883,25.0611782
浡揚鋼鐵有限公司南港廠,63022252,,臺北市南港區合成里忠孝東路六段二六九巷二弄八號,臺北市南港區合成里,楊文豪,25125273,有限公司,,1010627,生產中,25金屬製品製造業,252金屬結構及建築組件、253金屬容器,,營造所需之鐵件製造與安裝防火門製造,,121.589249,25.0498753
台灣龍神股份有限公司第一分廠,63021435,07963000018500,臺北市南港區東新里臺北市南港區松河街六二０號二樓,臺北市南港區東新里,張惠櫻,14030693,股份有限公司,0790416,0790501,生產中,25金屬製品製造業、29機械設備製造業,259其他金屬製品、293通用機械設備,http://taiwanlonesun.wixsite.com/taiwanlonesun,水質處理機,ＰＶＣ散水盤、ＰＶＣ藥桶、一般電器材料、泵浦馬達,121.601746,25.0582981
臺灣菸酒股份有限公司台北啤酒工場,63020615,04763000001441,臺北市中山區朱園里八德路二段八十五號,臺北市中山區朱園里,楊祐銘,03787101,股份有限公司,0460808,0460808,生產中,09飲料製造業,091酒精飲料,,啤酒,,121.535675,25.04585
新祐食品行,63022154,,臺北市南港區合成里忠孝東路六段二二五巷四弄八、十號,臺北市南港區合成里,莊喬惟,10317745,獨資,,0990706,生產中,08食品製造業,089其他食品,,調理食品,,121.587807,25.0498142
凱恩實業有限公司,63021023,08163000020221,臺北市內湖區葫洲里內湖區永保街一四０號,臺北市內湖區葫洲里,蕭慶原,84927052,有限公司,0810104,0820219,生產中,29機械設備製造業,291金屬加工用機械設備、293通用機械設備,,空壓虹、油壓缸、油壓壓床,,121.600037,25.0634785
德臻科技股份有限公司,63021921,,臺北市南港區中南里忠孝東路七段五五一號三、四樓,臺北市南港區中南里,陳志斌,22195423,股份有限公司,,0940222,生產中,28電力設備及配備製造業,282電池,http://www.glwtek.com,其他電子零組件,電路板、ＰＶＣ、焊錫、電晶片,121.6133,25.0530472
商美彩色印刷有限公司,S6300024,,臺北市萬華區興德里萬大路四九三巷五十八弄十號,臺北市萬華區興德里,鄭金隆,15860793,有限公司,,1090817,生產中,16印刷及資料儲存媒體複製業,160印刷及資料儲存媒體複製,,,,,
金展弘機械工業有限公司,63020334,08263000020277,臺北市南港區玉成里南港路三段一三０巷五弄十六號一樓,臺北市南港區玉成里,施安駿,22466972,有限公司,0820222,0820317,生產中,31其他運輸工具及其零件製造業,312機車及其零件、319未分類其他運輸工具及其零件,,機器用離合器、剎車器,,121.586807,25.0536289
永康餐飲股份有限公司內湖一廠,63022507,,臺北市內湖區湖元里瑞光路一０八號、一一０號,臺北市內湖區湖元里,羅駿樺,53540738,股份有限公司,,1090406,生產中,08食品製造業,083蔬果加工、089其他食品,,,,,
凌越生醫股份有限公司台北廠,63022197,,臺北市內湖區石潭里新明路一四三巷八號七樓,臺北市內湖區石潭里,陳作範,27558248,股份有限公司,,1000519,生產中,20藥品及醫用化學製品製造業,200藥品及醫用化學製品,http://www.ebs.com.tw/,血清特定抗體量測服務,,121.589752,25.0588417
崇碁科技股份有限公司,63022521,,臺北市內湖區湖元里新湖一路一五一、一五三、一五五、一五七、一五九號二樓,臺北市內湖區湖元里,葉燦鍊,13124975,股份有限公司,,1090911,生產中,26電子零組件製造業,269其他電子零組件,,,,,
海客模型企業有限公司,63022472,,臺北市內湖區週美里新明路三二一巷十弄二十五號,臺北市內湖區週美里,鄭忠義,53547015,有限公司,,1080514,生產中,22塑膠製品製造業,220塑膠製品,,塑膠製品、模型,,121.585686,25.0567875
晨暉五金企業有限公司,63022455,,臺北市南港區西新里成功路一段九十四巷二弄八號,臺北市南港區西新里,江靖惠,86279355,有限公司,,1070926,生產中,25金屬製品製造業,259其他金屬製品,,鐵件加工,,121.592308,25.0579071
珈品彩色印刷股份有限公司,63020124,05763000001539,臺北市大同區揚雅里重慶北路三段一三七巷十一號一樓,臺北市大同區揚雅里,簡嘉莉,96927936,股份有限公司,0571019,0590723,生產中,16印刷及資料儲存媒體複製業,160印刷及資料儲存媒體複製,,各種印刷品,,121.514252,25.0680485
愛比科技股份有限公司,63022525,,臺北市內湖區石潭里南京東路六段三四八號(一樓),臺北市內湖區石潭里,洪裕鈞,28685046,股份有限公司,,1091008,生產中,27電腦、電子產品及光學製品製造業,273視聽電子產品,,,,,
法藍瓷生技股份有限公司,63022482,,臺北市內湖區港墘里瑞光路二五八巷五十六號五樓之三,臺北市內湖區港墘里,陳立恒,50791772,股份有限公司,,1080730,生產中,33其他製造業,332醫療器材及用品,,醫療器材及用品,,121.574547,25.07434
永暉米苔目店,S6300022,,臺北市萬華區柳鄉里桂林路二四二巷五十三弄四號,臺北市萬華區柳鄉里,洪輝耀,15980875,獨資,,1090804,生產中,08食品製造業,089其他食品,,,,,
崇瑞企業有限公司,S6300020,,臺北市信義區黎忠里和平東路三段三九一巷二十弄四十六號,臺北市信義區黎忠里,廖崇傑,96956782,有限公司,,1090615,生產中,25金屬製品製造業,252金屬結構及建築組件,,,,,
龍泰西點麵包店,S6300003,,臺北市中正區文祥里杭州南路一段一四五之二號二樓,臺北市中正區文祥里,呂理烱,05062898,獨資,,1090409,生產中,08食品製造業,089其他食品,,,,,
峻侖股份有限公司,63021896,,臺北市內湖區安美街一二三號,臺北市內湖區,林穎正,23057975,股份有限公司,,0931108,生產中,28電力設備及配備製造業,281發電、輸電及配電機械,,電力機械器材及設備用模組,,121.598785,25.0601273
勁鶴有限公司,63022476,,臺北市南港區西新里南港路三段五十巷十五號地下(地下一樓),臺北市南港區西新里,連進發,16321942,有限公司,,1080613,生產中,26電子零組件製造業、29機械設備製造業,269其他電子零組件、293通用機械設備,,其他電子零組件，通用機械設備,,121.591087,25.055788
嘉和健康生活股份有限公司,63022478,,臺北市內湖區湖元里行愛路一四０巷二十一號三樓,臺北市內湖區湖元里,王立心,42825574,股份有限公司,,1080624,生產中,08食品製造業,089其他食品,,其他食品,豬肉．雞肉．牛肉．海鮮．蔬菜．水果．中藥材．堅果類．米麵類,121.579552,25.0637531
華楷生醫科技股份有限公司,63022235,,臺北市內湖區港墘里瑞光路四四三號八樓,臺北市內湖區港墘里,方頌和,53349129,股份有限公司,,1010330,生產中,27電腦、電子產品及光學製品製造業,276輻射及電子醫學設備,,１．間接式卡洛裡測量儀２．血壓計,,121.570938,25.0788651
泰赫國際服飾有限公司,63022515,,臺北市內湖區西康里內湖路一段九十一巷二十四弄六號(一樓),臺北市內湖區西康里,葉少華,85041306,有限公司,,1090604,生產中,12成衣及服飾品製造業,121成衣,,,,,
信豪彩色印刷有限公司,S6300025,,臺北市士林區社新里社子街六十三巷九弄十四號,臺北市士林區社新里,吳文吉,22645878,有限公司,,1090820,生產中,16印刷及資料儲存媒體複製業,160印刷及資料儲存媒體複製,,,,,
資力壓鑄股份有限公司,63021315,06563000055925,臺北市士林區永倫里通河西街二段二二九巷一、三、三之一號,臺北市士林區永倫里,陳錫源,31341427,股份有限公司,0651221,0660106,生產中,29機械設備製造業,293通用機械設備,,電動機軸,,121.500931,25.0934315
勝利體育事業股份有限公司,63020642,06763000060105,臺北市南港區南港路三段六十七巷三之二號一至五樓,臺北市南港區,陳庶榮,04763198,股份有限公司,0671130,0700827,生產中,33其他製造業,331育樂用品,http://www.victorsport.com.tw/index.html,羽球拍,,121.588783,25.0520134
泓旭企業有限公司,63020938,08463000020862,臺北市南港區西新里成功路一段五十五號一樓,臺北市南港區西新里,王元亮,89446357,有限公司,0840427,0840512,生產中,25金屬製品製造業,259其他金屬製品,,金屬車床零件,,121.592949,25.0561066
新吉企業有限公司,63020191,08663000021922,臺北市內湖區葫洲里臺北市內湖區永保街四十二號,臺北市內湖區葫洲里,許德煌,84101164,有限公司,0860120,0860131,生產中,29機械設備製造業、25金屬製品製造業,293通用機械設備、251金屬刀具、手工具及模具,,刀具、刀柄零件、模具零件,鋼鐵材料．有色金屬,121.59713,25.0631256
瀚揚有限公司,63022504,,臺北市內湖區港墘里瑞光路一八八巷五十四號八樓,臺北市內湖區港墘里,張來發,22733443,有限公司,,1090319,生產中,33其他製造業,332醫療器材及用品,,,,,
新眾電腦股份有限公司內湖廠,63022520,,臺北市內湖區港墘里陽光街二九八號四樓,臺北市內湖區港墘里,楊滄源,21247036,股份有限公司,,1090831,生產中,27電腦、電子產品及光學製品製造業,271電腦及其週邊設備,,,,,
啟陽工程行,S6300012,,臺北市信義區惠安里吳興街三八六號,臺北市信義區惠安里,陳有道,01598441,獨資,,1090525,生產中,25金屬製品製造業,252金屬結構及建築組件,,,,,
建泰彩藝印刷有限公司,S6300011,,臺北市萬華區華江里和平西路三段三九四號,臺北市萬華區華江里,李建誼,24480394,有限公司,,1090525,生產中,16印刷及資料儲存媒體複製業、16印刷及資料儲存媒體複製業,160印刷及資料儲存媒體複製,,,,,
國產建材實業股份有限公司台北廠,63020703,04463000000635,臺北市南港區西新里南港路三段三十三號,臺北市南港區西新里,張金淼,24060203,股份有限公司,0440831,0440831,生產中,23非金屬礦物製品製造業,233水泥及其製品,,預拌混凝土,,121.590904,25.0536785
捷昶興業有限公司,63020931,09063000028136,臺北市南港區中南街七十四巷二十五號一樓,臺北市南港區,吳登輝,22466993,有限公司,0900219,0900302,生產中,33其他製造業,331育樂用品,,育樂用品,,121.614243,25.0534439
香港商廣鷹控股有限公司台灣分公司,63022475,,臺北市內湖區西湖里堤頂大道二段二０五號五樓,臺北市內湖區西湖里,程禮寰,59079495,外國公司之分公司,,1080523,生產中,26電子零組件製造業,269其他電子零組件,,其他電子零組件,,121.568153,25.07785
年盛食品工廠有限公司,63020927,04663000001793,臺北市萬華區寶興街二一０巷十九號,臺北市萬華區,楊逸弘,15134512,有限公司,0460822,0470317,生產中,08食品製造業,089其他食品,,味增豆瓣醬麵醬醬油醬物及上項醬類冷凍,,121.495026,25.0226
家暘企業有限公司,63021007,08463000020835,臺北市士林區永倫里臺北市士林區延平北路六段五一一巷二十四號一樓,臺北市士林區永倫里,王祥益,02079967,有限公司,0840222,0840306,生產中,22塑膠製品製造業、25金屬製品製造業,220塑膠製品、251金屬刀具、手工具及模具,http://www.jyhome.com.tw,各類塑膠製品,,121.499123,25.0916824
綠莎國際股份有限公司,63022524,,臺北市南港區合成里忠孝東路六段八十一巷二號二樓,臺北市南港區合成里,趙銘誠,29060028,股份有限公司,,1091007,生產中,11紡織業,115紡織品,,,,,
昆鴻機械有限公司,63021071,08063000019319,臺北市南港區重陽路一九０巷十二弄五號一樓,臺北市南港區,陳昆樺,05421281,有限公司,0801014,0801212,生產中,29機械設備製造業,293通用機械設備,,機械五金零件,,121.602394,25.056942
公信電子股份有限公司南港廠,63022452,,臺北市南港區西新里南港路三段五十二號六樓,臺北市南港區西新里,曾垂紀,20972349,股份有限公司,,1070911,生產中,27電腦、電子產品及光學製品製造業、27電腦、電子產品及光學製品製造業,271電腦及其週邊設備,,精簡型電腦、ＰＯＳ終端系統,,121.591537,25.0545387
永欣彫刻社,S6300010,,臺北市萬華區華江里和平西路三段三０二巷三弄二十九號一樓,臺北市萬華區華江里,江金石,15894858,合夥,,1090519,生產中,33其他製造業,339未分類其他製品,,,,,
進華機器五金行,S6300021,,臺北市大同區斯文里承德路三段一０八巷十七號,臺北市大同區斯文里,林玉枝,11696202,獨資,,1090623,生產中,25金屬製品製造業,254金屬加工處理,,,,,
世慶食品有限公司內湖廠,63022415,,臺北市內湖區蘆洲里安康路一七二號,臺北市內湖區蘆洲里,張慶儒,24451692,有限公司,,1060407,生產中,08食品製造業,089其他食品,http://www.centuryfood.com.tw,蛋糕、麵包,,121.601486,25.063036
沅立彩色製版印刷股份有限公司,63021538,07963000018496,臺北市士林區社新里延平北路六段四八二號地下樓,臺北市士林區社新里,張永賢,07730093,股份有限公司,0790411,0790806,生產中,16印刷及資料儲存媒體複製業,160印刷及資料儲存媒體複製,,印刷品,,121.498253,25.093811
台灣水泥股份有限公司台北水泥製品廠,63020731,05463000000722,臺北市信義區新仁里基隆路一段五二號,臺北市信義區新仁里,洪崇智,20685803,股份有限公司,0541230,0551014,生產中,23非金屬礦物製品製造業,233水泥及其製品,,預拌混凝土,,121.5684,25.048214
大同股份有限公司,63020085,00163000009099,臺北市中山區集英里中山北路三段二十二號,臺北市中山區集英里,陳正坤,11026506,股份有限公司,0431104,0440115,生產中,29機械設備製造業、25金屬製品製造業、32家具製造業、28電力設備及配備製造業、22塑膠製品製造業、27電腦、電子產品及光學製品製造業、31其他運輸工具及其零件製造業、26電子零組件製造業、33其他製造業、20藥品及醫用化學製品製造業、14木竹製品製造業、29機械設備製造業,291金屬加工用機械設備、292其他專用機械設備、293通用機械設備、285家用電器、283電線及配線器材、322金屬家具、273視聽電子產品、140木竹製品、254金屬加工處理、220塑膠製品、263印刷電路板、319未分類其他運輸工具及其零件、275量測、導航、控制設備及鐘錶、276輻射及電子醫學設備、331育樂用品、200藥品及醫用化學製品,http://www.tatung.com.tw,家電產品、冷氣機、馬達、重電產品、電表等,,121.521713,25.06445
竣為國際貿易有限公司,63022091,,臺北市內湖區湖元里行愛路七十八巷二十八號二樓之四,臺北市內湖區湖元里,許子仁,16299673,有限公司,,0971230,生產中,27電腦、電子產品及光學製品製造業、28電力設備及配備製造業,272通訊傳播設備,,獨立式語音終端、線路切換器、線路切換盒、機架式語音終端,,121.580254,25.0621567
三得電子股份有限公司,63020817,08463000020846,臺北市北投區一德里立功街一五三、一五一號四樓,臺北市北投區一德里,黃教傑,23148976,股份有限公司,0840321,0840411,生產中,26電子零組件製造業,264光電材料及元件、261半導體,,發光二極體指示燈,,121.473145,25.1254654
塞席爾商怡美國際有限公司台灣分公司,63022494,,臺北市內湖區湖元里瑞光路七十六巷二十二號六樓,臺北市內湖區湖元里,王園甯,51011846,有限公司,,1081113,生產中,12成衣及服飾品製造業,121成衣、123服飾品,,成衣,,121.580757,25.07144
信恆有限公司劍潭廠,63021186,,臺北市士林區前港里臺北市士林區後港街一一八號五樓,臺北市士林區前港里,許錦聰,09489086,有限公司,,0911024,生產中,27電腦、電子產品及光學製品製造業,277光學儀器及設備,,隱形眼鏡,,121.521507,25.08649
海晶企業股份有限公司,63021379,06763000030727,臺北市士林區社新里延平北路六段四六四巷五號一、二樓(工廠)、三樓(辦公室),臺北市士林區社新里,林陳淑華,16171063,股份有限公司,0620828,0630903,生產中,25金屬製品製造業,259其他金屬製品,,,,,
統安生技股份有限公司,63022185,,臺北市南港區忠孝東路六段二六九巷四弄二號,臺北市南港區,黃坤正,27545758,股份有限公司,,1000214,生產中,19其他化學製品製造業、33其他製造業,193清潔用品、332醫療器材及用品,,商品名：超次亞水學名：次氯酸水溶液（調配）,,121.589432,25.0501976
安盛生科股份有限公司內湖廠,63022429,,臺北市內湖區西湖里基湖路三十五巷二弄九號五樓,臺北市內湖區西湖里,陳彥宇,53927676,股份有限公司,,1061002,生產中,33其他製造業,332醫療器材及用品,,排卵試片,,121.5655,25.0792961
藝銘實業有限公司一廠,63022228,,臺北市內湖區蘆洲里安美街一七五巷六號一樓、二樓、四樓,臺北市內湖區蘆洲里,廖漢明,20816782,有限公司,,1010302,生產中,22塑膠製品製造業、25金屬製品製造業,220塑膠製品、259其他金屬製品,http://www.taizhan.com,１、鋁、白鐵沖型銘板２、ＰＣ印刷沖製面板３、表面加波力雕刻製品,鋁材、ＰＣ板、銅、白鐵,121.600792,25.0601959
永興輸送機有限公司,63020140,06363000070587,臺北市內湖區週美里新明路二七三巷一之一號,臺北市內湖區週美里,王進雄,24013933,有限公司,0630527,0631219,生產中,29機械設備製造業、28電力設備及配備製造業,293通用機械設備,,輸送機,,121.586548,25.0570889
台灣森永製菓股份有限公司北投工廠,63020041,05163000001451,臺北市北投區八仙里中央南路二段二十二號,臺北市北投區八仙里,塚本知一,07524903,股份有限公司,0510808,0511126,生產中,08食品製造業,089其他食品、083蔬果加工,,糖果及烘培食品、罐頭、冷凍、脫水及醃漬食,,121.499954,25.1257858
雷鷹企業有限公司,63021058,07063000048317,臺北市南港區三重里三重路六十七巷二弄八號一、二樓,臺北市南港區三重里,李河憲,20740209,有限公司,0700831,0701102,生產中,22塑膠製品製造業,220塑膠製品,,塑膠射出成型製品,,121.61364,25.0604153
偉銓精密有限公司,63022238,,臺北市內湖區週美里新明路二四六巷三弄十七號一樓,臺北市內湖區週美里,詹元輔,28864391,有限公司,,1010410,生產中,31其他運輸工具及其零件製造業、29機械設備製造業,312機車及其零件、292其他專用機械設備,,另件加工,鋼料,121.584244,25.0572681
中鼎鋁業有限公司,63021730,08463000020883,臺北市南港區合成里忠孝東路六段二六九巷三弄三號一樓,臺北市南港區合成里,吳聯新,84419465,有限公司,0840527,0840615,生產中,25金屬製品製造業,252金屬結構及建築組件,,鋁門窗,,121.589684,25.0503788
馥餘實業股份有限公司,63021850,,臺北市內湖區西康里文湖街六十巷二十八號,臺北市內湖區西康里,簡宜真,16852172,股份有限公司,,0930129,生產中,08食品製造業,089其他食品,http://www.barista.com.tw,咖啡豆,,121.564034,25.0860672
伊勝實業有限公司,63022470,,臺北市內湖區西康里內湖路一段九十一巷二十三弄七號二樓,臺北市內湖區西康里,林均豪,53854532,有限公司,,1080502,生產中,08食品製造業,089其他食品,,,,,
古靈閣貿易有限公司,63022210,,臺北市南港區玉成里南港路三段一三０巷三弄十五號四樓,臺北市南港區玉成里,胡鎮天,22444345,有限公司,,1000811,生產中,19其他化學製品製造業,193清潔用品、194化粧品,,手工皂,,121.58744,25.0537052
精良印刷廠有限公司,63020594,06163000069725,臺北市大同區景星里迪化街二段六十三號一樓,臺北市大同區景星里,謝嘉堯,07501205,有限公司,0610725,0610828,生產中,16印刷及資料儲存媒體複製業,160印刷及資料儲存媒體複製,,印刷品,,121.509285,25.0648346
和蒂有限公司,63021548,07963000018853,臺北市萬華區糖廍里大理街一七五巷十五之一號,臺北市萬華區糖廍里,胡德雯,15985105,有限公司,0791130,0800228,生產中,12成衣及服飾品製造業,121成衣,,成衣，成衣副料,,121.495239,25.0343552
富誠服務有限公司,63022503,,臺北市內湖區湖元里瑞光路七十六巷四十五號三樓,臺北市內湖區湖元里,賴慈鈴,27326944,有限公司,,1090312,生產中,26電子零組件製造業、29機械設備製造業,262被動電子元件、293通用機械設備,,,,,
東興轉寫印刷廠股份有限公司,63020080,06663000024405,臺北市內湖區西康里內湖路一段一一七號,臺北市內湖區西康里,邱鑠崑,35192320,股份有限公司,0660601,0680612,生產中,15紙漿、紙及紙製品製造業,159其他紙製品,,轉寫印刷紙,,121.562096,25.08417
鉅登團膳食品有限公司,63022302,,臺北市南港區西新里南港路三段八十巷三十二號二樓,臺北市南港區西新里,鍾月嬌,53323036,有限公司,,1021226,生產中,08食品製造業,089其他食品,,餐盒製作,米、肉、蔬菜、油等,121.590637,25.0551071
海客模型企業社,63022522,,臺北市內湖區週美里新明路三二一巷十弄二十四號,臺北市內湖區週美里,鄭宇辰,15995434,獨資,,1090916,生產中,22塑膠製品製造業、29機械設備製造業,220塑膠製品、293通用機械設備,,,,,
鐵馬載憶有限公司,63022487,,臺北市內湖區石潭里新明路六十八巷十一號,臺北市內湖區石潭里,林安宜,24961409,有限公司,,1080927,生產中,33其他製造業、31其他運輸工具及其零件製造業,332醫療器材及用品、313自行車及其零件,http://www.carrymemory.com,自行車及其零件，醫療器材及用品,,121.589989,25.0602283
所羅門股份有限公司舊宗廠,63022493,,臺北市內湖區湖元里行忠路四十二號三樓,臺北市內湖區湖元里,陳政隆,23640801,股份有限公司,,1081111,生產中,27電腦、電子產品及光學製品製造業、29機械設備製造業,275量測、導航、控制設備及鐘錶、292其他專用機械設備、293通用機械設備,http://www.solomon.com.tw/about-us/,量測、導航、控制設備及鐘錶，其他專用機械設備，通用機械設備,,121.577782,25.0653381
皇品國際企業股份有限公司,63022471,,臺北市內湖區蘆洲里潭美街六三六號三、四、五樓,臺北市內湖區蘆洲里,吳永吉,84460718,股份有限公司,,1080506,生產中,08食品製造業,089其他食品、092非酒精飲料,,其他食品，非酒精飲料,,121.602036,25.0608883
瑞磁生物科技股份有限公司,63022448,,臺北市內湖區湖元里行忠路二十八巷一號六樓,臺北市內湖區湖元里,李家榮,42830582,股份有限公司,,1070806,生產中,33其他製造業,332醫療器材及用品,http://www.apbiocode.com/tw,數位條碼磁珠－尚未開始生產,,121.577827,25.06493
康鮮國際股份有限公司,63022381,,臺北市南港區重陽里重陽路二六三巷三號四樓,臺北市南港區重陽里,陳蘚釀,24939499,股份有限公司,,1050125,生產中,08食品製造業、08食品製造業,089其他食品,,食品,,121.603279,25.0581646
怡先國際股份有限公司,63022486,,臺北市內湖區湖元里行忠路五十七號二樓,臺北市內湖區湖元里,王美幸,12540262,股份有限公司,,1080926,生產中,27電腦、電子產品及光學製品製造業,275量測、導航、控制設備及鐘錶,,量測、導航、控制設備及鐘錶,,121.577461,25.0655689
神農資訊股份有限公司,63022498,,臺北市南港區合成里忠孝東路六段一六一號一樓,臺北市南港區合成里,楊炳德,27548869,股份有限公司,,1081211,生產中,33其他製造業,332醫療器材及用品,http://www.saturnimage.com.tw/about.html,醫療器材及用品,,121.586525,25.049017
馬達交通工程器材有限公司,63020818,08363000020638,臺北市南港區西新里南港路二段三二０號,臺北市南港區西新里,周恩顯,01631624,有限公司,0830627,0830712,生產中,33其他製造業,339未分類其他製品,,反光交通標誌,反光貼紙、鋁片、鐵管、五金零件,121.593559,25.05472
丨龍團茶品國際股份有限公司,63022512,,臺北市南港區西新里南港路三段五十巷九號二樓,臺北市南港區西新里,吳依茹,42632226,股份有限公司,,1090421,生產中,08食品製造業、09飲料製造業,089其他食品、092非酒精飲料,,,,,
建泰鐵工廠股份有限公司,63021153,05263000001141,臺北市內湖區葫洲里安康路九十七號,臺北市內湖區葫洲里,高鴻耀,24047103,股份有限公司,0510101,0520913,生產中,24基本金屬製造業,241鋼鐵,,元條及其他型鋼,,121.597466,25.0623
川饌國際有限公司,63022063,,臺北市南港區東新里重陽路一六六巷一號四樓及三號四樓,臺北市南港區東新里,萬敏齊,28461411,有限公司,,0970515,生產中,08食品製造業,089其他食品,,醬料、滷味,,121.601181,25.0570564
法比歐有限公司內湖廠,63022438,,臺北市內湖區湖元里瑞光路七十六巷二十二號,臺北市內湖區湖元里,李柄億,54864592,有限公司,,1070213,生產中,08食品製造業,089其他食品,,水餃餡、調味醬,,121.580757,25.07144
一品光學工業股份有限公司北投廠,63021226,,臺北市北投區八仙里大業路一六０、一六二號、一六０號二樓,臺北市北投區八仙里,曾明仁,35977856,股份有限公司,,0911225,生產中,25金屬製品製造業、26電子零組件製造業、27電腦、電子產品及光學製品製造業,251金屬刀具、手工具及模具、269其他電子零組件、271電腦及其週邊設備、272通訊傳播設備、277光學儀器及設備,,精密模具、光纖准直器,,121.499138,25.1250458
聯盈電子股份有限公司,63020657,07763000017278,臺北市內湖區週美里南京東路六段三三０巷十八弄二、四號一至五樓,臺北市內湖區週美里,李魁陽,22353766,股份有限公司,0770526,0770819,生產中,26電子零組件製造業、28電力設備及配備製造業,269其他電子零組件、283電線及配線器材,http://www.landwin.com.tw,電子用連接器,,121.584442,25.0577641
彬松科技股份有限公司新湖二廠,63022348,,臺北市內湖區湖元里新湖一路三七０號二樓、二樓之一、三七二號二樓、二樓之一,臺北市內湖區湖元里,柯志達,86386539,股份有限公司,,1040121,生產中,27電腦、電子產品及光學製品製造業,276輻射及電子醫學設備,,ＳＭＴ加工、表面粘著技術,,121.583366,25.0630188
吉勇企業有限公司,63020875,06363000041379,臺北市大同區哈密街六十八巷十五號一樓,臺北市大同區,楊邱碧玉,07143355,有限公司,0631211,0640122,生產中,22塑膠製品製造業、28電力設備及配備製造業,220塑膠製品、283電線及配線器材,,電源線組及其零配件,,121.51796,25.0734
捷元股份有限公司內湖廠,63020348,08763000023987,臺北市內湖區瑞光路六十六巷三十六號,臺北市內湖區,葉啓棟,23134543,股份有限公司,0870410,0890320,生產中,27電腦、電子產品及光學製品製造業、26電子零組件製造業,271電腦及其週邊設備、269其他電子零組件,https://www.genuine.com.tw/,桌上型電腦、筆記型電腦,,121.581276,25.0700169
巨將消防工程有限公司,63021762,08363000020729,臺北市南港區合成里市民大道七段一九八號二樓,臺北市南港區合成里,張麗英,84921711,有限公司,0831007,0831021,生產中,28電力設備及配備製造業、27電腦、電子產品及光學製品製造業,284照明設備及配備、272通訊傳播設備,,照明設備、視聽電子產品,,121.586571,25.0499077
路提科技股份有限公司,63022386,,臺北市內湖區港墘里洲子街七十一號五樓之一,臺北市內湖區港墘里,黎克邁,24742566,股份有限公司,,1050218,生產中,27電腦、電子產品及光學製品製造業,276輻射及電子醫學設備,http://www.rootilabs.com,穿戴式裝置及心電圖紀錄器,,121.572006,25.0797615
鼎華電子有限公司,63020742,07863000018052,臺北市南港區玉成里南港路三段二０八巷七號,臺北市南港區玉成里,陳忠孝,23146962,有限公司,0780417,0780531,生產中,28電力設備及配備製造業,283電線及配線器材,,線圈,,121.586266,25.0534115
干城科技股份有限公司,63022201,,臺北市內湖區西湖里基湖路三巷九號八樓、八樓之ㄧ、八樓之二(八樓倉庫、八樓之ㄧ廠房、八樓之二辦公室),臺北市內湖區西湖里,張朝湖,23998343,股份有限公司,,1000630,生產中,27電腦、電子產品及光學製品製造業,271電腦及其週邊設備,,電腦週邊介面卡,,121.566208,25.0810719
旭光紙器工業有限公司,63020964,06263000017397,臺北市中正區廈安里大埔街二十五巷九號一樓,臺北市中正區廈安里,張黃玉麗,15117226,有限公司,0700412,0710421,生產中,15紙漿、紙及紙製品製造業,152瓦楞紙板及紙容器,,紙盒紙箱,,121.505257,25.03195
泛皓電子科技股份有限公司,63022288,,臺北市內湖區湖元里陽光街三五一號八樓,臺北市內湖區湖元里,葉國清,27717816,股份有限公司,,1020703,生產中,29機械設備製造業,292其他專用機械設備,http://www.finetek-tech.com/,組裝裁切機、冷風刀、疊合回流線,,121.577423,25.073019
三裕鋼鐵企業有限公司,63022287,,臺北市北投區一德里立德路一二０巷三十三號一至三樓,臺北市北投區一德里,郭財旺,25138565,有限公司,,1020619,生產中,25金屬製品製造業,254金屬加工處理,,不鏽鋼板，不鏽鋼管,,121.473656,25.126646
華生水資源生技股份有限公司,63022110,,臺北市內湖區湖元里行忠路六十二號地下一樓,臺北市內湖區湖元里,胡端圓,86367821,股份有限公司,,0980504,生產中,09飲料製造業,092非酒精飲料,http://www.hwaseng.com.tw,包裝飲用水,,121.580025,25.06626
有德科技股份有限公司,63022171,,臺北市內湖區湖元里陽光街三五一號三樓之二,臺北市內湖區湖元里,林珍宜,97085969,股份有限公司,,0991123,生產中,26電子零組件製造業,269其他電子零組件,https://www.u-tek.com.tw/zh-tw/,導電布,,121.577408,25.0730114
豪勤實業有限公司,63020462,08363000020726,臺北市南港區成功路一段九十四巷二弄一號一樓,臺北市南港區,楊朝全,89962964,有限公司,0831004,0831021,生產中,25金屬製品製造業,252金屬結構及建築組件,,金屬門窗,,121.592224,25.0580387
世基生物醫學股份有限公司台北廠,63022256,,臺北市內湖區湖元里舊宗路二段一七一巷十七號四樓,臺北市內湖區湖元里,陳錦澤,27953682,股份有限公司,,1010816,生產中,20藥品及醫用化學製品製造業,200藥品及醫用化學製品,http://www.pharmigene.com,ＰＧ５８０１／ＰＧ１５０２,,121.575676,25.07133
嘉群印刷事業有限公司二廠,63020260,07763000017315,臺北市內湖區西康里內湖路一段九十一巷二十三弄八號地下樓,臺北市內湖區西康里,陳嘉銘,24784214,股份有限公司,0770607,0771216,生產中,16印刷及資料儲存媒體複製業,160印刷及資料儲存媒體複製,,各種印刷品，雜誌刊物，封面,,121.5624,25.0862217
旭豐印刷有限公司,63021618,06863000069348,臺北市萬華區糖廍里和平西路三段二一八巷十五號一樓,臺北市萬華區糖廍里,陳卓瑞英,03173130,有限公司,0681224,0690303,生產中,16印刷及資料儲存媒體複製業,160印刷及資料儲存媒體複製,,印刷品,,121.496529,25.0346413
創見資訊股份有限公司內湖二廠,63022192,,臺北市內湖區湖元里行善路七十號一至五樓,臺北市內湖區湖元里,束崇萬,23446187,股份有限公司,,1000504,生產中,26電子零組件製造業、27電腦、電子產品及光學製品製造業,269其他電子零組件、271電腦及其週邊設備、273視聽電子產品,,記憶體模組、記憶卡、隨身碟、攜帶式硬碟,,121.576454,25.0575161
宇望實業股份有限公司總廠,63021591,08163000019976,臺北市南港區玉成里南港路三段八十巷四十六號二樓,臺北市南港區玉成里,黃瑞隆,04790147,股份有限公司,0810505,0810806,生產中,28電力設備及配備製造業,289其他電力設備及配備,,充電器、電源供應器、擴大器、基板,,121.590225,25.0559464
李記甜品國際有限公司,63022440,,臺北市內湖區西康里內湖路一段九一巷十二弄十號,臺北市內湖區西康里,陳巨昇,55830557,有限公司,,1070306,生產中,08食品製造業,083蔬果加工、089其他食品,,豆花,,121.562294,25.0846519
健格科技股份有限公司,63020275,08863000025848,臺北市內湖區湖元里民權東路六段二十一巷三十三號三樓,臺北市內湖區湖元里,李坤鍾,23736159,股份有限公司,0880917,0881002,生產中,27電腦、電子產品及光學製品製造業、28電力設備及配備製造業,271電腦及其週邊設備、281發電、輸電及配電機械,,單組電池監控器,,121.581093,25.0691166
君城食品有限公司三廠,63022479,,臺北市士林區永倫里延平北路六段五一一巷二十二號二樓,臺北市士林區永倫里,邱金城,86721111,有限公司,,1080628,生產中,08食品製造業,089其他食品,,西點蛋糕,,121.499069,25.0917511
嘉明利科技股份有限公司,63022451,,臺北市內湖區西康里內湖路一段九十一巷二十三弄五號四樓,臺北市內湖區西康里,蔡偉光,54119883,股份有限公司,,1070830,生產中,16印刷及資料儲存媒體複製業,160印刷及資料儲存媒體複製,http://revaya.com.tw,其他印刷品,轉接座,121.562187,25.086441
東京物產股份有限公司,63022166,,臺北市南港區玉成里南港路三段一三０巷十之ㄧ號,臺北市南港區玉成里,堤和義,28177582,股份有限公司,,0991026,生產中,08食品製造業,089其他食品,,麵條,,121.588348,25.0539646
泛亞育樂事業股份有限公司,63022324,,臺北市內湖區週美里新明路二四六巷七號、七之一號,臺北市內湖區週美里,葉振坤,23439067,股份有限公司,,1030729,生產中,33其他製造業,331育樂用品,,育樂用品,,121.583412,25.0573883
乾恩工廠有限公司,63020095,05963000001234,臺北市南港區三重里臺北市南港區南港路一段四之二、三、四號一樓,臺北市南港區三重里,林闕秋香,04827003,有限公司,0010101,0590101,生產中,08食品製造業,089其他食品,,糯米紙,,121.619896,25.0548439
東冠行銷有限公司,63022444,,臺北市內湖區蘆洲里潭美街五七七號三樓,臺北市內湖區蘆洲里,蘇育民,53437093,有限公司,,1070524,生產中,12成衣及服飾品製造業,121成衣、123服飾品,,包包製作,,121.602,25.0611782
廣和坐月子生技股份有限公司,63022100,,臺北市北投區一德里立功街一二二號二樓〈廠房〉、三樓〈檢驗室〉、六樓〈倉庫〉,臺北市北投區一德里,章卉如,80299262,股份有限公司,,0980218,生產中,08食品製造業,089其他食品,,即食餐盒,,121.473274,25.1250858
同翔服裝有限公司,63020743,06263000019130,臺北市士林區後港里大南路三八八巷二號一樓,臺北市士林區後港里,蔡懷珍,31318592,有限公司,0620823,0621011,生產中,,,,各種成衣,,121.516182,25.0896416
吉鴻電子股份有限公司一廠,63022416,,臺北市內湖區湖元里民權東路六段十五巷二十八號地下一樓,臺北市內湖區湖元里,張王明香,23733940,股份有限公司,,1060410,生產中,26電子零組件製造業、27電腦、電子產品及光學製品製造業、29機械設備製造業、33其他製造業,269其他電子零組件、271電腦及其週邊設備、293通用機械設備、331育樂用品,,紙鈔接收器、電話卡自動販賣機、兌幣機,傳動齒輪、主機板、皮帶、二極體,121.578377,25.0682449
豪隆彩色製版有限公司,63021509,08263000020262,臺北市士林區通河東街一段一六七巷三十三、三十五號四樓,臺北市士林區福中里,李國任,86158774,有限公司,0820201,0830128,生產中,16印刷及資料儲存媒體複製業,160印刷及資料儲存媒體複製,,平版平凹版製版,,121.517014,25.0878181
泓泰工業有限公司,63021444,08463000020870,臺北市士林區德行西路四十五號四樓之一,臺北市士林區蘭雅里,朱金龍,31198219,有限公司,0840508,0840530,生產中,28電力設備及配備製造業,289其他電力設備及配備,http://www.alumax.com.tw,高速陽極化整流裝置箱,,121.523109,25.1060486
德律科技股份有限公司,63020170,08463000020872,臺北市士林區德行西路四十五號七樓、四十五號七樓之一、四十五之一號七樓、七樓之ㄧ,臺北市士林區蘭興里,陳玠源,23292535,股份有限公司,0840510,0840605,生產中,27電腦、電子產品及光學製品製造業,275量測、導航、控制設備及鐘錶,,半導體檢測設備、全功能電路板自動測試機線上組裝電路板自動測試,,121.523109,25.1060486
卡羅國際企業股份有限公司,63020146,08463000020875,臺北市南港區南港路二段九十九之二號,臺北市南港區東明里,高秀華,14015243,股份有限公司,0840517,0840607,生產中,08食品製造業,086碾榖、磨粉及澱粉製品、089其他食品,,西轉轉化糖漿，益麵劑，鬆餅粉，烤盤油,,121.597023,25.054018
進順工程行?,63021298,08463000020929,臺北市南港區重陽路五０四巷十一號,臺北市南港區三重里,林增田,21261613,獨資,0840822,0840912,生產中,25金屬製品製造業,252金屬結構及建築組件,,,,,
德聚實業有限公司,63020857,08363000020733,臺北市內湖區內湖路一段九一巷十二弄三０號一樓,臺北市內湖區西康里,沃德偉,84918568,有限公司,0831011,0831021,生產中,25金屬製品製造業、33其他製造業,259其他金屬製品、339未分類其他製品,,水龍頭，衛浴設備（毛巾架，鏡架，雙勾頭組）,,121.56321,25.0843658
晟銘刺繡廠,63021710,08663000022020,臺北市萬華區西園路二段三二０巷九弄三號,臺北市萬華區和德里,洪春綢,81748837,獨資,0860218,0860304,生產中,11紡織業,115紡織品,,刺繡,,121.492294,25.0263939
泓洹工業股份有限公司,63021443,08463000020877,臺北市士林區德行西路四十五號四樓,臺北市士林區蘭雅里,朱金龍,84418114,股份有限公司,0840519,0840616,生產中,33其他製造業,331育樂用品,,槌球桿加工及裝配．Ａ２芯材,,121.523109,25.1060486
中一實業有限公司關渡廠,63020876,08463000020813,臺北市北投區立德路一二０巷二十一號四樓,臺北市北投區一德里,李銘源,07042906,有限公司,0840118,0840304,生產中,27電腦、電子產品及光學製品製造業,272通訊傳播設備、275量測、導航、控制設備及鐘錶,,,,,
聖杰工業股份有限公司,63021470,08163000020158,臺北市南港區忠孝東路六段二二五巷一弄七號一樓,臺北市南港區合成里,張元科,23465037,股份有限公司,0811020,0820818,生產中,25金屬製品製造業、28電力設備及配備製造業,259其他金屬製品、281發電、輸電及配電機械,,電磁閎裝配,,121.5886,25.0498466
守昱塑膠實業有限公司,63021264,07563000011030,臺北市南港區松河街六六二號,臺北市南港區三重里,潘有諒,22198337,有限公司,0751009,0751119,生產中,22塑膠製品製造業,220塑膠製品,,汽機車速度表外殼,塑膠原料,121.609352,25.0597382
三雄電子有限公司,63020698,07863000018287,臺北市南港區忠孝東路七段五九四號一樓,臺北市南港區中南里,詹石錦,23306860,有限公司,0781102,0790109,生產中,26電子零組件製造業,269其他電子零組件,,電子計算機配件、ＰＣ板插件裝配加工,,121.614723,25.0528469
佳友不銹鋼有限公司,63021812,,臺北市南港區忠孝東路六段二六九巷四弄十號一樓,臺北市南港區合成里,謝進益,80492822,有限公司,,0920818,生產中,25金屬製品製造業,252金屬結構及建築組件,,不銹鋼門窗,,121.5891,25.05012
錦星有限公司台北廠,63021633,,臺北市士林區後港街一０二號二樓,臺北市士林區前港里,許文仁,16286017,有限公司,,0920303,生產中,26電子零組件製造業,264光電材料及元件、269其他電子零組件,,電解電容貼帶、氖燈貼帶、電感線圈貼帶,,121.521461,25.086071
商勝電工有限公司,63021818,,臺北市內湖區行愛路一四一巷三十號一樓,臺北市內湖區湖元里,張珠香,80156068,有限公司,,0920828,生產中,28電力設備及配備製造業,284照明設備及配備,,照明設備，戶外燈具,,121.580963,25.06478
友尚股份有限公司內湖廠,63020298,08963000027895,臺北市內湖區堤頂大道二段四八九號九樓,臺北市內湖區西康里,曾國棟,15876227,股份有限公司,0891120,0891212,生產中,26電子零組件製造業、27電腦、電子產品及光學製品製造業,269其他電子零組件、273視聽電子產品,http://www.wpgholdings.com/yosung,非記憶體主動元件、記憶體主動元件,微電腦控制ＩＣ,121.56192,25.0826015
美毅實業有限公司,63020606,,臺北市士林區大南路三五三號一樓,臺北市士林區福中里,徐寬財,86639871,有限公司,,0910125,生產中,16印刷及資料儲存媒體複製業,160印刷及資料儲存媒體複製,,印刷,,121.516861,25.08905
長勝針織製衣有限公司,63021769,,臺北市內湖區堤頂大道二段十五號,臺北市內湖區港墘里,張齡勻,70383347,有限公司,,0920418,生產中,12成衣及服飾品製造業,121成衣、123服飾品,,橫編針織,梭織布料、紗線,121.571938,25.075573
星鋼實業有限公司,63021776,,臺北市內湖區新明路一二三巷二號一樓,臺北市內湖區石潭里,許正宗,20745719,有限公司,,0920501,生產中,29機械設備製造業,292其他專用機械設備,,製鞋用修邊機裝配,,121.589958,25.0593529
光櫂實業股份有限公司,63020676,06263000076478,臺北市萬華區寶興街八十巷十七弄三號一樓,臺北市萬華區錦德里,林美宏,23730486,股份有限公司,0621029,0631217,生產中,16印刷及資料儲存媒體複製業,160印刷及資料儲存媒體複製,,印刷品,,121.494225,25.0253735
泰銳精密工業有限公司,63021051,07663000011848,臺北市南港區南港路三段一四九巷四十一號二樓,臺北市南港區玉成里,龍淑芬,86018845,有限公司,0760605,0760617,生產中,29機械設備製造業,291金屬加工用機械設備,,機械零件、模具加工,,121.585449,25.0516758
立久國際有限公司,63020550,06963000033406,臺北市內湖區新明路三三三巷十四弄六號一樓,臺北市內湖區週美里,陳明仁,04806056,有限公司,0690628,0690729,生產中,29機械設備製造業,292其他專用機械設備,,工業用機械零件,,121.583862,25.05584
莊記過濾企業有限公司,63020411,08563000021226,臺北市大同區迪化街二段一九三號一樓,臺北市大同區鄰江里,莊陳秀丹,22333707,有限公司,0850413,0850709,生產中,11紡織業,115紡織品,,過濾袋,,121.5114,25.06936
加頂食品工業有限公司,63020190,08563000021320,臺北市北投區北投路一段三三、三五號一樓,臺北市北投區八仙里,蘇萬興,96934850,有限公司,0850503,0860730,生產中,08食品製造業,089其他食品,,,,,
上億特殊印刷有限公司,63021473,08663000022039,臺北市南港區忠孝東路六段二六九巷四弄一五號一樓,臺北市南港區合成里,江堂榮,97320747,有限公司,0860306,0860321,生產中,16印刷及資料儲存媒體複製業,160印刷及資料儲存媒體複製,,印刷品,,121.58902,25.0502224
駿宏鋁業有限公司,63021420,08463000020889,臺北市內湖區安康路二二八巷三號一樓,臺北市內湖區葫洲里,陳慶國,16156844,有限公司,0840605,0840624,生產中,25金屬製品製造業,252金屬結構及建築組件,,鋁門窗,,121.603134,25.0633888
中州實業有限公司,63021445,08063000019645,臺北市內湖區新明路二四六巷三弄六號一樓,臺北市內湖區週美里,吳久枝,23148883,有限公司,0801106,0810520,生產中,16印刷及資料儲存媒體複製業,160印刷及資料儲存媒體複製,,標價紙印刷，條碼紙印刷,,121.583694,25.0571842
民利五金股份有限公司,63021201,07463000009953,臺北市士林區福港街一一八號一樓,臺北市士林區福中里,林永護,31265286,股份有限公司,0740717,0740820,生產中,25金屬製品製造業,259其他金屬製品,,扣鎖，金屬門鎖，電磁鎖,,121.51799,25.0883369
泓溫企業有限公司,63021383,08263000020488,臺北市南港區重陽路一六六巷七號三樓,臺北市南港區東新里,游志勳,86486609,有限公司,0821029,0821201,生產中,26電子零組件製造業,269其他電子零組件,,熱電偶,,121.6014,25.05673
宜貫模型社,63020206,08363000020659,臺北市南港區忠孝東路六段二二五巷二弄二號一樓,臺北市南港區合成里,薛讚陽,01677655,獨資,0830715,0830729,生產中,14木竹製品製造業,140木竹製品,,木製模具,,121.588219,25.0496273
舜銓實業有限公司,63021637,08063000019831,臺北市北投區大度路三段二九六巷四十八號一樓,臺北市北投區一德里,陳明珠,86289488,有限公司,0801122,0801212,生產中,25金屬製品製造業、30汽車及其零件製造業、31其他運輸工具及其零件製造業,251金屬刀具、手工具及模具、303汽車零件、312機車及其零件,,模具、汽機車零件,,121.4671,25.1247311
柯德企業股份有限公司,63021375,08063000019833,臺北市南港區南港路三段八十巷三十六號四樓,臺北市南港區西新里,柯榮郎,23912612,股份有限公司,0801126,0801211,生產中,27電腦、電子產品及光學製品製造業、26電子零組件製造業,275量測、導航、控制設備及鐘錶、271電腦及其週邊設備、269其他電子零組件,,酸鹼度計、電子零件（數字型計數器）,,121.590492,25.0553551
奧傑實業有限公司,63021396,08063000018917,臺北市大同區昌吉街十一號二樓,臺北市大同區斯文里,沈金樹,22876342,有限公司,0800213,0800308,生產中,12成衣及服飾品製造業、11紡織業,121成衣、115紡織品,,團體制服，床單，手術巾，護士帽，童裝,,121.51757,25.065937
竣皇企業有限公司,63020396,08263000020503,臺北市內湖區新明路二八０號一樓,臺北市內湖區週美里,黃素慧,86295926,有限公司,0821115,0821202,生產中,30汽車及其零件製造業,303汽車零件,,汽車材料（車身護條、外水切、水槽）,,121.582581,25.0561676
中太科技股份有限公司,63021086,,臺北市內湖區陽光街三四五巷五號二樓之一,臺北市內湖區湖元里,李慶賢,01506371,股份有限公司,,0910719,生產中,28電力設備及配備製造業,285家用電器,http://www.chuntai.com.tw,電湯匙／木炭點火器／噴火槍,,121.578148,25.0724087
盛利精機廠,63021061,06763000060104,臺北市南港區忠孝東路六段一八五巷三弄一號一樓,臺北市南港區合成里,潘玉枝,04794713,獨資,0671130,0680112,生產中,25金屬製品製造業、28電力設備及配備製造業、27電腦、電子產品及光學製品製造業,259其他金屬製品、289其他電力設備及配備、273視聽電子產品,,金屬製品,,121.586975,25.0498
照霖興業社,63021799,,臺北市萬華區東園街七十三巷四十三號一樓,臺北市萬華區日善里,魏勝俞,77157134,獨資,,0920519,生產中,16印刷及資料儲存媒體複製業,160印刷及資料儲存媒體複製,,印刷品,,121.497719,25.0264626
順陞鋼鋁企業有限公司,63021389,08063000018984,臺北市內湖區西康里文湖街四十六號一樓,臺北市內湖區西康里,余年豐,04820634,有限公司,0800527,0800608,生產中,25金屬製品製造業,252金屬結構及建築組件,,鋁門窗、鐵門窗、鐵欄,,121.563423,25.0864811
三泰儀器工業股份有限公司,63020761,,臺北市南港區成功路一段六十三之二號及二、三、四樓,臺北市南港區西新里,孫玫兒,30939849,股份有限公司,,0910423,生產中,27電腦、電子產品及光學製品製造業、33其他製造業,275量測、導航、控制設備及鐘錶、276輻射及電子醫學設備、332醫療器材及用品,http://www.metertech-inc.com,電子儀器、醫療器材,,121.59288,25.05639
宜春企業股份有限公司,63020779,08963000027865,臺北市內湖區洲子街一０三號五樓,臺北市內湖區港墘里,吳廷財,86151287,股份有限公司,0891128,0891207,生產中,27電腦、電子產品及光學製品製造業,271電腦及其週邊設備,,終端顯示器,,121.569748,25.0807915
綺瑩資訊股份有限公司,63021196,,臺北市內湖區基湖路三十五巷十一號二樓,臺北市內湖區西湖里,李昱螢,86158280,股份有限公司,,0911114,生產中,16印刷及資料儲存媒體複製業,160印刷及資料儲存媒體複製,,,,,
永拓有限公司,63020662,08163000020077,臺北市南港區忠孝東路六段四六五號五樓,臺北市南港區合成里,張碧雲,20894978,有限公司,0810708,0810903,生產中,30汽車及其零件製造業、28電力設備及配備製造業,303汽車零件、284照明設備及配備,,汽車燈具機車燈具,,121.594238,25.050869
吉爾富科技股份有限公司,63021434,,臺北市南港區八德路四段七六八巷一弄十二號一樓,臺北市南港區玉成里,蔣清秀,80289308,股份有限公司,,0920212,生產中,29機械設備製造業,293通用機械設備,,氫氧產生機、氫氧燄焊接機、水焊機、鑽石拋光機,,121.581085,25.0502739
佑笙電熱行有限公司,63020934,,臺北市內湖區內湖路一段九十一巷十二弄十一號一樓,臺北市內湖區西康里,陳慶文,04810811,有限公司,,0910508,生產中,27電腦、電子產品及光學製品製造業,275量測、導航、控制設備及鐘錶,,,,,
德律科技股份有限公司磺溪二廠,63020655,,臺北市士林區磺溪街三十六、三十六之一、三十六之二號地下一樓,臺北市士林區蘭興里,陳玠源,23292535,股份有限公司,,0910311,生產中,27電腦、電子產品及光學製品製造業,275量測、導航、控制設備及鐘錶,,半導體檢測設備、全功能電路板自動測試機線上組裝電路板自動測試,,121.523148,25.1065826
星記實業有限公司,63020626,,臺北市士林區重慶北路四段一七六號一樓,臺北市士林區葫東里,黃耀星,04508021,有限公司,,0910206,生產中,12成衣及服飾品製造業,123服飾品,,織帶,,121.512039,25.0843582
正陽企業股份有限公司內湖一廠,63021682,06563000060047,臺北市內湖區安康路五十六巷九號一樓,臺北市內湖區葫洲里,高文祥,20543805,股份有限公司,0651228,0670525,生產中,29機械設備製造業、30汽車及其零件製造業、31其他運輸工具及其零件製造業,291金屬加工用機械設備、292其他專用機械設備、293通用機械設備、303汽車零件、312機車及其零件,http://www.sunnyent.com.tw,空壓汽缸、空壓壓床、汽機車零件、油壓動力組件,,121.5974,25.0616817
瑞士商梅特勒托利多股份有限公司台灣分公司,63021823,,臺北市內湖區舊宗路二段一七一巷十七號二樓,臺北市內湖區湖元里,羅群,97171937,股份有限公司,,0920924,生產中,27電腦、電子產品及光學製品製造業,275量測、導航、控制設備及鐘錶,,天秤,,121.575661,25.0713158
臺億印刷事業有限公司,63020074,07563000010788,臺北市北投區立德路一二０巷十六弄一號二樓,臺北市北投區一德里,李豊勳,31325670,有限公司,0750724,0750830,生產中,16印刷及資料儲存媒體複製業,160印刷及資料儲存媒體複製,,各種圖書雜誌表冊文件及包裝紙之印刷,,121.472664,25.1263485
昌煇企業有限公司,63021854,,臺北市南港區西新里松河街四０八號二樓,臺北市南港區西新里,顏淑嬋,86709094,有限公司,,0930302,生產中,26電子零組件製造業、27電腦、電子產品及光學製品製造業、28電力設備及配備製造業,269其他電子零組件、272通訊傳播設備、275量測、導航、控制設備及鐘錶、285家用電器,,電腦及其週邊設備、視聽電子產品、家用電器,,121.589455,25.0554371
鴻名企業股份有限公司,63020747,08663000023218,臺北市信義區新仁里東興路五十九號六樓,臺北市信義區新仁里,張允騰,84274833,股份有限公司,0861114,0870824,生產中,27電腦、電子產品及光學製品製造業、26電子零組件製造業,271電腦及其週邊設備、269其他電子零組件,http://WELLTEND.COM.TW,電腦介面卡、電腦零組件,,121.566719,25.0474777
日昌印製廠股份有限公司,63021650,04763000000103,臺北市大同區迪化街一段二二四巷十八號,臺北市大同區大有里,賴國耀,07057111,股份有限公司,0470107,0580924,生產中,16印刷及資料儲存媒體複製業,160印刷及資料儲存媒體複製,,各種印刷,,121.5088,25.059433
大橋鍍金工廠股份有限公司,63020075,04663000000926,臺北市大同區重慶北路三段二四三巷十、十四號一樓,臺北市大同區至聖里,林聖光,07041006,股份有限公司,0460524,0460921,生產中,25金屬製品製造業,254金屬加工處理,,金屬製品電鍍,,121.51461,25.0711918
重美印刷廠,63020390,04463000000786,臺北市大同區萬全街一三四號一樓,臺北市大同區雙連里,吳傳居,07282905,獨資,0440618,0471016,生產中,16印刷及資料儲存媒體複製業,160印刷及資料儲存媒體複製,,各種印刷品,,121.516312,25.0576973
朋德企業有限公司內湖一廠,63021901,,臺北市內湖區內湖路一段三八八號二樓、二樓之一、二樓之二,臺北市內湖區港墘里,鄭和彬,34507029,有限公司,,0931209,生產中,27電腦、電子產品及光學製品製造業,271電腦及其週邊設備,http://pendec.com,電腦及其週邊設備,,121.572433,25.0807819
慈星實業有限公司南港一廠,63021989,,臺北市南港區南港路三段五十巷六號二樓、八號二樓,臺北市南港區西新里,呂淵霖,69659726,有限公司,,0950529,生產中,12成衣及服飾品製造業,121成衣、123服飾品,,新娘禮服,,121.591187,25.0550537
斯文印書館有限公司,63020734,04563000000193,臺北市大同區歸綏街一五三號,臺北市大同區雙連里,劉永豐,07377206,有限公司,0451001,0460121,生產中,16印刷及資料儲存媒體複製業,160印刷及資料儲存媒體複製,,各種印刷品,,121.514427,25.0582943
詮營股份有限公司,63021905,,臺北市內湖區行愛路七十七巷十三號五樓,臺北市內湖區湖元里,呂學博,97317757,股份有限公司,,0931215,生產中,29機械設備製造業,293通用機械設備,http://www.parkinsys.com.tw,停車場設備（出票機、驗票機、自動繳費機）,,121.581711,25.0626984
忠興印刷廠有限公司,63021014,04663000000049,臺北市大同區保安街七十八巷六號,臺北市大同區延平里,吳國華,07256408,有限公司,0460309,0710122,生產中,16印刷及資料儲存媒體複製業,160印刷及資料儲存媒體複製,,印刷品,,121.511993,25.0587463
偉瀚實業股份有限公司,63021127,04763000000281,臺北市士林區後港街一六九號一、二樓,臺北市士林區前港里,陳木旺,23026093,股份有限公司,0470410,0481208,生產中,11紡織業、12成衣及服飾品製造業,115紡織品、121成衣、123服飾品,,鬆緊帶,,121.521172,25.0874767
和億印刷企業有限公司,63020431,08063000019844,臺北市士林區通河東街一段一六七巷三十七號四樓,臺北市士林區福中里,簡岳宏,31084546,有限公司,0801212,0810128,生產中,16印刷及資料儲存媒體複製業,160印刷及資料儲存媒體複製,,印刷品，貼紙,,121.517044,25.0878124
儷山電業股份有限公司,63021354,07263000008727,臺北市內湖區內湖路一段九十一巷十二弄二十四號一樓,臺北市內湖區西康里,廖義德,22034617,股份有限公司,0720331,0720503,生產中,28電力設備及配備製造業,283電線及配線器材,,端子,,121.562965,25.0844116
七嘉光學工業股份有限公司,63021749,07363000009668,臺北市內湖區潭美街一九五、一九七、一九九號一樓,臺北市內湖區週美里,何語,04821161,股份有限公司,0730929,0740717,生產中,33其他製造業,332醫療器材及用品,,眼鏡片,,121.584175,25.055582
協佶有限公司,63021092,07463000010009,臺北市南港區南港路三段八十巷六十五之一號,臺北市南港區玉成里,王呂秀月,05406606,有限公司,0740704,0740711,生產中,33其他製造業,331育樂用品,,橡皮擦（文具）,,121.590164,25.0556564
德勝科技股份有限公司,63020291,08363000020592,臺北市南港區南港路三段五０巷二十一號五樓,臺北市南港區西新里,林坤銘,05094603,股份有限公司,0830502,0830822,生產中,27電腦、電子產品及光學製品製造業、26電子零組件製造業,272通訊傳播設備、269其他電子零組件,http://www.rubytech.com.tw,網路卡、集線器、轉換器,ＩＣ、功率晶體、ＰＣＢ印刷電路板,121.590874,25.0560627
東之吳有限公司分廠,63021392,08363000020597,臺北市南港區松河街三八四號四樓,臺北市南港區西新里,吳國聲,04720473,有限公司,0830506,0830516,生產中,25金屬製品製造業、29機械設備製造業,259其他金屬製品、291金屬加工用機械設備,,鎖匙機、鎖具,,121.588058,25.054575
皓煥企業有限公司,63020482,07963000018682,臺北市南港區忠孝東路六段二六九巷三弄十四號一樓,臺北市南港區合成里,張寶銘,12940957,有限公司,0790924,0791026,生產中,30汽車及其零件製造業,303汽車零件,,離合器、剎車器組合,,121.590111,25.0503521
國禎工業股份有限公司,63020167,07363000009776,臺北市南港區南港路三段一四九巷四十九弄十八、二十號一、二、三樓,臺北市南港區玉成里,林清水,04766358,股份有限公司,0731228,0740525,生產中,22塑膠製品製造業、25金屬製品製造業,220塑膠製品、259其他金屬製品,,印刷品：聚氯乙烯銘板，聚碳酸質銘板，壓克,鋁、ＰＶＣ、ＰＣ、鐵鋼,121.58503,25.0521278
赫力股份有限公司,63020105,08063000018923,臺北市南港區八德路四段七六八巷一弄十八號八樓,臺北市南港區玉成里,劉國勝,14003210,股份有限公司,0800228,0800904,生產中,27電腦、電子產品及光學製品製造業、26電子零組件製造業,272通訊傳播設備、269其他電子零組件,,無線通信器材、保全器具、呼叫器,,121.581306,25.0501213
金裕成五金工業社,63021003,06263000062435,臺北市萬華區長泰街二二二巷七號一樓,臺北市萬華區銘德里,葉長成,04534338,獨資,0620216,0621228,生產中,25金屬製品製造業,251金屬刀具、手工具及模具,,各種金屬模具,,121.495132,25.0220051
成鑫印刷事業有限公司,63020353,08463000020938,臺北市士林區倫等街五十九號,臺北市士林區永倫里,盧鑽隆,27357615,有限公司,0840905,0860306,生產中,16印刷及資料儲存媒體複製業,160印刷及資料儲存媒體複製,,印刷品,,121.501495,25.093401
亞尼克菓子工房有限公司內湖廠,63021895,,臺北市內湖區瑞湖街一七八巷十五號二至四樓,臺北市內湖區湖元里,吳宗恩,80618239,有限公司,,0931026,生產中,08食品製造業,089其他食品,,蛋糕、西點、餅乾,,121.575775,25.0707741
偉茗彩色印刷有限公司,63021898,,臺北市士林區後港街一六七號,臺北市士林區前港里,嚴兆成,70444626,有限公司,,0931112,生產中,16印刷及資料儲存媒體複製業,160印刷及資料儲存媒體複製,,印刷,,121.521225,25.0873661
正璋食品有限公司,63020308,07263000008885,臺北市信義區永吉路二００巷五十四號一樓,臺北市信義區五全里,江潘月裡,20999678,有限公司,0720609,0720707,生產中,08食品製造業,089其他食品,,蛋酥，沙其馬,,121.57251,25.0437088
英光印刷有限公司,63020043,08263000020249,臺北市士林區倫等街五十五號一樓,臺北市士林區永倫里,王玉卿,27341234,有限公司,0820112,0820608,生產中,16印刷及資料儲存媒體複製業,160印刷及資料儲存媒體複製,,彩色印刷,,121.501465,25.0931931
創見資訊股份有限公司內湖廠,63021820,,臺北市內湖區行忠路七十號一、二、三、四樓,臺北市內湖區湖元里,束崇萬,23446187,股份有限公司,,0920919,生產中,27電腦、電子產品及光學製品製造業、26電子零組件製造業,271電腦及其週邊設備、269其他電子零組件,https://tw.transcend-info.com/,記憶體模組、記憶卡、隨身碟、攜帶式硬碟,,121.580818,25.0665245
昱華股份有限公司,63020258,07963000017306,臺北市內湖區內湖路一段九十一巷二十三弄七號四樓,臺北市內湖區西康里,方坤棋,22049246,股份有限公司,0770604,0770711,生產中,33其他製造業、32家具製造業,339未分類其他製品、322金屬家具,,玻璃水晶及鑽石飾品加工製造,,121.562012,25.0864124
大鵬科技股份有限公司內湖廠,63022011,,臺北市內湖區新湖二路二五０巷一號三樓,臺北市內湖區湖元里,張再發,21245121,股份有限公司,,0951023,生產中,27電腦、電子產品及光學製品製造業,272通訊傳播設備,,電視攝影機、無線家用防盜器,,121.582748,25.0650158
照星企業有限公司,63021910,,臺北市士林區後港街六十二巷四號一樓,臺北市士林區前港里,黃睿山,22177972,有限公司,,0940110,生產中,16印刷及資料儲存媒體複製業,160印刷及資料儲存媒體複製,,印刷,,121.522125,25.08519
寶島鐘錶股份有限公司內湖廠,63021200,08863000025074,臺北市內湖區瑞光路五一三巷三十號六樓,臺北市內湖區西湖里,陳郭照月,03618703,股份有限公司,0880122,0880505,生產中,27電腦、電子產品及光學製品製造業,275量測、導航、控制設備及鐘錶,,石英錶,,121.569839,25.0798912
歐格電子工業股份有限公司內湖廠,63021668,08763000024764,臺北市內湖區內湖路一段八十八、九十二號五樓及九十二號五樓之一,臺北市內湖區西康里,李廣浩,31306250,股份有限公司,0871107,0871216,生產中,26電子零組件製造業、27電腦、電子產品及光學製品製造業、28電力設備及配備製造業,269其他電子零組件、272通訊傳播設備、284照明設備及配備、281發電、輸電及配電機械,http://www.ahoku.com,電路控制板、電子保護插接器,,121.562965,25.08332
泰碩電子股份有限公司瑞光廠,63022015,,臺北市內湖區瑞光路三０二號三樓之三　,臺北市內湖區港墘里,余清松,89858152,股份有限公司,,0951214,生產中,26電子零組件製造業,262被動電子元件,,連接器產品．散熱產品等電子零組件、電腦及其周邊設備、電線及電纜製造,,121.574257,25.0764771
美瑞娜生技化妝品有限公司,63022412,,臺北市內湖區港墘里瑞光路一八八巷六十號三樓,臺北市內湖區港墘里,林淑玲,42659300,有限公司,,1060320,生產中,19其他化學製品製造業,194化粧品,,健康口紅,,121.576324,25.0736351
永喬機械有限公司,63020616,07363000043346,臺北市南港區三重里松河街六五四號,臺北市南港區三重里,張方華,05410340,有限公司,0730720,0731012,生產中,25金屬製品製造業,251金屬刀具、手工具及模具、259其他金屬製品,,齒輪千斤頂（配件）、拖車架（配件）,,121.609077,25.0596561
奇樂股份有限公司,63021301,07763000017775,臺北市南港區重陽路二六三巷八號四樓,臺北市南港區,劉惠淵,14094274,股份有限公司,0771126,0780316,生產中,33其他製造業,331育樂用品,,羽毛球，羽毛球拍框,,121.602966,25.0583286
東興五金機械精工廠,63020380,04763000001240,臺北市大安區永康街六十一巷二之二號,臺北市大安區錦安里,王寺田,18785600,合夥,0470723,0470913,生產中,25金屬製品製造業,251金屬刀具、手工具及模具、259其他金屬製品,,彈簧鎖、鎖頭,,121.529991,25.0292511
五泰文具材料有限公司,63021575,06463000055757,臺北市中正區羅斯福路二段八巷三號一樓,臺北市中正區南福里,林崇榮,04629186,有限公司,0641129,0650301,生產中,22塑膠製品製造業,220塑膠製品,,塑膠製品（原子筆管鉛筆盒）,,121.520576,25.02874
通全印刷有限公司內湖廠,63021920,,臺北市內湖區瑞湖街一六一號一樓,臺北市內湖區湖元里,李惠美,11595387,有限公司,,0940215,生產中,16印刷及資料儲存媒體複製業,160印刷及資料儲存媒體複製,http://www.wpclabel.com.tw,印刷、印刷品裝訂及加工,,121.576523,25.069191
鋼興鐵工廠有限公司,63021131,06563000034043,臺北市南港區忠孝東路六段一八五巷四弄十二號一樓,臺北市南港區合成里,彭慧芬,04777714,有限公司,0650726,0651213,生產中,25金屬製品製造業、29機械設備製造業,252金屬結構及建築組件、259其他金屬製品、293通用機械設備,,油壓機、起重機,,121.587517,25.0498524
惠樺企業有限公司,63021922,,臺北市內湖區新明路三二一巷十弄五號一樓,臺北市內湖區週美里,陶怡緯,80195479,有限公司,,0940309,生產中,29機械設備製造業,291金屬加工用機械設備、292其他專用機械設備,,五金機械、塑膠機械,,121.585091,25.0563221
久豐不銹鋼廚具有限公司,63020718,07263000008866,臺北市北投區立德路一二一巷三號一樓,臺北市北投區一德里,林宜儦,31295182,有限公司,0720528,0720630,生產中,32家具製造業,322金屬家具,,不銹鋼廚具,,121.471382,25.1273136
吉立毛刷有限公司,63021350,07963000018732,臺北市南港區南港路三段一三０巷五弄五、七號一樓,臺北市南港區玉成里,柯錦銘,22896585,有限公司,0791016,0791103,生產中,33其他製造業,339未分類其他製品,,各種（豬鬃，羊毛，馬鬃化學纖維）毛刷,,121.587654,25.05415
七銘企業股份有限公司內湖二廠,63021753,07363000046470,臺北市內湖區潭美街二０一、二０三、二０五、二０七號一樓,臺北市內湖區週美里,何語,04348453,股份有限公司,0730801,0731206,生產中,33其他製造業,332醫療器材及用品,,眼鏡片,,121.584435,25.0556984
白鐵號有限公司,63021372,07463000010089,臺北市內湖區內湖路一段九十一巷二十四弄三十六號,臺北市內湖區西康里,黃銘鼎,14000142,有限公司,0740813,0740820,生產中,25金屬製品製造業,259其他金屬製品,,烤盤、牛排盤、其他金屬餐具,,121.562904,25.0851727
長峰金屬工程有限公司,63021421,08263000020518,臺北市南港區忠孝東路六段一五九巷三弄二號一樓,臺北市南港區合成里,林吉,84463617,有限公司,0821215,0821229,生產中,25金屬製品製造業,252金屬結構及建築組件,,不銹鋼門窗,,121.586205,25.0495014
一代不銹鋼有限公司,63020604,08063000019061,臺北市南港區興南街十三、十五號一樓,臺北市南港區東新里,詹素珠,84947521,有限公司,0800903,0801231,生產中,25金屬製品製造業,252金屬結構及建築組件,,鐵門窗,,121.602547,25.05656
金政企業有限公司,63020767,07263000008915,臺北市南港區中南街七十四巷三十七號一樓,臺北市南港區中南里,邱永福,04755492,有限公司,0720625,0720924,生產中,29機械設備製造業,292其他專用機械設備,,塑膠成型機及其零件,,121.613808,25.0533981
鍵寧企業股份有限公司,63021244,08063000018935,臺北市南港區八德路四段七六八巷一弄十八號二樓,臺北市南港區玉成里,李青茂,22170725,股份有限公司,0800325,0800528,生產中,27電腦、電子產品及光學製品製造業,271電腦及其週邊設備,,繼電器、啟動開關、讀卡座、鍵盤、耳機,,121.581306,25.0501213
皇家欣業有限公司,63020282,08363000020603,臺北市南港區忠孝東路六段一五九巷三弄三號一樓,臺北市南港區合成里,王高世,22194281,有限公司,0830517,0830527,生產中,25金屬製品製造業,252金屬結構及建築組件,,鋁門窗,,121.586113,25.0495872
同芳毛刷股份有限公司,63020451,06063000077106,臺北市內湖區新明路九十五巷十三號一、二樓、八十七號一樓,臺北市內湖區石潭里,方建富,24023566,股份有限公司,0601127,0610211,生產中,33其他製造業、22塑膠製品製造業,339未分類其他製品、220塑膠製品,,衣刷、油漆刷、髮刷、狗刷,,121.590591,25.0597172
申記企業有限公司北投廠,63022094,,臺北市北投區立德路一二一巷五號一樓,臺北市北投區一德里,嚴隆發,12179661,有限公司,,0980117,生產中,27電腦、電子產品及光學製品製造業、29機械設備製造業、30汽車及其零件製造業,275量測、導航、控制設備及鐘錶、293通用機械設備、303汽車零件,,過濾器、汽車零件,,121.471352,25.1274281
中裕彩色印刷有限公司,63022019,,臺北市南港區南港路三段八０巷四０號二樓,臺北市南港區西新里,駱振輝,04711559,有限公司,,0960126,生產中,16印刷及資料儲存媒體複製業,160印刷及資料儲存媒體複製,,印刷品,,121.590393,25.0555744
禾企電子股份有限公司,63022098,,臺北市內湖區內湖路一段九十一巷三十八弄二十二號地下一樓、一樓,臺北市內湖區西康里,湯明通,84945761,股份有限公司,,0980209,生產中,27電腦、電子產品及光學製品製造業,272通訊傳播設備,,監視系統攝影機,,121.5635,25.0857258
台勝生商行,63022099,,臺北市南港區忠孝東路六段四二七號一樓,臺北市南港區合成里,陶台生,48804908,獨資,,0980217,生產中,08食品製造業,089其他食品,,冷凍水餃、餛飩,,121.593178,25.0505753
嘉樺國際企業有限公司,63022131,,臺北市北投區八仙里中央南路二段一０五號,臺北市北投區八仙里,吳文誠,31259799,有限公司,,0981207,生產中,22塑膠製品製造業,220塑膠製品,,壓克力製品,,121.500534,25.12214
嬌雅實業有限公司,63022006,,臺北市內湖區西康里內湖路一段九十一巷十二弄八號二樓,臺北市內湖區西康里,鄭淳方,12320653,有限公司,,0950927,生產中,19其他化學製品製造業,194化粧品,,洗髮及清潔用化粧品,,121.56221,25.0846825
光華被服工廠有限公司,63020751,05063000001425,臺北市萬華區長沙街二段一０九號一樓,臺北市萬華區新起里,高李寶桂,15136504,有限公司,0500725,0500725,生產中,12成衣及服飾品製造業、11紡織業、13皮革、毛皮及其製品製造業、22塑膠製品製造業,121成衣、123服飾品、130皮革、毛皮及其製品、220塑膠製品,,童裝軍警服學生服雨衣書包製帽,,121.503784,25.0404854
安利日用品股份有限公司,63021691,06563000049190,臺北市北投區中央南路二段十九號一樓,臺北市北投區八仙里,沈黃昭昭,11236735,股份有限公司,0651028,0651116,生產中,22塑膠製品製造業、33其他製造業,220塑膠製品、339未分類其他製品,,,,,
巨輝實業有限公司,63020688,07663000011463,臺北市南港區中南街七十四巷三十五號一樓,臺北市南港區中南里,邱添喜,22343310,有限公司,0760203,0760328,生產中,21橡膠製品製造業、22塑膠製品製造業,210橡膠製品、220塑膠製品,,塑膠製品、橡膠製品,,121.613861,25.0534
鏈環實業有限公司,63020952,06563000051909,臺北市內湖區新明路三三三巷八號一樓,臺北市內湖區週美里,林振川,04775841,有限公司,0651111,0651123,生產中,25金屬製品製造業,259其他金屬製品,,鏈條,,121.583862,25.0561676
中華土木機械行,63021480,06663000011375,臺北市南港區忠孝東路六段二二五巷四弄五號,臺北市南港區合成里,吳以亮,03094706,獨資,0660314,0660429,生產中,29機械設備製造業,292其他專用機械設備,,抽水機,馬達、抽水機零件,121.587952,25.04997
陽興造機股份有限公司,63020137,06063000062324,臺北市內湖區週美里新明路二七三巷一號一樓,臺北市內湖區週美里,王興旺,20650305,股份有限公司,0600324,0610602,生產中,29機械設備製造業,292其他專用機械設備、293通用機械設備,,輸送機週邊設備,,121.58651,25.0571785
期祥機械工業股份有限公司,63020913,06663000054175,臺北市內湖區潭美街三四三號一樓,臺北市內湖區石潭里,吳鐵化,04794024,有限公司,0661110,0680108,生產中,25金屬製品製造業,259其他金屬製品,,機械五金,鋼鐵五金,121.590736,25.0594063
今隆企業有限公司,63020569,08263000020333,臺北市南港區南港路二段九九之二十一號一、二樓,臺北市南港區東明里,詹水來,84141089,有限公司,0820408,0820422,生產中,21橡膠製品製造業,210橡膠製品,,緩衝墊片,,121.597023,25.054018
寶藝有限公司,63021082,08163000019917,臺北市南港區松河街四三０號一樓,臺北市南港區西新里,王永富,01456702,有限公司,0810331,0810416,生產中,33其他製造業,339未分類其他製品,,包裝管袋,紙、膠膜,121.5918,25.0578213
明珊機械有限公司,63020593,07563000010484,臺北市南港區南港路三段一四九巷四十九弄十號一至三樓,臺北市南港區玉成里,吳明安,04795425,有限公司,0750429,0750528,生產中,29機械設備製造業,292其他專用機械設備,,內線機及零件,,121.585327,25.05217
芝華企業股份有限公司,63020127,08363000020613,臺北市南港區重陽路一九０巷十二弄十號一樓,臺北市南港區東新里,詹炳任,21239839,股份有限公司,0830527,0830701,生產中,25金屬製品製造業,252金屬結構及建築組件,,鐵門、鐵架,,121.602295,25.0567513
文品印刷文具有限公司,63020978,07263000008994,臺北市萬華區艋舺大道一二０巷三十八弄四十三號一樓,臺北市萬華區頂碩里,李森銀,12119475,有限公司,0720906,0720916,生產中,16印刷及資料儲存媒體複製業,160印刷及資料儲存媒體複製,,,,,
聯泰工作所有限公司,63021416,08163000019964,臺北市內湖區內湖路一段六十一巷六弄五號一樓,臺北市內湖區西康里,游田,11991703,有限公司,0810428,0810507,生產中,32家具製造業,322金屬家具、285家用電器,,不銹鋼廚房設備（調理工作臺，水槽，爐）,不銹鋼板、管、鍍鋅鐵板、鐵板,121.560577,25.08516
銓鴻鋼鋁業有限公司,63021725,08163000019965,臺北市內湖區安康路一三一號一樓,臺北市內湖區葫洲里,陳宥任,04789459,有限公司,0810428,0810505,生產中,25金屬製品製造業,252金屬結構及建築組件,,鋁門、鋁窗、鋁自動,,121.599739,25.0631466
彩邑坊,63022105,,臺北市萬華區西藏路二六九巷十六號一樓,臺北市萬華區和德里,黃盈琇,48958136,獨資,,0980420,生產中,12成衣及服飾品製造業,121成衣,,成衣,,121.493271,25.02804
卡樂彩色製版印刷有限公司,63022107,,臺北市士林區大南路三六一號九樓之一,臺北市士林區福中里,黃明杉,23428337,有限公司,,0980422,生產中,16印刷及資料儲存媒體複製業,160印刷及資料儲存媒體複製,,印刷品、印刷品裝訂、製版品,,121.516495,25.0889683
宇瀚企業有限公司,63022022,,臺北市南港區南港路三段八十巷三十八號,臺北市南港區西新里,洪麗蓉,28452314,有限公司,,0960426,生產中,25金屬製品製造業、28電力設備及配備製造業,259其他金屬製品、281發電、輸電及配電機械,,汽車另件五金另件,,121.590431,25.0554771
義和事務印刷有限公司,63021502,08463000020963,臺北市南港區忠孝東路六段二二五巷四弄六號一樓,臺北市南港區合成里,賴永欽,07448011,有限公司,0841030,0841116,生產中,16印刷及資料儲存媒體複製業,160印刷及資料儲存媒體複製,,印刷品,,121.587982,25.0498543
鋮毅電子有限公司,63021978,,臺北市內湖區環山路一段二十八巷十五號二樓,臺北市內湖區西康里,方信淵,27980702,有限公司,,0950417,生產中,27電腦、電子產品及光學製品製造業、26電子零組件製造業,271電腦及其週邊設備、269其他電子零組件,,,,,
日松實業有限公司,63021984,,臺北市士林區後港街九十號,臺北市士林區後港里,陳玉雪,23602460,有限公司,,0950505,生產中,22塑膠製品製造業、27電腦、電子產品及光學製品製造業,220塑膠製品、271電腦及其週邊設備,,塑膠外殼、電腦機殼,,121.521881,25.0860062
台森機電股份有限公司,63020286,08763000024084,臺北市內湖區南京東路六段三四八號三樓,臺北市內湖區石潭里,蔡石盤,04717441,股份有限公司,0870520,0880611,生產中,27電腦、電子產品及光學製品製造業,272通訊傳播設備,http://www.semcogrp.com,汽車防盜器、警報器,,121.58522,25.0585327
台芝科技股份有限公司三廠,63022033,,臺北市內湖區新明路二四六巷三弄二十五號,臺北市內湖區週美里,廖德北,05432858,股份有限公司,,0960823,生產中,25金屬製品製造業,259其他金屬製品,http://www.tungaloy.com.tw,碳化鎢微鑽頭,碳化鎢鋼,121.5846,25.0574017
台芝科技股份有限公司二廠,63022034,,臺北市內湖區新明路二四六巷三弄二十一號,臺北市內湖區週美里,廖德北,05432858,股份有限公司,,0960824,生產中,25金屬製品製造業,259其他金屬製品,http://www.tungaloy.com.tw,碳化鎢鋼微鑽頭,碳化鎢鋼,121.584427,25.0573349
毅禾鋼鐵有限公司,63020982,08963000027190,臺北市南港區中南里忠孝東路七段五二七巷一弄五號,臺北市南港區中南里,黃弘毅,20914670,有限公司,0890802,0890817,生產中,25金屬製品製造業,252金屬結構及建築組件,,不銹鋼門窗,,121.612808,25.053381
里金館有限公司南港廠,63022377,,臺北市南港區合成里忠孝東路六段八十一巷二十二號二樓,臺北市南港區合成里,李東陽,54170494,有限公司,,1041119,生產中,19其他化學製品製造業,193清潔用品,,玫瑰花皂野薑花皂柚花皂桂花蜂蜜皂艾草皂月桃皂左手香蘆薈皂紫蘇石花皂肉桂皂東方美人皂絲瓜蘆薈皂柚子皂嬰兒皂,,121.583824,25.0479031
尚興機械工業有限公司,63020378,07663000012078,臺北市士林區後港街六十二巷八號一樓,臺北市士林區前港里,林淑真,22453224,有限公司,0760729,0760819,生產中,27電腦、電子產品及光學製品製造業、30汽車及其零件製造業,275量測、導航、控制設備及鐘錶、303汽車零件,,感應器、車門開關控制器、空車燈、其他汽車儀表,,121.52198,25.0851479
德銀鐵工廠,63020538,05763000001815,臺北市萬華區萬青街一三二號,臺北市萬華區壽德里,黃日良,15475617,獨資,0570807,0591001,生產中,30汽車及其零件製造業、25金屬製品製造業,303汽車零件、251金屬刀具、手工具及模具,,汽車零件五金用具,,121.50164,25.0242653
三水冰果店,63021642,05663000001801,臺北市萬華區廣州街二二三巷十一號,臺北市萬華區青山里,許武雄,15008016,獨資,0560304,0600101,生產中,08食品製造業,089其他食品、085乳品,,冰塊,,121.498955,25.03707
端益企業有限公司,63021590,07663000013314,臺北市士林區通河東街一段一七八號一樓,臺北市士林區福中里,林金葉,31303850,有限公司,0761002,0761017,生產中,16印刷及資料儲存媒體複製業,160印刷及資料儲存媒體複製,,自黏商標印刷,,121.515663,25.088501
志典企業有限公司,63020773,07663000013423,臺北市南港區三重路七十九巷八弄九號一樓,臺北市南港區三重里,張展達,22634470,有限公司,0761019,0761231,生產中,30汽車及其零件製造業、31其他運輸工具及其零件製造業、25金屬製品製造業、28電力設備及配備製造業,303汽車零件、312機車及其零件、259其他金屬製品、284照明設備及配備,,各種汽機車零件，各種五金零件，各種臺燈,,121.61322,25.0610542
宏偉木型行新明廠,63020523,07363000084021,臺北市內湖區新明路三三七號一樓,臺北市內湖區週美里,林文煌,04785720,獨資,0740108,0740319,生產中,14木竹製品製造業,140木竹製品,,機械木型,,121.583649,25.05645
保能企業有限公司,63020226,08363000020538,臺北市內湖區新明路二四六巷三弄五號一樓,臺北市內湖區週美里,胡寶蓮,84497790,有限公司,0830129,0830221,生產中,25金屬製品製造業,259其他金屬製品,,五金零件,鐵材、機油,121.583748,25.0570621
呈展企業有限公司,63020984,08363000020625,臺北市內湖區新明路一二一號一樓,臺北市內湖區石潭里,謝漢仲,05425224,有限公司,0830614,0831014,生產中,25金屬製品製造業、29機械設備製造業、29機械設備製造業,251金屬刀具、手工具及模具、259其他金屬製品、292其他專用機械設備,,冶具、模具、五金配件,,121.589867,25.059515
資力機械股份有限公司,63021743,07563000010606,臺北市士林區通河西街二段二二九巷四號一樓,臺北市士林區永倫里,李文授,07420977,股份有限公司,0750625,0760106,生產中,29機械設備製造業、25金屬製品製造業,293通用機械設備、251金屬刀具、手工具及模具,,模具、五金機械零件,,121.500748,25.0932789
昆翰企業有限公司,63021486,08063000018983,臺北市士林區大南路三六一號四樓之一,臺北市士林區福中里,吳東暉,12411112,有限公司,0800527,0800612,生產中,12成衣及服飾品製造業,123服飾品,,新娘頭花,,121.516495,25.0889683
萬野企業股份有限公司,63021183,07463000009834,臺北市北投區北投路一段五十一號三樓,臺北市北投區八仙里,邱瑞益,31285939,股份有限公司,0740214,0740302,生產中,26電子零組件製造業,262被動電子元件、269其他電子零組件,,電子零件（電阻器）,,121.500786,25.1250668
德和衡器有限公司,63021625,07463000010223,臺北市士林區福港街一四六之一號一樓,臺北市士林區福中里,王文和,31280723,有限公司,0740927,0741231,生產中,27電腦、電子產品及光學製品製造業,275量測、導航、控制設備及鐘錶,,普通天平、臺秤、電子秤、體脂秤,,121.517822,25.0877514
俊瑜有限公司,63020845,08363000020634,臺北市南港區松河街三六０號,臺北市南港區西新里,劉興鑑,84761334,有限公司,0830624,0830706,生產中,29機械設備製造業,293通用機械設備,,機械五金零件,,121.586632,25.0538273
北勢湖工業股份有限公司,63021672,08363000020552,臺北市內湖區安康路二一二號,臺北市內湖區葫洲里,劉榮盛,04837543,股份有限公司,0830318,0861126,生產中,23非金屬礦物製品製造業,233水泥及其製品,,預拌混凝土,,121.602577,25.063158
乾盈企業有限公司,63021180,08363000020640,臺北市南港區重陽路二二一號七樓,臺北市南港區東新里,楊漢東,23147097,有限公司,0830630,0830720,生產中,31其他運輸工具及其零件製造業,313自行車及其零件,,自行車、運動車等裝配,,121.601555,25.0576134
淳貿企業有限公司,63020713,08163000020012,臺北市南港區八德路四段七六八巷七號三樓之一,臺北市南港區玉成里,徐華晃,12125595,有限公司,0810520,0810709,生產中,33其他製造業,339未分類其他製品,,寶石、水晶、半寶石飾品,,121.58062,25.0498028
台弘金屬有限公司,63021681,08163000019873,臺北市內湖區安康路一三五號一樓,臺北市內湖區葫洲里,張增光,86016797,有限公司,0810122,0810129,生產中,25金屬製品製造業,252金屬結構及建築組件,,金屬門窗,,121.599846,25.0631371
偉林電子股份有限公司南港廠,63020182,08063000018993,臺北市南港區重陽路二０九號三樓,臺北市南港區東新里,廖述椿,34187264,股份有限公司,0800604,0800807,生產中,26電子零組件製造業、28電力設備及配備製造業、27電腦、電子產品及光學製品製造業,269其他電子零組件、289其他電力設備及配備、275量測、導航、控制設備及鐘錶,http://www.brainchild.com.tw,溫度控制器、人機介面、記錄器、網路通信產品,,121.601242,25.0575237
光宸科技股份有限公司,63022082,,臺北市內湖區堤頂大道二段四一三、四一五號二樓,臺北市內湖區西康里,鄭國楷,70399869,股份有限公司,,0971126,生產中,27電腦、電子產品及光學製品製造業,271電腦及其週邊設備,http://www.kontron-asia.com,工業電腦,,121.562859,25.0807152
高登國際企業有限公司,63022146,,臺北市內湖區文湖街六０巷三０號一樓,臺北市內湖區西康里,陳伯棻,16149598,有限公司,,0990505,生產中,30汽車及其零件製造業,303汽車零件,,汽車連接桿,,121.564026,25.0860424
木柵冷凍廠,63020418,05663000000061,臺北市文山區木柵里保儀路九十二號,臺北市文山區木柵里,張進福,27007316,獨資,0560713,0580716,生產中,08食品製造業,081肉類加工、082水產加工,,凍魚凍肉、冰塊,水電,121.568306,24.9869671
天群醫療企業股份有限公司,63022088,,臺北市內湖區瑞光路五四八巷十五號六樓,臺北市內湖區西湖里,郭外天,20865299,股份有限公司,,0971223,生產中,33其他製造業,332醫療器材及用品,,移位輔具及移位推床等,,121.567039,25.0791912
有昇國際有限公司,63020526,08863000025781,臺北市南港區南港路三段八十巷四十號五樓,臺北市南港區西新里,洪綉玉,70366473,有限公司,0880830,0881007,生產中,28電力設備及配備製造業,281發電、輸電及配電機械,,電源控制器,,121.590393,25.0555744
實用醫療器材有限公司,63021832,,臺北市內湖區行愛路七十八巷二十四號,臺北市內湖區湖元里,許美足,22461300,有限公司,,0921201,生產中,20藥品及醫用化學製品製造業,200藥品及醫用化學製品,http://www.symic.com.tw,體外診斷試劑,,121.580368,25.0622253
廣湛有限公司,63022151,,臺北市內湖區南京東路六段二九八號,臺北市內湖區週美里,陳世賓,29040494,有限公司,,0990621,生產中,08食品製造業,087動物飼品,,寵物狗貓食用、雞肉乾零食,,121.583466,25.0576344
鑫鼎實業有限公司,63021606,08663000022295,臺北市內湖區南京東路六段三四八號四樓之二,臺北市內湖區石潭里,烏雲,12465518,有限公司,0860502,0860515,生產中,33其他製造業,339未分類其他製品,,風箏,,121.58522,25.0585327
豪袤企業有限公司,63021608,08163000020015,臺北市內湖區南京東路六段三四八號六樓之一,臺北市內湖區石潭里,郭宏信,12155540,有限公司,0810522,0810629,生產中,13皮革、毛皮及其製品製造業、11紡織業,130皮革、毛皮及其製品、115紡織品,,合成皮包裝袋，布質包裝袋，皮手提包,,121.58522,25.0585327
瑞鎰電機股份有限公司,63021747,,臺北市內湖區南京東路六段三四八號七樓之二,臺北市內湖區石潭里,林泰炫,07719267,股份有限公司,,0920325,生產中,28電力設備及配備製造業,281發電、輸電及配電機械,http://www.relay-rayex.com,繼電器,,121.58522,25.0585327
浩漢產品設計股份有限公司,63022519,,臺北市內湖區石潭里潭美街二八五號(1樓),臺北市內湖區石潭里,邱穎峯,22991429,股份有限公司,,1090821,生產中,25金屬製品製造業、29機械設備製造業、33其他製造業,251金屬刀具、手工具及模具、293通用機械設備、339未分類其他製品,,,,,
明珠刺繡工藝有限公司,63021321,06763000027696,臺北市士林區文昌路二六八號一樓,臺北市士林區德華里,楊明雄,31176030,有限公司,0670609,0670719,生產中,11紡織業,115紡織品,,各種刺繡品,,121.521263,25.1009979
聯電電器股份有限公司總廠,63020469,06763000030635,臺北市南港區忠孝東路六段四九一號四樓,臺北市南港區新光里,林桂陽,04781956,股份有限公司,0670623,0680113,生產中,26電子零組件製造業,269其他電子零組件,,插頭電源線、電子線,,121.595352,25.05124
元辰精密工業有限公司,63021655,05763000001035,臺北市大同區延平北路四段二四一號一樓,臺北市大同區老師里,宋明宗,07674901,有限公司,0570820,0590101,生產中,29機械設備製造業,293通用機械設備,,模具,,121.512077,25.0762272
天藍工程有限公司南港廠,63020112,07763000017103,臺北市南港區忠孝東路六段二六九巷一弄九號一樓,臺北市南港區合成里,李根旺,20907642,有限公司,0770212,0770513,生產中,25金屬製品製造業,252金屬結構及建築組件,,,,,
台承鐵工廠,63021498,07763000017156,臺北市士林區延平北路六段五一一巷二十號一樓,臺北市士林區社新里,陳麗華,01844106,獨資,0770328,0780620,生產中,25金屬製品製造業,252金屬結構及建築組件、259其他金屬製品,,凸緣閘門凡而、機械五金,鐵板、鋼板,121.498878,25.091877
豐榮碾米廠,63020546,05963000000851,臺北市士林區延平北路五段二九０號,臺北市士林區葫東里,郭嘉全,29809609,獨資,0590103,0590103,生產中,08食品製造業,086碾榖、磨粉及澱粉製品,,白米,,121.5097,25.08565
七銘企業股份有限公司內湖廠,63021752,06763000008152,臺北市內湖區新明路三三三巷十四弄四號一樓,臺北市內湖區週美里,何語,04348453,股份有限公司,0670223,0670428,生產中,33其他製造業,332醫療器材及用品,,眼鏡框、片,,121.583885,25.05585
利盈電子工業股份有限公司,63020794,07763000017234,臺北市北投區立德路一二０巷二十三號三樓,臺北市北投區一德里,陳文修,31250988,股份有限公司,0770520,0771223,生產中,26電子零組件製造業、28電力設備及配備製造業,272通訊傳播設備、269其他電子零組件、289其他電力設備及配備,,電子式交流穩壓器、高功率廣播系統、電源供應器,,121.473022,25.1267586
興興機械廠股份有限公司,63021629,07763000017053,臺北市內湖區安康路二二六巷十四號一樓,臺北市內湖區葫洲里,張華讓,22726288,股份有限公司,0770120,0770315,生產中,30汽車及其零件製造業、29機械設備製造業,303汽車零件、293通用機械設備,,汽車零件（汽門活塞導管汽缸套）加工，汽車,,121.603096,25.0626926
良祥企業有限公司,63021406,08263000020475,臺北市南港區忠孝東路六段一六一號二樓,臺北市南港區合成里,李文祥,86703676,有限公司,0821008,0821022,生產中,26電子零組件製造業,269其他電子零組件,,音響機板、電話機板,,121.58651,25.049
亞聲企業有限公司,63020459,07363000009232,臺北市北投區大度路三段二九六巷二十四號一、二樓,臺北市北投區一德里,黃添財,31256569,有限公司,0730227,0740330,生產中,25金屬製品製造業、28電力設備及配備製造業,259其他金屬製品、283電線及配線器材,http://www.acesound.com.tw,電池盒、電池扣,,121.466881,25.1242847
北球企業有限公司,63021517,08063000019347,臺北市內湖區新明路三二一巷十弄二十二號四樓,臺北市內湖區週美里,莊顯源,09472183,有限公司,0801023,0801115,生產中,12成衣及服飾品製造業,121成衣,,成衣,布料,121.585548,25.0568523
大我企業有限公司關渡一廠,63020436,07563000010906,臺北市北投區立功街八十巷三號二樓,臺北市北投區一德里,黃添寶,31253140,有限公司,0750801,0751013,生產中,28電力設備及配備製造業,283電線及配線器材,,電池扣,,121.469833,25.12546
弘宇鋁業有限公司,63021217,08163000020038,臺北市內湖區安康路二二八號一樓,臺北市內湖區葫洲里,邱朝鵬,20967747,有限公司,0810613,0810629,生產中,25金屬製品製造業,252金屬結構及建築組件,,鋁門、鋁窗,,121.603157,25.0629711
中陸企業有限公司,63020488,08163000019880,臺北市內湖區安康路二二八巷十一號一、二樓,臺北市內湖區葫洲里,許添安,22614636,有限公司,0810131,0810215,生產中,28電力設備及配備製造業,289其他電力設備及配備,,交通號誌組合,電線組製品、蜂巢、邊罩、罩製品,121.603226,25.06271
八通有限公司,63021114,07363000009404,臺北市南港區忠孝東路七段五八一號一樓,臺北市南港區中南里,朱維鈞,04831533,有限公司,0730131,0730409,生產中,27電腦、電子產品及光學製品製造業,275量測、導航、控制設備及鐘錶,http://www.taximeter.com.tw,電子式汽車裡程計費表、積體電路輻射線探測器,,121.614296,25.0531216
