工廠名稱,工廠登記編號,工廠設立許可案號,工廠地址,工廠市鎮鄉村里,工廠負責人姓名,統一編號,工廠組織型態,工廠設立核准日期,工廠登記核准日期,工廠登記狀態,產業類別,主要產品,WebURL,ProductName,Material,Longitude,Latitude
朝嘉塑膠有限公司,99660735,08810011305056,臺南市永康區南灣里大灣東路22巷78號,臺南市永康區南灣里,陳林罔留,16915851,有限公司,0880506,0880511,生產中,22塑膠製品製造業,220塑膠製品,,塑膠射出,,120.258614,22.9951134
芳榮米廠,99658067,06210000039996,臺南市後壁區長短樹里長短樹1號,臺南市後壁區長短樹里,張柏亮　,71216065,獨資,0620411,0620420,生產中,08食品製造業,086碾榖、磨粉及澱粉製品,,白米（１）芳榮白米－以在地農民生產之蓬萊米為原料、加工為散裝３０公斤妝商業用白米（２）芳榮禾家米－與農民契約合作種植的臺農７１號米（３）活力夯米－與農民契約合作種植的高雄１４５號米（４）禾雁米－與農民契約合作，採有機方式種植的臺南１４號米,稻穀－在地農民栽種之蓬萊稻穀、不分品種、立即低溫烘乾後、存放冷藏儲存桶、在依每日銷售量碾成白米銷售、與農民契約合作栽種的臺農７１號益全香米稻穀、與農民契約合作栽種的高雄１４５號活力夯米稻穀、與農民契約合作栽種的臺南１４號有米樂稻穀,120.330948,23.3674316
井昇股份有限公司二廠,99684191,,臺南市安定區安定里領寄22之1號1樓,臺南市安定區安定里,詹芳寓,84586168,股份有限公司,,0920717,生產中,28電力設備及配備製造業,281發電、輸電及配電機械,http://www.jsec-tw.com,控制盤、馬達控制中心、變頻器,,120.252922,23.1148739
欣岱實業股份有限公司二廠,99657753,08410000205169,臺南市官田區二鎮里工業西路31號,臺南市官田區二鎮里,王金助,69774583,股份有限公司,0840511,0850716,生產中,18化學原材料、肥料、氮化合物、塑橡膠原料及人造纖維製造業,184塑膠及合成橡膠原料,https://www.syndyne.com.tw/,電木積層板、合成樹脂,紙、布、樹脂、甲醇,120.32058,23.20909
聖發實業社,99661185,07610011083063,臺南市永康區塩行里中正一街25號,臺南市永康區塩行里,莊益銘　,08449544,獨資,0760722,0780222,生產中,27電腦、電子產品及光學製品製造業、28電力設備及配備製造業,277光學儀器及設備、285家用電器,,廚房用具（瓦斯爐，瓦斯鍋）組立,,120.24649,23.0347271
信裕興紙器廠有限公司,99675105,0AA99999000518,臺南市中西區文賢里文和街94號,臺南市中西區文賢里,陳森榮,84599311,有限公司,0600106,0600730,生產中,15紙漿、紙及紙製品製造業,152瓦楞紙板及紙容器,,紙盒,,120.191772,23.0031166
璟程小泉精機股份有限公司,67001037,,臺南市永康區蔦松里正北五路99號,臺南市永康區蔦松里,林璟萌,80402505,股份有限公司,,1031022,生產中,29機械設備製造業、31其他運輸工具及其零件製造業,291金屬加工用機械設備、292其他專用機械設備、293通用機械設備、312機車及其零件、313自行車及其零件、319未分類其他運輸工具及其零件,http://jc-technology.com.tw,金屬加工用機械設備，其他專用機械設備，通用機械設備,,120.2644,23.0507431
安發舖棉工業股份有限公司,99659917,07310011050602,臺南市仁德區太子里太子四街9號,臺南市仁德區太子里,陳炳安　　　,69928567,股份有限公司,0730515,0740724,生產中,11紡織業,113不織布、115紡織品,,縫定棉樹脂棉,,120.250366,22.9891987
南興汽車修理廠有限公司,67000167,,臺南市佳里區民安里同安寮72之18號,臺南市佳里區民安里,羅秋煌,24246243,有限公司,,1000826,生產中,30汽車及其零件製造業,302車體,,汽車修理,,120.192772,23.164257
原鐿鐵材行二廠,S6700267,,臺南市柳營區八翁里仁愛路407號,臺南市柳營區八翁里,石昇原,17237535,獨資,,1090715,生產中,25金屬製品製造業,253金屬容器,,,,,
佳及雅實業有限公司,99676943,,臺南市安南區理想里海佃路2段280號,臺南市安南區理想里,蕭雲程,16504127,有限公司,,0940408,生產中,32家具製造業,321非金屬家具,,金屬家具及裝設品,,120.189255,23.035553
台灣漿造工業有限公司,99660852,08510011312555,臺南市鹽水區飯店里麻油寮5之5號,臺南市鹽水區飯店里,莊令喻　　　,23128079,有限公司,0851220,0860429,生產中,19其他化學製品製造業,199未分類其他化學製品,,建築材料（塑鋼土、媒合漿、結構液）（泥漿用補強砌接劑）調配,土,120.212364,23.265007
富正應用材料股份有限公司,67000463,,臺南市安定區中沙里沙崙29號,臺南市安定區中沙里,周誠賢,53482771,股份有限公司,,1011011,生產中,19其他化學製品製造業,193清潔用品,,雨刷精,,120.211288,23.0734749
冠王股份有限公司,99657878,07910000184571,臺南市永康區王行里興工路13號,臺南市永康區王行里,謝秉錞　　　,69693034,股份有限公司,0791217,0800130,生產中,19其他化學製品製造業,193清潔用品,,清潔劑,,120.271332,23.04716
龍燈生物科技股份有限公司,99683199,,臺南市永康區埔園里龍埔街566號,臺南市永康區埔園里,羅大益　　,73034105,股份有限公司,,0590626,生產中,,,,殺蟲劑、除草劑,,120.2528,23.0355759
凱祥工程股份有限公司第一廠,99656213,,臺南市仁德區中生里中洲250之27號,臺南市仁德區中生里,楊少明,86608413,股份有限公司,,0900425,生產中,19其他化學製品製造業、29機械設備製造業,292其他專用機械設備、293通用機械設備、199未分類其他化學製品,,專用生產機械、污染防治設備,,120.251869,22.9047241
捷昇塑膠企業股份有限公司,99673137,06610000151831,臺南市南區彰南里新忠路33號,臺南市南區彰南里,魏漢波,69546786,股份有限公司,0660914,0691230,生產中,18化學原材料、肥料、氮化合物、塑橡膠原料及人造纖維製造業、33其他製造業,184塑膠及合成橡膠原料、331育樂用品,,塑膠粒,,120.179474,22.97914
凱陽精密股份有限公司,67002321,,臺南市永康區塩洲里中正二街205號,臺南市永康區塩洲里,許信安,24926945,股份有限公司,,1080319,生產中,25金屬製品製造業,251金屬刀具、手工具及模具,,,,,
登瑋塑膠實業股份有限公司,99706270,,臺南市七股區七股里38號,臺南市七股區七股里,曾振舜,80460407,股份有限公司,,0950424,生產中,22塑膠製品製造業,220塑膠製品,,塑膠製品（塑膠粒）,,120.130363,23.1345043
臺南市政府工務局安南瀝青拌合工廠,99676887,,臺南市安南區城北里安明路4段256號,臺南市安南區城北里,林志穎,69108505,其他,,0931118,生產中,17石油及煤製品製造業,170石油及煤製品,,瀝青混凝土、其他石油及煤製品,,120.134621,23.05834
利峰企業有限公司,67000404,,臺南市永康區王行里永科一路92號,臺南市永康區王行里,林文鐺,22580333,有限公司,,1010712,生產中,29機械設備製造業,293通用機械設備,,鋼棒、鋼管、鐵管,,120.278236,23.0437431
輔彥工業股份有限公司,99658031,07410000310831,臺南市仁德區保安里開發三路8號,臺南市仁德區保安里,陳弘展　,22207201,股份有限公司,0740103,0740605,生產中,29機械設備製造業、25金屬製品製造業,291金屬加工用機械設備,,滑臺,,120.2461,22.92225
台灣薄膜工業股份有限公司永科廠,67000762,,臺南市永康區王行里永科三路19號B棟1樓,臺南市永康區王行里,王勝志,22177255,股份有限公司,,1021209,生產中,22塑膠製品製造業,220塑膠製品,,塑膠袋、包裝紙,,120.279846,23.0416851
亞洲石材股份有限公司,99657847,08310011102934,臺南市新營區中營里開元路84之8號,臺南市新營區中營里,蔡清印　　　,89323094,股份有限公司,0830701,0840503,生產中,23非金屬礦物製品製造業,234石材製品,,花崗石製品,,120.329277,23.3134212
冠亞寵物食品有限公司,67001100,,臺南市柳營區人和里橋南228之11號,臺南市柳營區人和里,姜隆全,54570230,有限公司,,1031225,生產中,33其他製造業,339未分類其他製品,,其他製品,,120.311943,23.2913036
暉鎮興業有限公司,99657733,08810000811874,臺南市官田區二鎮里建業路15號,臺南市官田區二鎮里,溫金文,97057014,有限公司,0881102,0881227,生產中,17石油及煤製品製造業、25金屬製品製造業,170石油及煤製品、253金屬容器,,工業用潤滑油,,120.330185,23.2091675
曄瑒精機有限公司,99676919,,臺南市安南區新順里安和路2段318巷125弄39號,臺南市安南區新順里,侯松延,27486028,有限公司,,0940201,生產中,29機械設備製造業,291金屬加工用機械設備、293通用機械設備、292其他專用機械設備,,機械零件、金屬加工用機械、專用生產機械、通用機械設備、其他機,,120.219826,23.0432587
仙台藥品工業股份有限公司,99656825,07510000331785,臺南市新營區嘉芳里新工路35號A棟、35之1號,臺南市新營區嘉芳里,沈連貴美　,71078598,股份有限公司,0751223,0770917,生產中,20藥品及醫用化學製品製造業、19其他化學製品製造業,200藥品及醫用化學製品、194化粧品,http://www.sentai.com.tw,內服液劑、外用液劑、錠劑、西藥品,葡萄糖、維他命、製藥原料,120.281792,23.3023319
大麗企業社,99659773,08810011309583,臺南市仁德區一甲里太乙路83號,臺南市仁德區一甲里,林麗華,17241159,獨資,0880914,0881008,生產中,19其他化學製品製造業,193清潔用品、199未分類其他化學製品,,工業用清潔用品（脫脂劑）,,120.250076,22.9824238
福光企業股份有限公司,S6700259,,臺南市仁德區二行里中正西路202巷239號,臺南市仁德區二行里,張璞稜,73632361,股份有限公司,,1090714,生產中,25金屬製品製造業,259其他金屬製品,,,,,
鴻毅機械工業股份有限公司三廠,67000415,,臺南市永康區三民里和平東路151號,臺南市永康區三民里,阮連通,23717218,股份有限公司,,1010725,生產中,29機械設備製造業,291金屬加工用機械設備,,鋼板、ＰＰ板、槽鐵,,120.262764,23.0548477
秀山交通器材股份有限公司台南廠,99711215,,臺南市歸仁區看東里中山路1段185號,臺南市歸仁區看東里,楊秀川,03193109,股份有限公司,,0960625,生產中,30汽車及其零件製造業,303汽車零件,,汽車車燈,塑膠製品、線組、線路板、投射鏡組,120.305176,22.96483
允晨興業有限公司,67002253,,臺南市麻豆區油車里油車8之18號1樓,臺南市麻豆區油車里,陳周玉惠,74716326,有限公司,,1071225,生產中,11紡織業,115紡織品,,椅墊套子、抱枕套子、小套子,,120.244858,23.1881924
際翔精密機械有限公司,99657777,08510011312528,臺南市永康區尚頂里中正二街162巷40號,臺南市永康區尚頂里,楊旻展　　　,97269761,有限公司,0851219,0860214,生產中,25金屬製品製造業、29機械設備製造業,251金屬刀具、手工具及模具、293通用機械設備,,模具加工,,120.232948,23.0274982
裕芳珍食品行,S6700307,,臺南市安定區大同里大同115之1號,臺南市安定區大同里,葉雲章,21939740,獨資,,1090723,生產中,08食品製造業,089其他食品,,,,,
郁詠股份有限公司,99657432,08410011303943,臺南市永康區尚頂里塩信街62號,臺南市永康區尚頂里,陳美櫻　,89524395,股份有限公司,0840531,0840608,生產中,25金屬製品製造業,259其他金屬製品,,五金零件,,120.228127,23.0271645
順昌五金實業廠,67000754,,臺南市安南區安東里安和路一段288巷160號,臺南市安南區安東里,王宇翔,37590324,獨資,,1021125,生產中,25金屬製品製造業、26電子零組件製造業,259其他金屬製品、269其他電子零組件,,螺絲五金,,120.216705,23.0335255
德信建材有限公司,67002162,,臺南市後壁區後壁里後壁42之13號,臺南市後壁區後壁里,朱育賢,64878384,有限公司,,1070927,生產中,23非金屬礦物製品製造業,233水泥及其製品,,預拌混凝土,,120.3591,23.3607979
儀玳化妝品股份有限公司,99711498,,臺南市七股區義合里義合21之1號1樓,臺南市七股區義合里,方國忠,28931687,股份有限公司,,0970703,生產中,19其他化學製品製造業,194化粧品,,面膜,,120.149757,23.1088619
海吉兒實業有限公司,99661193,,臺南市鹽水區橋南里自立街1號2樓,臺南市鹽水區橋南里,毛寈寈,13008770,有限公司,,0911007,生產中,19其他化學製品製造業,194化粧品、192塗料、染料及顏料,,化妝品,,120.274818,23.3077278
德寶工安股份有限公司,S6700195,,臺南市歸仁區媽廟里和順路1段200號,臺南市歸仁區媽廟里,蔡江登,80321433,股份有限公司,,1090707,生產中,33其他製造業,332醫療器材及用品,,,,,
生旭紡織企業股份有限公司,99683949,,臺南市新市區港墘里國際路7號,臺南市新市區港墘里,呂慶忠,73677319,股份有限公司,,0920219,生產中,11紡織業,112織布,,織布,,120.2999,23.0785637
彬鴻食品有限公司台南廠,67001045,,臺南市南區彰南里新和路46號,臺南市南區彰南里,侯賢明,25044770,有限公司,,1031111,生產中,08食品製造業,081肉類加工、082水產加工、089其他食品,,肉類處理及其製品，水產處理及其製品，其他食品,,120.17569,22.9677258
香珍食品工業股份有限公司,99658248,08210000086526,臺南市佳里區漳洲里番子寮247之5號,臺南市佳里區漳洲里,楊明旗　　　,86958038,股份有限公司,0821213,0830106,生產中,08食品製造業,084動植物油脂,,麻油、花生油、苦茶油、香油,,120.154335,23.1806316
中強光電股份有限公司南科分公司第二廠,94B00162,,臺南市新市區豐華里環西路1段6號,臺南市新市區,林宗彥,13111346,本國公司之分公司,,1090528,生產中,26電子零組件製造業、27電腦、電子產品及光學製品製造業、28電力設備及配備製造業、31其他運輸工具及其零件製造業,264光電材料及元件、275量測、導航、控制設備及鐘錶、277光學儀器及設備、289其他電力設備及配備、319未分類其他運輸工具及其零件,,,,,
專宇實業社二廠,S6700276,,臺南市安南區原佃里本原街一段41巷56、58號,臺南市安南區原佃里,林鈺娥,06655912,合夥,,1090715,生產中,22塑膠製品製造業,220塑膠製品,,,,,
運通工業股份有限公司善化廠,67002032,,臺南市善化區小新里小新營342號,臺南市善化區小新里,李淵溪,69635014,股份有限公司,,1070413,生產中,25金屬製品製造業,259其他金屬製品,http://www.wingtone.com.tw/,特殊螺帽．汽車扣件,,120.31955,23.1200752
俊億模具企業有限公司,99711812,,臺南市永康區塩行里正南三路230號,臺南市永康區塩行里,黃龍山,28166261,有限公司,,0980911,生產中,25金屬製品製造業,251金屬刀具、手工具及模具,,模具製造,,120.234314,23.0322189
新世發肥料有限公司,99659255,,臺南市官田區二鎮里工業南路23號,臺南市官田區二鎮里,李榮展,16901878,有限公司,,0910613,生產中,18化學原材料、肥料、氮化合物、塑橡膠原料及人造纖維製造業,183肥料及氮化合物,,肥料,,120.3257,23.2030182
全宏化妝品國際開發有限公司,99711824,,臺南市西港區西港里中山路480號,臺南市西港區西港里,鄭德勝,24383219,有限公司,,0981001,生產中,19其他化學製品製造業,194化粧品,,清潔用品,,120.201859,23.12868
台麗塑膠股份有限公司,67000261,,臺南市仁德區土庫里大順路81號,臺南市仁德區土庫里,羅文志,23373972,股份有限公司,,1001223,生產中,18化學原材料、肥料、氮化合物、塑橡膠原料及人造纖維製造業,184塑膠及合成橡膠原料,,其他未列名塑膠製品,,120.253807,22.9859848
華江醫療儀器股份有限公司工廠,99673415,08510000409020,臺南市南區彰南里新愛路23之1號,臺南市南區彰南里,鄭東松,69722158,股份有限公司,0850924,0851018,生產中,11紡織業、12成衣及服飾品製造業,121成衣、115紡織品,,人工腎臟,,120.179993,22.9743938
隆鑫塑膠實業有限公司一廠,99727606,,臺南市仁德區一甲里忠義二街9號,臺南市仁德區一甲里,盧建安,28034190,有限公司,,0990723,生產中,22塑膠製品製造業,220塑膠製品,,ＰＶＣ收縮管、ＰＶＣ收縮膜,,120.258514,22.9787655
東陽實業廠股份有限公司九廠,99673840,08510021000105,臺南市安南區安東里政安路250巷202號,臺南市安南區安東里,吳永豐,68326665,股份有限公司,0850408,0870122,生產中,25金屬製品製造業、30汽車及其零件製造業,254金屬加工處理、303汽車零件,http://WWW.TYG.COM.TW,汽車機車零件,,120.219376,23.039135
農作發生物科技股份有限公司一廠,99709634,,臺南市永康區塩行里中正南路490巷38號Ｂ棟,臺南市永康區塩行里,江築庭,13068988,股份有限公司,,0951012,生產中,18化學原材料、肥料、氮化合物、塑橡膠原料及人造纖維製造業,183肥料及氮化合物,,液態肥料,,120.233963,23.0331249
新三益實業社工廠,S6700196,,臺南市歸仁區七甲里南潭三街32號,臺南市歸仁區七甲里,沈盈洲,74956373,獨資,,1090708,生產中,22塑膠製品製造業,220塑膠製品,,,,,
和順興興業股份有限公司,99683714,08410011307685,臺南市永康區東橋里中山南路365巷2之44號,臺南市永康區東橋里,郭遵道,89646067,股份有限公司,0840807,0840821,生產中,25金屬製品製造業,251金屬刀具、手工具及模具,,模具加工,五金零件,120.247246,23.0234337
唯鑫縫製設備股份有限公司,67002663,,臺南市仁德區仁義里林頂街17號,臺南市仁德區仁義里,吳戊昌,28304497,股份有限公司,,1090408,生產中,29機械設備製造業,292其他專用機械設備,,,,,
錦興齒輪機械廠有限公司,99683712,,臺南市永康區尚頂里中正南路325號,臺南市永康區尚頂里,歐陽立勳　,73376480,有限公司,,0590910,生產中,29機械設備製造業,293通用機械設備,,齒輪、各種機械,鋼鐵料,120.22261,23.0277977
鎧維機械有限公司,99675090,08010021000664,臺南市安南區安順里開安四街27號,臺南市安南區安順里,黃莉惠,86979054,有限公司,0800805,0811231,生產中,29機械設備製造業、25金屬製品製造業,292其他專用機械設備、251金屬刀具、手工具及模具,,壓出機,鋼鐵,120.226524,23.0484257
雍御企業股份有限公司台南廠,67002490,,臺南市關廟區埤頭里關新路一段288號,臺南市關廟區埤頭里,黄建享,27641128,股份有限公司,,1080821,生產中,30汽車及其零件製造業,301汽車、303汽車零件,,未分類其他運輸工具及其零件,,120.31218,22.9823
聖為企業股份有限公司,99660083,07710011025922,臺南市仁德區土庫里太乙路60號,臺南市仁德區土庫里,陳文慧,22494230,股份有限公司,0770314,0770409,生產中,21橡膠製品製造業、29機械設備製造業,210橡膠製品、293通用機械設備,,墊圈,,120.2517,22.9825668
百豐真空工業有限公司,99673554,07710000285668,臺南市安南區安東里安和路2段150巷53號,臺南市安南區安東里,郭桓銘,22928783,有限公司,0771216,0790703,生產中,25金屬製品製造業,254金屬加工處理,,真空鍍金,,120.216766,23.0399837
致富鋁業股份有限公司,99705724,,臺南市安南區鹽田里工業二路68號,臺南市安南區,陳維華,27812213,股份有限公司,,0950811,生產中,24基本金屬製造業,242鋁,,鋁擠型,,120.148247,23.04261
元能股份有限公司,99676955,,臺南市安南區鹽田里科技三路36號,臺南市安南區,魏子夏,89565917,股份有限公司,,0940518,生產中,24基本金屬製造業,241鋼鐵,,不銹鋼線材,不銹鋼線材,120.142464,23.0422058
愛迪克科技股份有限公司科工廠,67001158,,臺南市安南區顯宮里工業五路57號,臺南市安南區顯宮里,吳大和,84164842,股份有限公司,,1040226,生產中,19其他化學製品製造業,199未分類其他化學製品,http://www.itk.com.tw,油墨、樹脂,,120.139526,23.0419426
宏益化學社,99659637,08610000806116,臺南市仁德區土庫里太乙十二街32號,臺南市仁德區土庫里,陳俊雄　　　,20357610,獨資,0860730,0860909,生產中,19其他化學製品製造業,194化粧品,,洗髮精、洗衣乳（精）,,120.250748,22.9844379
萊特美生化股份有限公司,99657671,07410000299872,臺南市新營區忠政里府西路62之3號,臺南市新營區忠政里,林世龍　　　,06539251,股份有限公司,0741111,0741202,生產中,19其他化學製品製造業,194化粧品,,化粧品（油劑、液劑、乳劑、粉劑、油膏劑）,,120.313789,23.313942
金凱富體育器材有限公司工廠,S6700102,,臺南市安南區佃東里公學路4段2巷113號,臺南市安南區佃東里,許春福,84852313,有限公司,,1090716,生產中,33其他製造業,331育樂用品,,,,,
元展輸送機械廠安定廠,S6700381,,臺南市安定區新吉里新吉283之2號,臺南市安定區新吉里,莊曉茜,06595491,獨資,,1090806,生產中,29機械設備製造業,293通用機械設備,,,,,
虹泰生醫股份有限公司,99711641,,臺南市仁德區太子里大利路56號,臺南市仁德區太子里,梁金生,29126963,股份有限公司,,0971212,生產中,19其他化學製品製造業、33其他製造業,194化粧品、332醫療器材及用品,,低週波治療器,,120.254524,22.9879627
美家好企業股份有限公司,99676984,,臺南市安南區鹽田里科技五路155號,臺南市安南區,謝新德,86990255,股份有限公司,,0940823,生產中,28電力設備及配備製造業,285家用電器,http://www.megahome.com.tw,家用電器,,120.135979,23.0325928
建全實業有限公司,67001897,,臺南市南區彰南里新義南路45號,臺南市南區彰南里,高鐸恩,64319002,有限公司,,1061017,生產中,33其他製造業,339未分類其他製品,,塑膠製品,,120.176987,22.9683876
住華科技股份有限公司南科二廠,94B00233,,"臺南市新市區環西路1段3號(FAB7 1樓A、C區及3樓B區及TOC FAB_5FA區、SUP 2F_B、C區、SUP 1F_D區)",臺南市新市區,枝松邦茂,70848177,股份有限公司,,1000623,生產中,,,http://www.sumika.com.tw,偏光板，鋁靶材,,120.274796,23.0905724
台灣捷恩智股份有限公司,94A00212,,臺南市善化區南關里大利三路3號,臺南市善化區南關里,王燕清,70359629,股份有限公司,,0960209,生產中,19其他化學製品製造業,199未分類其他化學製品,http://www.jnc-corp.com.tw/,液晶聚合物,,120.274124,23.1197948
尚益冰品廠,99658611,07510011023037,臺南市學甲區三慶里新芳41之1號,臺南市學甲區三慶里,李尚家　　,06628726,獨資,0750306,0750319,生產中,08食品製造業,089其他食品,,冰棒拔出機、包裝機、冰淇淋機,,120.192482,23.2782345
高群鈑金科技股份有限公司永康廠,99684669,,臺南市永康區三民里民東路59號,臺南市永康區三民里,呂宏居,80456121,股份有限公司,,0940302,生產中,25金屬製品製造業,254金屬加工處理、259其他金屬製品,,鋼鐵、其他金屬製品,,120.265167,23.0535755
茂宏股份有限公司,67000169,,臺南市關廟區下湖里關新路一段270號,臺南市關廟區下湖里,謝成發,89567942,股份有限公司,,1000831,生產中,25金屬製品製造業、25金屬製品製造業,259其他金屬製品,,鏈條,,120.313179,22.9818783
奇立實業股份有限公司二廠,67002735,,臺南市新營區嘉芳里五福路21號,臺南市新營區嘉芳里,黃鐘平,89985185,股份有限公司,,1090624,生產中,29機械設備製造業,293通用機械設備,,,,,
中興藥品工業股份有限公司,99674358,0AA99999000214,臺南市東區和平里東門路3段98巷11號,臺南市東區和平里,林國賢,68130901,股份有限公司,0501101,0590103,生產中,20藥品及醫用化學製品製造業、08食品製造業,087動物飼品、200藥品及醫用化學製品,,動物用藥,,120.23233,22.978529
順通水泥製品股份有限公司,99657848,08710011310512,臺南市永康區塩行里中正北路318巷29號,臺南市永康區塩行里,吳俊良　　　,22964921,股份有限公司,0871007,0880728,生產中,23非金屬礦物製品製造業,233水泥及其製品,,水泥製品、預鑄人孔、手孔、預鑄胸牆、四迴線型４２,,120.2499,23.03917
仁有機械有限公司,99674106,07410021001770,臺南市安南區東和里長和路1段823巷132號,臺南市安南區東和里,唐王雪微,22272048,有限公司,0740911,0740925,生產中,29機械設備製造業,292其他專用機械設備,,其他食品機械,,120.227386,23.0593224
榮展油品企業股份有限公司,99660419,07310011041019,臺南市仁德區一甲里太乙一街46號,臺南市仁德區一甲里,陳振榮　　　,69702744,股份有限公司,0730426,0740523,生產中,19其他化學製品製造業,199未分類其他化學製品,,臘、牛油,,120.254784,22.980423
高宏盛實業有限公司,67000952,,臺南市安南區新順里開安一街8巷15弄27號,臺南市安南區新順里,莊寶桂,97193783,有限公司,,1030729,生產中,22塑膠製品製造業,220塑膠製品,,塑膠製品,,120.225052,23.0456619
世洋綜合實業股份有限公司,99657682,08110011117376,臺南市新營區中營里東山路21號,臺南市新營區中營里,魏守正　　　,86821998,股份有限公司,0810828,0811230,生產中,22塑膠製品製造業,220塑膠製品,,塑膠硬管、預拌混凝土,,120.325409,23.3089485
冠美科技股份有限公司三廠,99676736,,臺南市安南區安東里安和路2段54巷20號,臺南市安南區安東里,鍾進生,68456110,股份有限公司,,0920808,生產中,22塑膠製品製造業,220塑膠製品,,塑膠製品、機車零件,,120.21505,23.0375023
南晃交通器材工業股份有限公司,99705868,,臺南市安南區鹽田里科技三路60號,臺南市安南區,鄭丞焜,69304529,股份有限公司,,0961026,生產中,30汽車及其零件製造業、31其他運輸工具及其零件製造業,303汽車零件、312機車及其零件、313自行車及其零件,https://www.nhc-brakes.com/zh-tw/,剎車片、離合器,鐵片、鋁材,120.141075,23.040638
生泰工業股份有限公司,99674200,06110000043260,臺南市安南區安東里安和路2段54巷223號,臺南市安南區安東里,蔡全泰,70011711,股份有限公司,0610531,0611227,生產中,25金屬製品製造業、22塑膠製品製造業、24基本金屬製造業,259其他金屬製品、252金屬結構及建築組件、220塑膠製品、242鋁,,鋁（錠、板、合金），鋁質建築材,,120.216888,23.0359383
谷直企業有限公司,99675146,06610000003084,臺南市安南區幸福里府安路6段55號,臺南市安南區幸福里,吳壁政,69311492,有限公司,0660107,0660706,生產中,29機械設備製造業,293通用機械設備,,五金零件加工（機械零件為主，眼鏡零件也有）,,120.189484,23.0190716
典雅實業廠股份有限公司,99674526,07710021000655,臺南市安南區新順里安和路2段318巷125弄211號,臺南市安南區新順里,陳柏勳,22672086,股份有限公司,0770506,0790412,生產中,25金屬製品製造業,254金屬加工處理,,金屬製品表面電鍍,銅、硫酸鎳、化學藥劑,120.220139,23.0443554
宏隆齒輪機器廠股份有限公司,99658703,08410011307481,臺南市新化區護國里中山路43號,臺南市新化區護國里,陳李震祥　　,69571882,股份有限公司,0840719,0840913,生產中,29機械設備製造業、25金屬製品製造業、30汽車及其零件製造業、31其他運輸工具及其零件製造業,259其他金屬製品、293通用機械設備、291金屬加工用機械設備、251金屬刀具、手工具及模具、292其他專用機械設備、303汽車零件、312機車及其零件、313自行車及其零件,,齒磨,,120.317268,23.045948
昇皓技研股份有限公司,99684270,,臺南市仁德區土庫里太乙路1Ｏ6號,臺南市仁德區土庫里,張佩蓉,80484180,股份有限公司,,0921024,生產中,24基本金屬製造業,241鋼鐵,,不銹鋼細線,,120.249855,22.9849167
鑫萬鑫企業有限公司,67001946,,臺南市永康區尚頂里中正二街176號,臺南市永康區尚頂里,葉俊霆,80040378,有限公司,,1061211,生產中,29機械設備製造業、30汽車及其零件製造業、31其他運輸工具及其零件製造業,293通用機械設備、303汽車零件、312機車及其零件、313自行車及其零件,,其他金屬製品製造,,120.233162,23.0292072
永鈦機械有限公司,99711630,,臺南市永康區南灣里大灣東路22巷13號,臺南市永康區南灣里,陳明發,28963152,有限公司,,0971202,生產中,29機械設備製造業,291金屬加工用機械設備,,壓鑄機,,120.259819,22.9975319
三益鐵材加工所,99657200,06410000070195,臺南市柳營區人和里橋南203之1號,臺南市柳營區人和里,石韙馼　,90992109,獨資,0640602,0660314,生產中,25金屬製品製造業,254金屬加工處理,,鐵材加工,,120.311966,23.29182
欣聲實業有限公司,99674620,07410021002327,臺南市安南區國安里國安街236巷5號,臺南市安南區國安里,陳志欣,06497843,有限公司,0741203,0741216,生產中,26電子零組件製造業,269其他電子零組件,,接頭、電子零件,,120.185417,23.0221348
興榮製漆工業有限公司,99683246,07110000070475,臺南市西港區西港里堀子頭75之1號,臺南市西港區西港里,徐旺籐　　　,74709887,有限公司,0710313,0710412,生產中,19其他化學製品製造業,192塗料、染料及顏料,,水性水泥漆,,120.206764,23.117157
新利得塑膠實業有限公司,99706302,,臺南市安定區中沙里中崙174號,臺南市安定區中沙里,蔡王淑鳳,28327549,有限公司,,0950614,生產中,22塑膠製品製造業、30汽車及其零件製造業、31其他運輸工具及其零件製造業,220塑膠製品、303汽車零件、312機車及其零件,,汽車零件,,120.209366,23.0747662
隆興螺絲股份有限公司,99683516,08110011102483,臺南市北門區慈安里三寮灣474號,臺南市北門區慈安里,黃郁珺　,86757790,股份有限公司,0810729,0810805,生產中,25金屬製品製造業,259其他金屬製品,,螺絲,,120.110863,23.2394714
榆元企業有限公司,99684747,,臺南市西港區西港里文化路69巷7號,臺南市西港區西港里,陳文進,27287082,有限公司,,0940621,生產中,14木竹製品製造業,140木竹製品,,相框,,120.20517,23.12794
明龍興機械有限公司,99657261,08310011012424,臺南市永康區三民里三民街90巷5號,臺南市永康區三民里,蔡明宗　,84613670,有限公司,0830202,0830204,生產中,29機械設備製造業,292其他專用機械設備,,發泡機、製管機、地毯貼合機等裝配及零件,,120.248512,23.0526886
柏塏企業有限公司,67001330,,臺南市仁德區土庫里太乙路66號,臺南市仁德區土庫里,林家宇,24230404,有限公司,,1041029,生產中,30汽車及其零件製造業、31其他運輸工具及其零件製造業,303汽車零件、312機車及其零件,,晴雨窗,壓克力板,120.25106,22.9825878
台灣愛佳科技股份有限公司,99711925,,臺南市關廟區五甲里大順路156號,臺南市關廟區五甲里,蔡皓仲,80046582,股份有限公司,,0990402,生產中,25金屬製品製造業,254金屬加工處理,,金屬表面處理,,120.329849,22.9479771
長虹光學企業股份有限公司,99705891,,臺南市南區彰南里新信路13之1號,臺南市南區彰南里,陳志龍,23377153,股份有限公司,,0961227,生產中,33其他製造業,332醫療器材及用品,,工業用安全眼鏡,,120.178505,22.97239
南益有限公司分廠,99705942,,臺南市南區彰南里新義路39號,臺南市南區彰南里,王月霞,22815182,有限公司,,0970613,生產中,25金屬製品製造業,252金屬結構及建築組件,,鐵厝架、捲門各種,,120.17704,22.9697647
元赫金屬有限公司,99705833,,臺南市南區佛壇里興南街389號,臺南市南區佛壇里,陳埏華,28647727,有限公司,,0960706,生產中,25金屬製品製造業、30汽車及其零件製造業、31其他運輸工具及其零件製造業,252金屬結構及建築組件、303汽車零件、312機車及其零件,,金屬製品、汽車零件,,120.180763,22.9186668
新武國際有限公司,67002607,,臺南市仁德區仁義里林頂街3之3號,臺南市仁德區仁義里,劉英武,54080629,有限公司,,1090113,生產中,08食品製造業,087動物飼品,,,,,
見康食品有限公司工廠,67001048,,臺南市東區龍山里富德街60號,臺南市東區龍山里,洪光珠,25188591,有限公司,,1031201,生產中,08食品製造業,089其他食品,,其他食品,,120.223869,22.9846725
乙太機械股份有限公司,99656310,07710011137708,臺南市永康區尚頂里塩信街146巷38號,臺南市永康區尚頂里,李孟宏　　,73635374,股份有限公司,0771125,0790214,生產中,29機械設備製造業、22塑膠製品製造業,220塑膠製品、292其他專用機械設備,,白車刀、螺絲刀片、車牙機、加工機,,120.230896,23.0289326
煌晟股份有限公司,99657690,07810000283154,臺南市永康區王行里環工路33號,臺南市永康區王行里,陳璽元　　,42918159,有限公司,0780821,0790611,生產中,25金屬製品製造業,254金屬加工處理,,金屬浪板,,120.272369,23.0448112
台灣達伯耐企業股份有限公司工廠,99659075,08110011162893,臺南市將軍區北埔里北埔111號,臺南市將軍區北埔里,浦川馬克　　,86383245,股份有限公司,0811118,0811123,生產中,30汽車及其零件製造業、31其他運輸工具及其零件製造業、25金屬製品製造業,303汽車零件、312機車及其零件、254金屬加工處理,,汽車另件，機車另件,,120.147804,23.2187576
麒宏企業有限公司,99711211,,臺南市西港區西港里中山路512號,臺南市西港區西港里,黄進財,84957251,有限公司,,0960620,生產中,29機械設備製造業,293通用機械設備,,固定式起重機設備製造,Ｈ型鋼、鐵板、鋼軌、工業鐵,120.200645,23.1327572
正順鋼模有限公司,S6700284,,臺南市官田區社子里六双12之1號,臺南市官田區社子里,吳文芳,86556127,有限公司,,1091117,生產中,25金屬製品製造業,251金屬刀具、手工具及模具,,,,,
清豐商店,S6700149,,臺南市後壁區嘉民里上茄苳214之120號,臺南市後壁區嘉民里,賴福來,06557193,獨資,,1090630,生產中,08食品製造業,089其他食品,,,,,
峻晟實業股份有限公司,67000173,,臺南市永康區龍潭里龍橋街93巷50號,臺南市永康區龍潭里,林嘉惠,24325990,股份有限公司,,1000905,生產中,32家具製造業,321非金屬家具,,石材廚具,,120.264862,23.0350819
日昌興電鍍股份有限公司,99674815,07710021001488,臺南市安南區安順里安和路4段36巷200弄45號,臺南市安南區安順里,黃俊雄,23215572,股份有限公司,0771003,0781211,生產中,25金屬製品製造業,254金屬加工處理,,五金零配件電鍍,,120.223335,23.0505142
永裕昌機械有限公司,99684173,,臺南市善化區坐駕里建國路43號壹樓,臺南市善化區坐駕里,王麗惠,23976170,有限公司,,0920625,生產中,29機械設備製造業,292其他專用機械設備,,其他專用生產機械加工維修,,120.297157,23.12762
贏美塑膠製品股份有限公司一廠,99673393,07710000253714,臺南市南區彰南里新義南路11號,臺南市南區彰南里,王清珍,69819168,股份有限公司,0770720,0770802,生產中,22塑膠製品製造業、25金屬製品製造業,220塑膠製品、251金屬刀具、手工具及模具,,塑膠製品（茶杯、水壼、盒）,,120.181313,22.9686069
宏昕電機股份有限公司永康廠,99684428,,臺南市永康區南灣里永大路一段130號1樓及128號2樓A棟,臺南市永康區南灣里,黃陳錦治,73122803,股份有限公司,,0930511,生產中,25金屬製品製造業,259其他金屬製品,,其他金屬製品,鐵材、鋼材,120.258827,22.9961586
信立化學工業股份有限公司第四廠,99656345,08210011001915,臺南市學甲區新達里興業路99號,臺南市學甲區新達里,林敬隆,72104709,股份有限公司,0820106,0830224,生產中,22塑膠製品製造業,220塑膠製品,http://www.hsinli.com.tw,ＰＵ合成皮,布、助劑、樹脂,120.192467,23.2421951
漢泰國際電子股份有限公司永科廠,67001971,,臺南市永康區王行里永科環路185號,臺南市永康區王行里,藍登祥,53386432,股份有限公司,,1070112,生產中,25金屬製品製造業,254金屬加工處理,,光電及半導體生產機臺修復加工,,120.275833,23.0361462
曼馱有限公司安通廠,67001283,,臺南市安南區新順里安通路2段2號B區,臺南市安南區新順里,陳東榮,27899323,有限公司,,1040826,生產中,08食品製造業,089其他食品,,小饅頭銀絲捲奶黃包,,120.224258,23.0428925
吉耐久企業有限公司,99658888,08810011301238,臺南市永康區三民里中正北路981號,臺南市永康區三民里,鄭泰宗,16717487,有限公司,0880127,0881002,生產中,28電力設備及配備製造業、33其他製造業,285家用電器、331育樂用品,,釣具,,120.27092,23.0535545
世益工業社,99706026,,臺南市南區佛壇里興南街435號,臺南市南區佛壇里,葉華榮,25772593,獨資,,0980702,生產中,25金屬製品製造業,254金屬加工處理,,金屬製品表面處理,,120.1802,22.9177074
北安消防工程有限公司,67000445,,臺南市安南區布袋里工明南二路68號,臺南市安南區布袋里,吳炫毅,54059962,有限公司,,1010910,生產中,29機械設備製造業,293通用機械設備,,滅火器、消防器材等,,120.20639,23.0589314
羅一國際股份有限公司第一廠,99661149,08210011088790,臺南市永康區南灣里大灣東路22巷130號,臺南市永康區南灣里,楊順天　　　,86956947,股份有限公司,0820702,0830824,生產中,21橡膠製品製造業、22塑膠製品製造業、33其他製造業,210橡膠製品、220塑膠製品、332醫療器材及用品,,鏡片,,120.258232,22.9944267
渼爾康化粧品股份有限公司永康一廠,99660759,09010000000357,臺南市永康區塩行里塩和街178號,臺南市永康區塩行里,郭素珍,12719490,股份有限公司,0900120,0900322,生產中,19其他化學製品製造業,194化粧品,,,,,
豐興製冰廠,99683710,,臺南市白河區永安里中山路1之23號,臺南市白河區永安里,林雅華　　　,72021525,獨資,,0591101,生產中,33其他製造業,339未分類其他製品,,冰塊,,120.414169,23.3479633
統舜工業股份有限公司,99659502,06710000213409,臺南市仁德區一甲里忠義一街66號,臺南市仁德區一甲里,蔡明政,22282284,股份有限公司,0670823,0680407,生產中,28電力設備及配備製造業、29機械設備製造業、30汽車及其零件製造業、31其他運輸工具及其零件製造業,285家用電器、293通用機械設備、311船舶及浮動設施、303汽車零件,,其他金屬建築組件,,120.257423,22.9766159
良輝塑膠工業股份有限公司,99673060,06710000041580,臺南市南區彰南里新信路3號,臺南市南區彰南里,歐政良,68270521,股份有限公司,0670318,0710203,生產中,22塑膠製品製造業,220塑膠製品,,塑膠粒、染色ＰＥ波覆粉、塑膠粒染色加工,,120.18264,22.9729824
信宏科技製藥股份有限公司,99676620,,臺南市南區彰南里新信路5號A棟,臺南市南區彰南里,蔡明堂,12882210,股份有限公司,,0920107,生產中,20藥品及醫用化學製品製造業,200藥品及醫用化學製品,,中藥品,中藥材,120.181534,22.97247
昱森企業有限公司歸仁廠,S6700043,,臺南市歸仁區沙崙里沙崙522號,臺南市歸仁區沙崙里,郭慶惠,72060744,有限公司,,1090611,生產中,14木竹製品製造業,140木竹製品,,,,,
信寶顏料有限公司,99657003,08010011117584,臺南市歸仁區南保里民生南街1段63號,臺南市歸仁區南保里,李正德　　,73662322,有限公司,0800924,0820625,生產中,19其他化學製品製造業、33其他製造業,199未分類其他化學製品、339未分類其他製品,,化工顏料,,120.281227,22.9664
鳳瑋企業有限公司三廠,S6700031,,臺南市永康區建國里大灣路942巷371弄115號B棟,臺南市永康區建國里,黃清萬,84655777,有限公司,,1090609,生產中,25金屬製品製造業,252金屬結構及建築組件,,,,,
盈珈實業有限公司,67001151,,臺南市安南區大安里16鄰義安街151號1樓,臺南市安南區大安里,王容玉,54563272,有限公司,,1040217,生產中,29機械設備製造業,291金屬加工用機械設備,,車床零件,,120.195251,23.0334167
詠勝昌股份有限公司仁德廠,67002357,,臺南市仁德區一甲里中正路3段209號,臺南市仁德區一甲里,吳書杰,16696080,股份有限公司,,1080423,生產中,30汽車及其零件製造業,303汽車零件,http://www.newsworldwu.com.tw,汽車零件（橡膠頭、高壓線、電木棒、端子、分電盤蓋）,端子．矽橡膠．鍍錫線．ＰＢＴ,120.254051,22.97753
崴頓企業社,67002680,,臺南市新市區大營里豐榮189之126號,臺南市新市區大營里,沈世仁,94974912,獨資,,1090422,生產中,25金屬製品製造業,254金屬加工處理,,,,,
大南方資源再生股份有限公司麻豆廠,99684860,,臺南市麻豆區麻口里麻豆口10之4號,臺南市麻豆區麻口里,陳福松,27224616,股份有限公司,,0941003,生產中,25金屬製品製造業,254金屬加工處理,,鋼鐵,,120.221176,23.1777134
捷篁企業社,67001759,,臺南市新市區大營里豐榮50之3號1樓,臺南市新市區大營里,吳柏憲,94973667,獨資,,1060426,生產中,28電力設備及配備製造業,283電線及配線器材,,金屬線製品製造金屬線製品加工,電線電纜連接器,120.303833,23.0879478
廣翰企業有限公司,99657397,08310000604429,臺南市安定區港南里港口240之6號,臺南市安定區港南里,邱鳳嬌,85041740,有限公司,0831114,0850307,生產中,23非金屬礦物製品製造業,239其他非金屬礦物製品,,瀝青混凝土,,120.235374,23.0904427
鑫昶機械工業股份有限公司仁德廠,S6700233,,臺南市仁德區田厝里田厝二街170巷82號,臺南市仁德區田厝里,吳昭慶,22090407,股份有限公司,,1090714,生產中,29機械設備製造業,292其他專用機械設備,,,,,
一心實業廠有限公司,99658613,07410011145306,臺南市永康區新樹里中山北路762巷9號,臺南市永康區新樹里,吳明錚　　　,86978822,有限公司,0741203,0741216,生產中,18化學原材料、肥料、氮化合物、塑橡膠原料及人造纖維製造業,181化學原材料,,明礬粉、聚氯化鋁、燒明礬粉加工,,120.280556,23.0301132
將頂科技有限公司安定廠,S6700692,,臺南市安定區港尾里港子尾64之8號,臺南市安定區港尾里,王樹常,28764604,有限公司,,1091124,生產中,25金屬製品製造業、30汽車及其零件製造業、31其他運輸工具及其零件製造業,254金屬加工處理、303汽車零件、313自行車及其零件,,,,,
晧成企業有限公司,67001257,,臺南市新市區永就里中山路271巷16號,臺南市新市區永就里,黃聰文,54571646,有限公司,,1040717,生產中,30汽車及其零件製造業、31其他運輸工具及其零件製造業、29機械設備製造業,303汽車零件、312機車及其零件、293通用機械設備,,機車其他金屬製品製造批發,,120.286,23.0638523
宏源工業有限公司歸仁廠,S6700363,,臺南市歸仁區七甲里南潭三街11號,臺南市歸仁區七甲里,潘貞麟,24206397,有限公司,,1090812,生產中,21橡膠製品製造業,210橡膠製品,,,,,
永良商行,S6700139,,臺南市東山區東中里新東路二段59號,臺南市東山區東中里,吳惠瑛,78470105,獨資,,1090622,生產中,08食品製造業,089其他食品,,,,,
鋒鑫鋁業股份有限公司,99656765,06110000039330,臺南市仁德區土庫里太子路169號,臺南市仁德區土庫里,盧友義,73730671,股份有限公司,0610505,0611122,生產中,24基本金屬製造業,242鋁,,鋁擠型,,120.263908,22.991169
東盟開發實業股份有限公司學甲廠,99656369,08010000320531,臺南市學甲區秀昌里13鄰1秀155號,臺南市學甲區秀昌里,羅國瑞,88121697,股份有限公司,0800826,0830917,生產中,24基本金屬製造業,241鋼鐵,http://www.tungmung.com.tw,冷軋不銹鋼板、片、捲及扁條、鋼鐵板片捲,黑皮熱軋不銹鋼捲,120.168556,23.2612667
立泉科技有限公司台南廠,67002408,,臺南市安南區安順里安和路4段36巷45號B棟,臺南市安南區安順里,蘇明泉,28344152,有限公司,,1080617,生產中,25金屬製品製造業,251金屬刀具、手工具及模具,,,,,
僑太工業有限公司善化廠,67002554,,臺南市善化區小新里小新營320之1號,臺南市善化區小新里,莊俊瑋,89677201,有限公司,,1081115,生產中,25金屬製品製造業,252金屬結構及建築組件,,金屬結構及建築組件,,120.319267,23.1252556
有泰模具企業社,67000774,,臺南市安南區新順里北安路三段775號1樓,臺南市安南區新順里,陳冠宏,10119061,獨資,,1021227,生產中,25金屬製品製造業,251金屬刀具、手工具及模具,,模具,,120.211327,23.0487366
美信塑膠股份有限公司仁德廠,99711618,,臺南市仁德區保安里二仁路1段158號,臺南市仁德區保安里,方志川,13022111,股份有限公司,,0971111,生產中,22塑膠製品製造業,220塑膠製品,,塑膠容器,塑膠粒,120.223663,22.9246082
新生化粧品工廠,99658658,06310000178958,臺南市佳里區佳化里佳里興46之1號,臺南市佳里區佳化里,陳楊秀葉　　,74334501,獨資,0631227,0640429,生產中,19其他化學製品製造業,194化粧品,,乳劑、液劑、油劑、膏劑,,120.19413,23.1893749
台灣杉化股份有限公司,67001130,,臺南市永康區新樹里中山北路630號,臺南市永康區新樹里,江博助,12714349,股份有限公司,,1040204,生產中,25金屬製品製造業、22塑膠製品製造業,253金屬容器、259其他金屬製品、220塑膠製品,,維修清洗,,120.277084,23.0304356
欣可化工股份有限公司官田廠,99657159,07110000190243,臺南市官田區二鎮里工業西路25、27號,臺南市官田區二鎮里,魏新浮　　　,72198121,股份有限公司,0710831,0730723,生產中,18化學原材料、肥料、氮化合物、塑橡膠原料及人造纖維製造業,181化學原材料,,磷酸,,120.320419,23.20821
天有貿易股份有限公司民東廠,99684781,,臺南市永康區三民里民東路33號,臺南市永康區三民里,謝秀霞,86077941,股份有限公司,,0940725,生產中,19其他化學製品製造業,193清潔用品,,清潔用品,,120.262985,23.0534954
金益銲條實業有限公司,99675208,07510000282498,臺南市南區佛壇里興南街378號,臺南市南區佛壇里,林麗香,06385501,有限公司,0751120,0820720,生產中,24基本金屬製造業、25金屬製品製造業,254金屬加工處理、243銅、249其他基本金屬,,金屬（銅、銀）銲條,,120.181282,22.9189548
利宇工業股份有限公司,67002123,,臺南市永康區東橋里中正路279巷21弄18號、18號2樓,臺南市永康區東橋里,陳永嘉,70715660,股份有限公司,,1070822,生產中,22塑膠製品製造業,220塑膠製品,http://2n3shot.com,運動牙套，塑膠蓋,,120.243782,23.030386
龍騰生技股份有限公司新市廠,67001862,,臺南市新市區永就里中山路180之12號,臺南市新市區永就里,黃永嘉,80474438,股份有限公司,,1060825,生產中,33其他製造業,332醫療器材及用品,,驗孕檢測試劑,,120.2976,23.0718536
翰林出版事業股份有限公司新樂廠,99673124,07610000335378,臺南市南區彰南里新樂路76、78號,臺南市南區彰南里,陳炳亨,69382361,股份有限公司,0761208,0770118,生產中,16印刷及資料儲存媒體複製業,160印刷及資料儲存媒體複製,,圖書，紙製品，印刷,,120.174309,22.9674225
三開豐有限公司,S6700550,,臺南市安南區長安里鎮安八街99巷19號,臺南市安南區長安里,洪素惠,53070308,有限公司,,1090929,生產中,15紙漿、紙及紙製品製造業,152瓦楞紙板及紙容器,,,,,
鉅洋化學工業股份有限公司,99659801,08710011305195,臺南市仁德區新田里勝利一街33號,臺南市仁德區新田里,池美妙　　　,16333139,股份有限公司,0870525,0870529,生產中,19其他化學製品製造業,192塗料、染料及顏料,,塗料,,120.259758,22.954443
勁迪企業股份有限公司,99659123,08310011177511,臺南市新市區永就里中山路195巷19號,臺南市新市區永就里,朱崇誠　　　,89641632,股份有限公司,0831024,0831205,生產中,28電力設備及配備製造業,281發電、輸電及配電機械、289其他電力設備及配備,,固定座,,120.294052,23.0681667
贏美塑膠製品股份有限公司,99675228,07410000284766,臺南市南區彰南里新愛路8號,臺南市南區彰南里,王清珍,69819168,股份有限公司,0741004,0741216,生產中,22塑膠製品製造業,220塑膠製品,,塑膠製品（茶杯、水壼、盒）,,120.182312,22.9753151
全泰五金加工廠,99674636,08610021000215,臺南市安南區安順里安和路4段36巷200弄60號,臺南市安南區安順里,黃昭銘,19494904,獨資,0860531,0880506,生產中,25金屬製品製造業,259其他金屬製品,,金屬餐具,,120.222893,23.0494041
高鋒噴砂企業有限公司,67002671,,臺南市安南區安順里安和路4段94巷36弄12號,臺南市安南區安順里,趙慧玲,53627811,有限公司,,1090417,生產中,30汽車及其零件製造業、31其他運輸工具及其零件製造業,303汽車零件、312機車及其零件,,,,,
峻益興業有限公司,67002173,,臺南市永康區崑山里大灣路1102巷6號,臺南市永康區崑山里,顏憲權,42921204,有限公司,,1071018,生產中,32家具製造業,321非金屬家具,,石材建材,,120.250793,23.0014133
旺弘精密工業有限公司,67002594,,臺南市麻豆區麻口里麻豆口32之38號,臺南市麻豆區麻口里,郭品希,85042305,有限公司,,1081226,生產中,29機械設備製造業,293通用機械設備,,通用機械設備、零件加工,,120.221924,23.1901131
汎鋼彈簧科技有限公司歸仁廠,S6700326,,臺南市歸仁區西埔里大埔路2段100號,臺南市歸仁區西埔里,凃永俊,22693189,有限公司,,1090806,生產中,25金屬製品製造業,259其他金屬製品,,,,,
佳禾五金實業社永康廠,S6700601,,臺南市永康區東灣里民族路1巷70弄32號,臺南市永康區東灣里,吳皆得,36673212,合夥,,1091013,生產中,33其他製造業,331育樂用品,,,,,
宏潤交通器材股份有限公司太子廠,99711723,,臺南市仁德區太子里中正路3段523巷156號,臺南市仁德區太子里,李順太,73660984,股份有限公司,,0980430,生產中,31其他運輸工具及其零件製造業,312機車及其零件,http://www.hunglum.com,法蘭、汽機車零件（墊圈組）,,120.253052,22.9874077
珈甫企業股份有限公司本淵廠,99674112,06710000206408,臺南市安南區淵東里本原街3段321巷28號,臺南市安南區淵東里,林惠如,96858939,股份有限公司,0670717,0670823,生產中,22塑膠製品製造業、33其他製造業,220塑膠製品、331育樂用品,,塑膠杯、匙、塑膠製品,,120.174217,23.05107
達晉科技有限公司,99684817,,臺南市安定區中沙里中崙165號,臺南市安定區中沙里,吳天芳,80097462,有限公司,,0940823,生產中,25金屬製品製造業,254金屬加工處理,,塑膠真空鍍金製品,,120.209412,23.0764084
羅一國際股份有限公司第三廠,S6700138,,臺南市歸仁區大廟里保吉路73巷32號,臺南市歸仁區大廟里,楊順天,86956947,股份有限公司,,1090622,生產中,25金屬製品製造業、33其他製造業,251金屬刀具、手工具及模具、332醫療器材及用品,,,,,
大衛龍企業有限公司,67000609,,臺南市永康區東橋里中正路279巷23號,臺南市永康區東橋里,李健衛,73635058,有限公司,,1020418,生產中,32家具製造業,322金屬家具,,餐廚、調理盆,,120.244408,23.03135
法隆企業有限公司,67001058,,臺南市仁德區太子里太子五街22巷5號,臺南市仁德區太子里,沈俊翰,28957644,有限公司,,1031120,生產中,25金屬製品製造業,252金屬結構及建築組件,,金屬結構及建築組件,,120.249245,22.98832
三富釣具股份有限公司,99673425,,臺南市南區彰南里新樂路60號,臺南市南區彰南里,蘇素珍,22921212,股份有限公司,,0830422,生產中,33其他製造業,331育樂用品,,釣竿，釣竿導線環，捲輪座,,120.176132,22.970623
非鐵有限公司,99711969,,臺南市鹽水區橋南里八德路66號Ｂ棟之2,臺南市鹽水區橋南里,陳國堅,13162512,有限公司,,0990602,生產中,25金屬製品製造業,252金屬結構及建築組件,,電銲冷作代工,,120.274574,23.3054581
立大棉紡有限公司,99674132,0AA99999000550,臺南市東區虎尾里東門路3段179巷30號,臺南市東區虎尾里,陳明和,16853905,有限公司,0600506,0601228,生產中,11紡織業,111紡紗,,精棉,,120.235466,22.9773884
鳳易實業股份有限公司,99660499,08610011307827,臺南市永康區尚頂里正南一街57巷78號,臺南市永康區尚頂里,林易為　　　,97416362,股份有限公司,0860930,0861215,生產中,18化學原材料、肥料、氮化合物、塑橡膠原料及人造纖維製造業、25金屬製品製造業,184塑膠及合成橡膠原料、259其他金屬製品,,塑膠製品,塑膠粒,120.232483,23.02546
天有貿易股份有限公司,99659855,08710011305368,臺南市永康區三民里正北一路160巷9、11號,臺南市永康區三民里,謝秀霞　　　,86077941,股份有限公司,0870612,0880806,生產中,19其他化學製品製造業,193清潔用品,,工業用清潔劑,,120.260056,23.0512371
郁珺實業股份有限公司,99673479,07410000028799,臺南市南區彰南里新義路8號之1,臺南市南區彰南里,方吳雪霞,68467242,股份有限公司,0740215,0740311,生產中,31其他運輸工具及其零件製造業,313自行車及其零件、312機車及其零件,,腳踏車,,120.181084,22.970974
成允五金有限公司歸仁廠,67002315,,臺南市歸仁區南興里中山路3段471號A棟,臺南市歸仁區南興里,劉國強,64965628,有限公司,,1080312,生產中,31其他運輸工具及其零件製造業,312機車及其零件,,機車及其零件,,120.274513,22.968708
鉦晟實業有限公司,99711518,,臺南市新營區中營里東隆街21號,臺南市新營區中營里,吳建興,27273762,有限公司,,0970729,生產中,22塑膠製品製造業、25金屬製品製造業,220塑膠製品、259其他金屬製品,,機械零件加工,,120.327072,23.308342
辰鋼電鍍股份有限公司,99660149,08310000602103,臺南市永康區尚頂里尚頂路61號,臺南市永康區尚頂里,李金枝,84991960,股份有限公司,0830921,0831026,生產中,25金屬製品製造業,254金屬加工處理,,金屬電鍍,,120.230736,23.02723
翰億實業有限公司,S6700570,,臺南市安定區海寮里海寮5之45號,臺南市安定區海寮里,黃綉茵,28957026,有限公司,,1090928,生產中,22塑膠製品製造業、30汽車及其零件製造業、31其他運輸工具及其零件製造業,220塑膠製品、303汽車零件、312機車及其零件,,,,,
鑫隆得企業社,99658247,08210011024607,臺南市後壁區土溝里46之1Ｏ號,臺南市後壁區土溝里,賴義民　　　,06573932,獨資,0820310,0821231,生產中,22塑膠製品製造業,220塑膠製品,,塑膠袋,,120.383011,23.3713436
欽揚科技股份有限公司,99676946,,臺南市安南區鹽田里科技五路21號A區及23號,臺南市安南區,黃國棟,12752912,股份有限公司,,0940419,生產中,29機械設備製造業,292其他專用機械設備、293通用機械設備,http://www.chinup.com.tw,專用生產機械、通用機械設備,,120.143906,23.0470066
富華熱水瓶股份有限公司,99673158,06610000083312,臺南市安南區安和里府安路3段302號,臺南市安南區安和里,盧富山,69655496,股份有限公司,0660531,0661109,生產中,22塑膠製品製造業,220塑膠製品,,熱水瓶外殼及裝配,,120.218353,23.0289669
禾和企業有限公司,67002430,,臺南市麻豆區油車里新生北路57號2樓前段,臺南市麻豆區油車里,楊春芳,13043143,有限公司,,1080710,生產中,11紡織業、12成衣及服飾品製造業,115紡織品、121成衣,,紡織品，成衣,,120.240776,23.1872311
順崧實業股份有限公司,99683715,07910011110031,臺南市永康區二王里中山南路316巷73號,臺南市永康區二王里,陳宏仁　　　,22667577,股份有限公司,0790919,0800903,生產中,11紡織業,115紡織品,,棉被（絲被，床單，樹脂棉，縫綻布，針壓棉）,,120.23967,23.0150776
金澤工業股份有限公司,67001003,,臺南市南區彰南里新和2路16號,臺南市南區彰南里,吳培昌,80644980,股份有限公司,,1030919,生產中,25金屬製品製造業,259其他金屬製品,,其他金屬製品,黃銅,120.178215,22.9664955
加慶工程行,67000624,,臺南市新營區中營里東信街18號,臺南市新營區中營里,魏明賢,74956319,獨資,,1020509,生產中,25金屬製品製造業、25金屬製品製造業,252金屬結構及建築組件,,金屬結構及建築組件,,120.329361,23.311367
均霈光學股份有限公司,67001655,,臺南市南區彰南里新忠路1號,臺南市南區彰南里,周金絨,24905420,股份有限公司,,1051117,生產中,33其他製造業,332醫療器材及用品,,鏡片製造、鏡片加工,,120.1841,22.9791164
加堤企業有限公司歸仁廠,S6700350,,臺南市歸仁區大廟里南丁路707巷38號A棟,臺南市歸仁區大廟里,王朝正,80119445,有限公司,,1090805,生產中,33其他製造業,332醫療器材及用品,,,,,
復程實業有限公司第一廠,99675442,07610021002096,臺南市安南區安順里安和路4段36巷59號,臺南市安南區安順里,江閩倉,25005946,有限公司,0761124,0761130,生產中,21橡膠製品製造業,210橡膠製品,,橡膠製機車零配件,,120.22084,23.051445
敦陽化工股份有限公司,99673090,08610021000197,臺南市安南區新順里政安路80號,臺南市安南區新順里,青木崇,96971593,股份有限公司,0860603,0870303,生產中,19其他化學製品製造業,192塗料、染料及顏料,,塗料,,120.219444,23.0408878
強新工業股份有限公司五廠,67001259,,臺南市佳里區海澄里萊芊寮12之35號,臺南市佳里區海澄里,吳玉堂,84703335,股份有限公司,,1040723,生產中,24基本金屬製造業,241鋼鐵,http://www.newbest.com.tw,黑鐵線，五金線材，螺帽線材，不銹鋼線材,,120.179253,23.18597
尚和億石材股份有限公司,99706053,,臺南市南區彰南里新仁路6－1號,臺南市南區彰南里,宋和賓,16415363,股份有限公司,,0981217,生產中,23非金屬礦物製品製造業,234石材製品,,石建材,,120.182854,22.9769115
詠禾企業有限公司,99660613,07710011060080,臺南市永康區東橋里26鄰中正路279巷2弄2號,臺南市永康區東橋里,林國基　　,23710019,有限公司,0770528,0790516,生產中,30汽車及其零件製造業、31其他運輸工具及其零件製造業,303汽車零件、312機車及其零件,,汽、機車零件,,120.246109,23.0319176
通國防護裝備股份有限公司,99658825,08110011014193,臺南市善化區小新里小新營412號,臺南市善化區小新里,周勝賢　　　,86829041,股份有限公司,0810130,0830414,生產中,25金屬製品製造業、29機械設備製造業、11紡織業、32家具製造業、19其他化學製品製造業、22塑膠製品製造業、33其他製造業,253金屬容器、259其他金屬製品、293通用機械設備、115紡織品、322金屬家具、199未分類其他化學製品、220塑膠製品、251金屬刀具、手工具及模具、339未分類其他製品,,防彈背心、防彈頭盔,,120.318085,23.11964
栗鼎股份有限公司,99709698,,臺南市永康區三民里和平東路133號,臺南市永康區三民里,蔡月美,16962262,股份有限公司,,0960104,生產中,19其他化學製品製造業,199未分類其他化學製品,,化學藥劑、液鹼、水處理劑、空調藥劑,,120.2647,23.054985
亨澤化工原料有限公司,99659614,08310011163091,臺南市仁德區土庫里太乙路56號,臺南市仁德區土庫里,鄭宗樑　　　,89893931,有限公司,0831001,0831006,生產中,19其他化學製品製造業,193清潔用品,,脫脂劑、去油劑、洗潔劑,,120.252251,22.98263
維尼斯企業股份有限公司台南廠,99705816,,臺南市安南區城南里城西街2段233巷13號,臺南市安南區城南里,鄭溪州,27674696,股份有限公司,,0960510,生產中,19其他化學製品製造業,193清潔用品,,眼鏡配件,,120.119545,23.0576916
創想生物科技有限公司工廠,67002824,,臺南市永康區王行里環工路47號B區,臺南市永康區王行里,鐘温泉,24963125,有限公司,,1091008,生產中,33其他製造業,332醫療器材及用品,,,,,
十億國際股份有限公司西港廠,67000391,,臺南市西港區南海里慶安路241號C棟,臺南市西港區南海里,鄭文健,80230757,股份有限公司,,1010611,生產中,25金屬製品製造業,259其他金屬製品,,餐具製造批發零售,,120.192863,23.1181831
英利五金實業股份有限公司,99659015,06210000015751,臺南市仁德區保安里保安路1段70號,臺南市仁德區保安里,郭松田　　　,72060548,股份有限公司,0620212,0630517,生產中,24基本金屬製造業,242鋁、249其他基本金屬,,鋁擠型,,120.226341,22.9256344
力興鏈條有限公司永康廠,67000361,,臺南市永康區東橋里中山南路365巷3-11號,臺南市永康區東橋里,陳寶裕,28942707,有限公司,,1010510,生產中,29機械設備製造業、31其他運輸工具及其零件製造業,292其他專用機械設備、312機車及其零件、313自行車及其零件,,自行車鏈條,,120.246422,23.02334
信行學實業有限公司,67000611,,臺南市新市區港墘里中山路6號,臺南市新市區港墘里,林定慷,54072368,有限公司,,1020419,生產中,08食品製造業,089其他食品,,綜合醏素、靈芝酵素、美容酵素、元氣酵素、酵素粉,,120.305023,23.0859585
岱冠加工所,99657299,07510011039247,臺南市永康區尚頂里正南一街107巷43號,臺南市永康區尚頂里,洪燕珍　　,06623601,獨資,0750412,0760212,生產中,25金屬製品製造業,259其他金屬製品,,銅條抽花,,120.22747,23.0237083
倪克科技有限公司,67000298,,臺南市安定區中沙里沙崙55-4號,臺南市安定區中沙里,廖展祥,53362733,有限公司,,1010201,生產中,19其他化學製品製造業,193清潔用品,,,,,
&#21452;美生物科技股份有限公司,94A00069,,臺南科學園區臺南市新市區豐華里環東路一段31巷10號2樓,臺南市新市區豐華里,林齊國,12744147,股份有限公司,,0911003,生產中,19其他化學製品製造業、33其他製造業,194化粧品、199未分類其他化學製品、332醫療器材及用品,,,,,
德豐機器股份有限公司,99673817,08410021000275,臺南市安南區新順里開安路49號,臺南市安南區新順里,施怡君,68992908,股份有限公司,0840501,0850923,生產中,29機械設備製造業、30汽車及其零件製造業、31其他運輸工具及其零件製造業,293通用機械設備、303汽車零件、312機車及其零件,http://www.tfmcable.com,機車導線,,120.222549,23.0467262
煇清企業有限公司,99657782,,臺南市仁德區保安里開發七路1號,臺南市仁德區保安里,黃煇清,12898894,有限公司,,0910205,生產中,24基本金屬製造業,242鋁,,鋁錠,鋁料,120.251465,22.9217243
鼎和食品有限公司學甲廠,67001969,10467000600186,臺南市學甲區新達里頂山寮61之20號,臺南市學甲區,黃士權,54576847,有限公司,1040705,1070118,生產中,08食品製造業,089其他食品,,薯類製粉．片,,120.190483,23.2429981
霽峰企業股份有限公司,99674366,06810000122666,臺南市安南區安和里府安路3段311巷30號,臺南市安南區安和里,吳霽峰,06496133,股份有限公司,0680516,0680919,生產中,29機械設備製造業,293通用機械設備,,機械零件加工,,120.217064,23.0288277
喬霸企業股份有限公司,99676633,,臺南市安南區安順里開安五街16、18號,臺南市安南區安順里,黃士維,89759033,股份有限公司,,0920128,生產中,25金屬製品製造業,251金屬刀具、手工具及模具,,金屬製品製造,五金,120.225922,23.04913
松旻實業有限公司,99684559,,臺南市仁德區保安里開發五路9號,臺南市仁德區保安里,曾松棋,13034664,有限公司,,0931018,生產中,22塑膠製品製造業,220塑膠製品,,塑膠製品,,120.248413,22.92101
得生製藥股份有限公司,99656601,08010000072958,臺南市永康區王行里環工路42號,臺南市永康區王行里,許海上　　　,22684196,股份有限公司,0800514,0810929,生產中,20藥品及醫用化學製品製造業、19其他化學製品製造業、33其他製造業,200藥品及醫用化學製品、194化粧品、332醫療器材及用品,http://www.tehseng.com,藥布、武功膏、滅痛膏、藥膏,,120.269234,23.0431347
高靖工業有限公司大灣廠,67002174,,臺南市永康區崑山里大灣路1020巷18號後棟,臺南市永康區崑山里,李葉貞子,84150283,有限公司,,1071018,生產中,33其他製造業,339未分類其他製品,,安全帽,,120.252449,23.0003128
味元食品工廠有限公司,67000038,,臺南市南區彰南里新孝路210號B棟2樓、3樓,臺南市南區彰南里,吳奇龍,25042668,有限公司,,1000318,生產中,08食品製造業,081肉類加工,,香腸,,120.181206,22.97858
明山企業社,99683765,07510011092766,臺南市歸仁區南興里民生北街171號,臺南市歸仁區南興里,黃明山　　　,73718022,獨資,0750807,0750819,生產中,33其他製造業、21橡膠製品製造業,331育樂用品、210橡膠製品,,運動器材（減肥帶），救生衣,,120.280869,22.9712563
集信興業有限公司永康廠,67000698,,臺南市永康區塩行里中正南路490巷62弄1號,臺南市永康區塩行里,黃秀梅,89518366,有限公司,,1020828,生產中,22塑膠製品製造業,220塑膠製品,,塑膠粒,,120.23526,23.0324154
瑞耕興業股份有限公司保安廠,99659365,07810000179096,臺南市仁德區保安里開發六路37號,臺南市仁德區保安里,黃燕珠,69856466,股份有限公司,0780605,0791210,生產中,32家具製造業、25金屬製品製造業,321非金屬家具、322金屬家具、252金屬結構及建築組件,,木桌椅,,120.252052,22.9236584
宇勝高分子化學股份有限公司,99657613,07610000191574,臺南市官田區二鎮里實踐街9號,臺南市官田區二鎮里,蔡啟祥　　　,22513948,股份有限公司,0760506,0770613,生產中,18化學原材料、肥料、氮化合物、塑橡膠原料及人造纖維製造業,184塑膠及合成橡膠原料,,水溶性聚丙烯醯胺樹脂,,120.325516,23.2045059
仲廷企業有限公司分廠,99727630,,臺南市永康區塩洲里洲工街99號,臺南市永康區塩洲里,洪英傑,84560511,有限公司,,0990901,生產中,30汽車及其零件製造業、31其他運輸工具及其零件製造業,303汽車零件、312機車及其零件,,鋅合金及鋁合金之五金零件加工,,120.224411,23.0353222
台灣東洋先端科技股份有限公司台南廠,99705677,,臺南市安南區塩田里工業三路50號,臺南市安南區塩田里,桑原昌美,70815534,股份有限公司,,0950227,生產中,19其他化學製品製造業,192塗料、染料及顏料,,彩色光阻劑,,120.149605,23.03746
德揚科技股份有限公司科工廠,67002507,,臺南市安南區顯宮里科技五路69號,臺南市安南區顯宮里,倪惠敏,27661171,股份有限公司,,1080926,生產中,25金屬製品製造業,259其他金屬製品,http://www.htcsolar.com,其他金屬製品,,120.138969,23.0411873
聿新生物科技股份有限公司台南一廠,67002425,,臺南市新市區永就里光華街1號3樓、4樓,臺南市新市區永就里,楊金昌,16930971,股份有限公司,,1080704,生產中,33其他製造業,332醫療器材及用品,,醫療器材及用品,,120.298645,23.07128
盛利精工股份有限公司,99711955,,臺南市關廟區關廟里中山路2段265之4號,臺南市關廟區關廟里,郭利銘,24362782,股份有限公司,,0990527,生產中,19其他化學製品製造業,192塗料、染料及顏料,,塗料,樹脂、溶劑、色料,120.314575,22.9621525
日又新工坊,67002251,,臺南市麻豆區穀興里大同街3之3號1樓,臺南市麻豆區穀興里,陳威閔,40715452,獨資,,1071222,生產中,19其他化學製品製造業,199未分類其他化學製品,,機油活化劑,,120.245987,23.186142
成發五金企業社,67002580,,臺南市仁德區一甲里忠義路166號,臺南市仁德區一甲里,郭志雄,10772259,合夥,,1081216,生產中,25金屬製品製造業,259其他金屬製品,,其他金屬製品,,120.258583,22.97634
鋒皇實業有限公司,99658178,07810011123672,臺南市永康區塩洲里正南六街105巷11號,臺南市永康區塩洲里,王媖婕　,06586134,有限公司,0780930,0781020,生產中,29機械設備製造業,291金屬加工用機械設備、293通用機械設備,,吊車,,120.22731,23.03708
繼裕工業社,99659755,07610011048406,臺南市永康區塩行里塩平街25號,臺南市永康區塩行里,郭靜美　　　,08437836,獨資,0760505,0770817,生產中,25金屬製品製造業、30汽車及其零件製造業、31其他運輸工具及其零件製造業,259其他金屬製品、303汽車零件、312機車及其零件,,鋁鋅銬造：汽機車零件,,120.234787,23.0319347
昆聯企業有限公司,99657140,06210000068940,臺南市佳里區建南里勝利路2巷3號,臺南市佳里區建南里,陳再預　　　,72126648,有限公司,0620608,0630913,生產中,29機械設備製造業,292其他專用機械設備,,自動飼料槽、自動水槽,,120.177841,23.1537743
尚紘企業社,67000598,,臺南市永康區塩洲里正南二街43號,臺南市永康區塩洲里,陳建雄,26433410,獨資,,1020325,生產中,29機械設備製造業,293通用機械設備,,機械零件加工,,120.22747,23.03431
創新實業社,67001215,,臺南市安南區安順里開安三街24號,臺南市安南區安順里,馬瑞呈,09524387,獨資,,1040506,生產中,25金屬製品製造業,251金屬刀具、手工具及模具,,模具加工,,120.224731,23.0479736
玉明有限公司安南廠,S6700133,,臺南市安南區總頭里北安路3段299號,臺南市安南區總頭里,施明昌,12905570,有限公司,,1090929,生產中,31其他運輸工具及其零件製造業,312機車及其零件,,,,,
書瑀企業有限公司永大廠,S6700134,,臺南市永康區西灣里文賢街480號,臺南市永康區西灣里,林榮明,23704760,有限公司,,1090812,生產中,33其他製造業,332醫療器材及用品,,,,,
正吉實業股份有限公司,99657337,07410011058027,臺南市永康區尚頂里正南一街107巷13弄1號,臺南市永康區尚頂里,林世欽　　　,22233926,股份有限公司,0740523,0751122,生產中,22塑膠製品製造業,220塑膠製品,,燈殼，汽機車零件,,120.228668,23.0241241
歲紘興業有限公司二廠,S6700439,,臺南市歸仁區西埔里西埔一街660巷200號,臺南市歸仁區西埔里,潘美玲,23273615,有限公司,,1090821,生產中,22塑膠製品製造業,220塑膠製品,,,,,
三慶實業有限公司,99658461,06410000128896,臺南市佳里區龍安里112之1號,臺南市佳里區龍安里,黃慶華　　　,74716304,有限公司,0640916,0650121,生產中,22塑膠製品製造業,220塑膠製品,,鉛筆盒，西洋棋，跳棋，羽毛球，跳繩,,120.162018,23.1188087
永家興五金有限公司,99656716,07710011131116,臺南市永康區尚頂里中正二街１６９巷８０號、塩行里鹽信街168號,臺南市永康區尚頂里,吳顯得　　　,70504736,有限公司,0771110,0780714,生產中,30汽車及其零件製造業、31其他運輸工具及其零件製造業、25金屬製品製造業,312機車及其零件、254金屬加工處理、303汽車零件,,汽機車及機械之五金零件加工,,120.231216,23.0297127
南邑化學有限公司,99658529,06710000209384,臺南市佳里區子龍里子良廟16Ｏ號,臺南市佳里區子龍里,林連章　　　,23863675,有限公司,0670808,0680719,生產中,,,,其他化粧品,,120.209511,23.1739655
榮錦企業有限公司,99674510,06710000302804,臺南市安南區海東里海佃路2段483巷72號,臺南市安南區海東里,郭振興,84400867,有限公司,0671201,0690717,生產中,25金屬製品製造業、31其他運輸工具及其零件製造業,259其他金屬製品、312機車及其零件,,五金零件、嬰兒車零件,,120.185013,23.0411949
昌鑫車燈製造有限公司,99684818,,臺南市永康區南灣里大灣東路22巷22號,臺南市永康區南灣里,郭博榮,27820207,有限公司,,0940825,生產中,25金屬製品製造業、30汽車及其零件製造業、22塑膠製品製造業,251金屬刀具、手工具及模具、303汽車零件、220塑膠製品,,其他機械、汽車及其零件,,120.259323,22.99724
臺南市官田區農會碾米工廠,99658261,,臺南市官田區隆田里文化街25號,臺南市官田區隆田里,林正容　　　,71216608,其他,,0590416,生產中,08食品製造業,086碾榖、磨粉及澱粉製品,,糙米．白米,,120.318405,23.1937962
富勝拉鍊股份有限公司,99658878,07710011057957,臺南市新市區大社里大社403號,臺南市新市區大社里,柯富閒　　　,22493675,股份有限公司,0770523,0770531,生產中,29機械設備製造業,293通用機械設備,,拉鍊機械組立裝配、拉鍊,,120.319016,23.0922222
明豐國際興業有限公司二廠,67000504,,臺南市永康區王行里王行路68巷8號B棟,臺南市永康區王行里,莊明憲,84347131,有限公司,,1011122,生產中,30汽車及其零件製造業、31其他運輸工具及其零件製造業,303汽車零件、312機車及其零件,,汽機車剎車零件,,120.275536,23.0323124
軒興實業有限公司,99673700,07010000254837,臺南市南區彰南里新和橫路16號,臺南市南區彰南里,謝茂松,69598518,有限公司,0701222,0710205,生產中,25金屬製品製造業、30汽車及其零件製造業、31其他運輸工具及其零件製造業、33其他製造業,259其他金屬製品、303汽車零件、312機車及其零件、331育樂用品,,鋁鍋,,120.178894,22.9662628
和泰軔襯實業有限公司,99660545,07710000176356,臺南市永康區尚頂里中正二街98號,臺南市永康區尚頂里,吳天和　　　,22921199,有限公司,0770406,0780623,生產中,30汽車及其零件製造業、31其他運輸工具及其零件製造業,303汽車零件、312機車及其零件,,石棉製品（離合器墊片，剎車來令片）,,120.229889,23.0272522
新功藥品工業有限公司,99656480,,臺南市新營區大宏里同濟街87號,臺南市新營區大宏里,周陳時　　,72000958,有限公司,,0590401,生產中,20藥品及醫用化學製品製造業、08食品製造業,200藥品及醫用化學製品、089其他食品,,動物用藥,,120.319885,23.3085213
台灣黑輪伯食品有限公司官田廠,67002167,,臺南市官田區二鎮里成功街55號,臺南市官田區二鎮里,陳文安,53074867,有限公司,,1070927,生產中,08食品製造業,081肉類加工、089其他食品,,肉製品,,120.331207,23.2101116
宇晟科技有限公司一廠,67001818,,臺南市永康區塩行里鹽和街256巷4號,臺南市永康區塩行里,林美燕,24912490,有限公司,,1060703,生產中,28電力設備及配備製造業,281發電、輸電及配電機械,,穩壓器,,120.235489,23.0350552
東達數位印刷有限公司,67002188,,臺南市南區彰南里新樂路1之3號,臺南市南區彰南里,杜泰源,64966915,有限公司,,1071030,生產中,16印刷及資料儲存媒體複製業,160印刷及資料儲存媒體複製,http://www.lui99.com.tw/,名片，海報等等,,120.179688,22.98069
信欣科技有限公司,67000231,,臺南市永康區塩行里鹽和街290號,臺南市永康區塩行里,李美員,80488778,有限公司,,1001118,生產中,30汽車及其零件製造業、31其他運輸工具及其零件製造業,303汽車零件、312機車及其零件,,鋁合金材料、鐵線、汽車零件（半成品）、機車零件（半成品）、小五金零配件,鋁合金,120.233879,23.0364456
瑞洋塑膠工業股份有限公司安定廠,S6700644,,臺南市安定區海寮里海寮155之3、155之4號,臺南市安定區海寮里,洪瑞賢,69310249,股份有限公司,,1091029,生產中,22塑膠製品製造業,220塑膠製品,,,,,
賓泰成紙器實業社,67000316,,臺南市永康區尚頂里正南一街181巷15號,臺南市永康區尚頂里,鄭國賓,17828314,合夥,,1010220,生產中,15紙漿、紙及紙製品製造業,152瓦楞紙板及紙容器,,紙箱,,120.22554,23.0258942
敬福塑膠有限公司,99656682,07210000195823,臺南市官田區二鎮里工業西路23號,臺南市官田區二鎮里,廖明敬　　　,72214570,有限公司,0721205,0731106,生產中,22塑膠製品製造業,220塑膠製品,,農用ＰＥ塑膠布,ＰＥ塑膠粒,120.320564,23.2080021
金優美股份有限公司,99656538,06910000242338,臺南市新營區嘉芳里五福路132號,臺南市新營區嘉芳里,林進興　　　,72202814,股份有限公司,0691204,0730315,生產中,32家具製造業,322金屬家具,,鐵櫃，卡片櫃，辦公桌椅,,120.27758,23.3059883
成記企業股份有限公司,99673361,06710000061092,臺南市南區彰南里新義路16號A區,臺南市南區彰南里,黃進淇,69668078,股份有限公司,0670418,0700415,生產中,25金屬製品製造業、24基本金屬製造業,251金屬刀具、手工具及模具、243銅,,銅板裁剪,,120.179207,22.9710636
鋒泰五金有限公司,67001690,,臺南市下營區仁里里公園路179號B棟,臺南市下營區仁里里,林潔昕,24920457,有限公司,,1051228,生產中,23非金屬礦物製品製造業,239其他非金屬礦物製品,http://www.fsabr.com/contact.php,砂綱格等研磨材料,,120.251816,23.23256
萬家欣開發股份有限公司,99684864,,臺南市仁德區一甲里太乙三街90號,臺南市仁德區一甲里,周明麗,27827314,股份有限公司,,0941011,生產中,11紡織業、12成衣及服飾品製造業,121成衣、115紡織品,,梭織成衣、其他紡織製品,,120.251923,22.978632
湛康材料科技股份有限公司,94A00223,,臺南科學園區臺南市新市區豐華里創業路22號1.2樓,臺南市新市區豐華里,陳俊宏,28594670,股份有限公司,,0970715,生產中,19其他化學製品製造業、26電子零組件製造業,199未分類其他化學製品、269其他電子零組件,http://www.exceed.com.tw,其他電子工業用化學處理劑,,120.283394,23.096983
高長股份有限公司,99656566,08110011171999,臺南市永康區塩行里10鄰正南五街246號,臺南市永康區塩行里,高偉豪　　　,22220485,股份有限公司,0811202,0811214,生產中,16印刷及資料儲存媒體複製業,160印刷及資料儲存媒體複製,,印刷品,,120.239746,23.0340462
宗葆工業股份有限公司,67002395,,臺南市安南區佃東里新吉三路232號,臺南市安南區佃東里,劉愛春,23272974,股份有限公司,,1080530,生產中,29機械設備製造業,293通用機械設備,,通用機械設備,,120.184204,23.07793
友鵬有限公司第二廠,99711512,,臺南市仁德區一甲里太乙七街45、51、59號,臺南市仁德區一甲里,蔡爵祿,23876469,有限公司,,0970721,生產中,11紡織業,111紡紗,,工業用紗線（（聚酯纖維）加工，染色）,,120.250015,22.9787426
龍凌科技股份有限公司,67000692,,臺南市安定區港口里港口361之9號1樓,臺南市安定區港口里,鍾鑑基,54076815,股份有限公司,,1020816,生產中,26電子零組件製造業,264光電材料及元件,,光電材料及元件,,120.232735,23.0926628
明焰耐蝕磨合金有限公司,99656574,08510011301350,臺南市永康區王行里永科南路181號,臺南市永康區王行里,汪志攻,12832731,股份有限公司,0850207,0850209,生產中,29機械設備製造業,292其他專用機械設備,,其他未列名機械零件、機械加工維修,,120.277687,23.032959
百谷王企業有限公司,67001092,,臺南市永康區新樹里中山北路762巷13號,臺南市永康區新樹里,陳俊富,86532300,有限公司,,1031224,生產中,33其他製造業,339未分類其他製品、331育樂用品,,其他製品,,120.280029,23.0289383
弘益實業社,99683135,07810011129571,臺南市永康區尚頂里中正南路220巷14號1樓,臺南市永康區尚頂里,李文博　　　,08454481,獨資,0781018,0781114,生產中,29機械設備製造業,293通用機械設備,,機械五金零件,,120.221542,23.02531
鈺堂實業有限公司,67000833,,臺南市永康區塩洲里國聖街167巷12號,臺南市永康區塩洲里,林貴興,24381079,有限公司,,1030227,生產中,22塑膠製品製造業,220塑膠製品,,塑膠製品,,120.225853,23.0342655
頂質股份有限公司,67002753,,臺南市永康區王行里興工路11號B棟,臺南市永康區王行里,連鴻榮,53462780,股份有限公司,,1090729,生產中,29機械設備製造業,291金屬加工用機械設備,,,,,
昌葳有限公司,67001805,,臺南市安南區安順里安和路四段36巷99弄2號1樓,臺南市安南區安順里,邱永欽,53783880,有限公司,,1060621,生產中,22塑膠製品製造業,220塑膠製品,,工業用塑膠製品製造,塑膠粒,120.221535,23.0514774
于誠實業社仁德廠,99684692,,臺南市仁德區土庫里大發路169號,臺南市仁德區土庫里,蔡美蓉,15713300,獨資,,0940406,生產中,19其他化學製品製造業,199未分類其他化學製品,,酒精膏，酒精丸，酒精水，其他化學製品,,120.251419,22.98706
鑫興鋁業股份有限公司中崙廠,99658971,08010011146694,臺南市安定區中沙里中崙175號,臺南市安定區中沙里,謝添寶　　　,22594809,股份有限公司,0801113,0810806,生產中,24基本金屬製造業,242鋁,,鋁擠型，鋁條，鋁管,,120.210953,23.0763988
統富工業有限公司台南廠,99676723,,臺南市南區同安里明興路1425巷29號壹樓,臺南市南區同安里,蔡明政,28659477,有限公司,,0920711,生產中,30汽車及其零件製造業,303汽車零件,,其他未分類金屬製品製造,,120.185287,22.92097
弘威泰有限公司安南廠,S6700137,,臺南市安南區學東里公學路7段322之56號,臺南市安南區學東里,林獻堂,70663109,有限公司,,1090623,生產中,17石油及煤製品製造業,170石油及煤製品,,,,,
皇易企業有限公司,67000138,,臺南市安定區新吉里新吉32之2號1樓,臺南市安定區新吉里,吳盈慶,16259659,有限公司,,1000719,生產中,33其他製造業,339未分類其他製品,,運動用品,,120.213181,23.0863342
五色有限公司新市廠,67001957,,臺南市新市區港墘里民族路137號,臺南市新市區港墘里,李培根,70523380,有限公司,,1061226,生產中,08食品製造業,083蔬果加工,,堅果、蔬果脆片、果乾加工,,120.298729,23.0815029
天泰銲材工業股份有限公司官田廠,99658502,08010000322142,臺南市官田區二鎮里富強路8、8之1號,臺南市官田區二鎮里,許嘉洲,72060478,股份有限公司,0801019,0820209,生產中,19其他化學製品製造業、24基本金屬製造業、29機械設備製造業,199未分類其他化學製品、249其他基本金屬、291金屬加工用機械設備,,銲條裁剪、助焊劑,,120.3265,23.2058334
聖惠電鍍股份有限公司,99660760,07610000104793,臺南市永康區建國里復興路26巷39號,臺南市永康區建國里,杞燕欽　　　,22403549,股份有限公司,0760202,0760202,生產中,25金屬製品製造業,254金屬加工處理,http://www.sanhvi.com.tw/about-us.html,汽機車零件、五金零件電鍍,,120.250092,23.0015125
文隆印刷工業股份有限公司,99673427,06710000083243,臺南市南區彰南里新樂路64號,臺南市南區彰南里,張耀文,69284657,股份有限公司,0670522,0700424,生產中,16印刷及資料儲存媒體複製業,160印刷及資料儲存媒體複製,,印刷製品（自粘性標籤）,,120.178726,22.9684963
倫登國際有限公司,67002531,,臺南市永康區塩行里塩和街282巷4號,臺南市永康區塩行里,涂愛寧,54699637,有限公司,,1081016,生產中,25金屬製品製造業,251金屬刀具、手工具及模具,,智動化系統整合　模具治具設計製造　車床　銑床　磨床加工鎢鋼　高速鋼切削刀具　客製專用刀具　設計製造再研磨日本ＹＡＭＡＷＡ螺絲攻代理商,,120.2345,23.0361156
原茂企業有限公司新巿廠,99657759,07610011067772,臺南市新市區大社里大社69號,臺南市新市區大社里,楊振榮　　　,85979921,有限公司,0760623,0760901,生產中,29機械設備製造業、25金屬製品製造業,292其他專用機械設備、322金屬家具,,實驗室器材及週邊產品,,120.321045,23.0886288
名宏國際開發有限公司,67001976,,臺南市善化區光文里成功路290號,臺南市善化區光文里,吳宗信,28127211,有限公司,,1070117,生產中,22塑膠製品製造業,220塑膠製品,,塑膠製品,,120.307449,23.1304379
專宇實業社,99659527,08010011110204,臺南市安定區蘇林里131號,臺南市安定區蘇林里,林鈺娥　,06655912,獨資,0800822,0810129,生產中,22塑膠製品製造業,220塑膠製品,,塑膠家庭用品,塑膠,120.253944,23.1311264
立成米店台南廠,S6700187,,臺南市南區田寮里西門路一段223巷20號1樓A棟,臺南市南區田寮里,賈久立,56908096,獨資,,1090702,生產中,08食品製造業,089其他食品,,,,,
原生生物醫學股份有限公司,67000880,,臺南市新市區港墘里國際路17號5樓之2(516室),臺南市新市區港墘里,賴永裕,28913153,股份有限公司,,1030509,生產中,08食品製造業,089其他食品,http://www.nbm-probiotics.com.tw/index.html,其他食品,,120.297348,23.0786076
鐵人企業股份有限公司,99657129,06710000084167,臺南市佳里區海澄里萊芊寮12之3號A棟,臺南市佳里區海澄里,王龍顏　　　,72149728,股份有限公司,0670524,0690917,生產中,25金屬製品製造業、32家具製造業、28電力設備及配備製造業,259其他金屬製品、322金屬家具、289其他電力設備及配備,,五金電器電件組立,,120.179253,23.18597
大億金茂股份有限公司永康廠,67001013,,臺南市永康區新樹里富強路二段398巷57號,臺南市永康區新樹里,吳俊億,16359284,股份有限公司,,1030930,生產中,30汽車及其零件製造業,303汽車零件,http://www.kenmos.com.tw,汽車零件,,120.275284,23.0289516
雙鎰企業有限公司學甲廠,S6700400,,臺南市學甲區豐和里美豐125之27號,臺南市學甲區豐和里,吳靜美,80229689,有限公司,,1090811,生產中,25金屬製品製造業,252金屬結構及建築組件,,,,,
愛斯邁創意有限公司,67002774,,臺南市佳里區六安里六安117之53號,臺南市佳里區六安里,高義峰,54078010,有限公司,,1090824,生產中,33其他製造業,339未分類其他製品,,,,,
達源工業社,67000749,,臺南市永康區塩行里竹林街35號A棟,臺南市永康區塩行里,邱義勝,36834441,合夥,,1021114,生產中,25金屬製品製造業,254金屬加工處理,,粉體加工（金屬製品噴烤漆）,,120.247055,23.03888
宏昱機械實業有限公司,67000614,,臺南市永康區尚頂里中正二街152號,臺南市永康區尚頂里,陳育菁,27519040,有限公司,,1020426,生產中,30汽車及其零件製造業、31其他運輸工具及其零件製造業,303汽車零件、312機車及其零件,,汽機車零件,,120.232468,23.0287418
大福和資源再生股份有限公司,67000094,,臺南市麻豆區麻口里麻豆口10之25號,臺南市麻豆區麻口里,陳俊銘,28775671,股份有限公司,,1000530,生產中,18化學原材料、肥料、氮化合物、塑橡膠原料及人造纖維製造業,184塑膠及合成橡膠原料,,塑膠廢料,,120.221176,23.1777134
玄恩企業有限公司,67002690,,臺南市仁德區太子里太子四街73巷18號,臺南市仁德區太子里,陳藝中,80644433,有限公司,,1090504,生產中,30汽車及其零件製造業,303汽車零件,,,,,
太竝機械有限公司新營廠,99656946,08010011146711,臺南市新營區新東里開元路225號,臺南市新營區新東里,陳瓊媚　　　,69634991,有限公司,0801111,0820909,生產中,25金屬製品製造業、29機械設備製造業,253金屬容器、259其他金屬製品、293通用機械設備、292其他專用機械設備,,配管,,120.332443,23.31745
安佃實業股份有限公司官田廠,99706299,,臺南市官田區二鎮里成功街71號,臺南市官田區二鎮里,徐麗紅,69309046,股份有限公司,,0950606,生產中,21橡膠製品製造業、22塑膠製品製造業,210橡膠製品、220塑膠製品,,橡膠發泡板、塑膠發泡板,,120.329453,23.21158
晶元光電股份有限公司南科三廠,94A00195,,臺南市善化區南關里南科八路11號,臺南市善化區南關里,李秉傑,84149786,股份有限公司,,0950427,生產中,19其他化學製品製造業、26電子零組件製造業,269其他電子零組件、199未分類其他化學製品、264光電材料及元件,http://www.epistar.com.tw,發光二極體磊晶片、發光二極體晶粒,,120.276482,23.1138744
齎興螺絲工業股份有限公司,11000010,,臺南市佳里區六安里六安116之12號1樓,臺南市佳里區六安里,陳敏郎,74717845,股份有限公司,,0991101,生產中,25金屬製品製造業,259其他金屬製品,,螺帽、螺絲,,120.183189,23.17947
佳得紡織股份有限公司二廠,67001743,,臺南市新市區三舍里三舍206號A區,臺南市新市區三舍里,郭俊雄,54557525,股份有限公司,,1060329,生產中,11紡織業,114染整,,長織染整布,,120.293533,23.1007538
叡興塑膠企業有限公司,67000437,,臺南市新市區永就里中山路工業巷5號,臺南市新市區永就里,張淑珍,97484240,有限公司,,1010830,生產中,22塑膠製品製造業、30汽車及其零件製造業,220塑膠製品、303汽車零件,,衛浴、文具用塑膠製品,,120.293053,23.0682335
雄風企業有限公司第二廠,99673249,08310000601232,臺南市南區彰南里新和一路5號,臺南市南區彰南里,廖書賢,69703188,有限公司,0830831,0831008,生產中,08食品製造業,089其他食品,,糖果,,120.180756,22.9654617
豐生製藥生物科技股份有限公司,99656723,07310000020525,臺南市官田區二鎮里成功街60號,臺南市官田區二鎮里,黃阿珍　　　,06499265,股份有限公司,0730127,0740226,生產中,20藥品及醫用化學製品製造業、19其他化學製品製造業,200藥品及醫用化學製品、194化粧品,,中藥製品、食品、沐浴酵素,,120.330696,23.2108879
昇泰塑膠股份有限公司二廠,99711991,,臺南市永康區尚頂里中正南路349巷85號,臺南市永康區尚頂里,蔡廖素滿,22802270,股份有限公司,,0990629,生產中,22塑膠製品製造業,220塑膠製品,,塑膠製品,,120.222069,23.02937
旭珏企業有限公司,99673722,08110000075028,臺南市安南區安順里開安四街32號,臺南市安南區安順里,黃鳳明,86810943,有限公司,0810902,0830207,生產中,25金屬製品製造業,254金屬加工處理,,五金表面處理,,120.226631,23.0479183
勇健工業股份有限公司,99657500,08210000076172,臺南市鹽水區汫水里溪州寮3之8號,臺南市鹽水區汫水里,林鄭淑鈴　　,84128086,股份有限公司,0820708,0821026,生產中,08食品製造業,089其他食品,,靈芝粉，花粉，茶類,,120.287041,23.3352757
燴豐窯業開發股份有限公司,99658618,08510011303402,臺南市大內區石湖里石子瀨400號,臺南市大內區石湖里,黃永發　　　,96992767,股份有限公司,0850528,0860814,生產中,23非金屬礦物製品製造業,232耐火、黏土建材及其他陶瓷製品,,陶瓷衛浴,,120.352333,23.1241779
旭崴精密有限公司,67002669,,臺南市永康區尚頂里中正南路242巷14號2樓,臺南市永康區尚頂里,李惠雯,54076603,有限公司,,1090414,生產中,25金屬製品製造業、29機械設備製造業,251金屬刀具、手工具及模具、293通用機械設備,,,,,
順發紀企業有限公司,99673423,08010000072014,臺南市南區彰南里新和路27之1號,臺南市南區彰南里,吳雨緹,23522585,有限公司,0800413,0800410,生產中,15紙漿、紙及紙製品製造業,152瓦楞紙板及紙容器,,紙盒、紙箱、紙板上光,,120.178619,22.96707
昶瀚應用材料股份有限公司,94A00425,,臺南市新市區豐華里創業路26號5樓,臺南市新市區豐華里,吳盧豪,54558313,股份有限公司,,1060727,生產中,19其他化學製品製造業,199未分類其他化學製品,,奈米材料改質劑、電池應用,,120.283325,23.0971622
徠科菲股份有限公司,67002708,,臺南市永康區塩洲里塩行路239之6號,臺南市永康區塩洲里,趙專成,85107019,股份有限公司,,1090522,生產中,22塑膠製品製造業,220塑膠製品,,,,,
仙宗興業股份有限公司三廠,67001463,,臺南市山上區明和里明和76之70號,臺南市山上區明和里,王俊雄,80614536,有限公司,,1050406,生產中,25金屬製品製造業,259其他金屬製品,,鍍鋅線,,120.339783,23.107151
俊業電子有限公司,67000468,,臺南市歸仁區崙頂里成功十街76號1樓,臺南市歸仁區崙頂里,翁嘉伶,86819509,有限公司,,1011015,生產中,28電力設備及配備製造業,289其他電力設備及配備,,開關箱,,120.295876,22.957262
州巧科技股份有限公司台南二廠,67002089,,臺南市安南區顯宮里工業一路50號,臺南市安南區顯宮里,李樹裔,70526133,股份有限公司,,1070705,生產中,25金屬製品製造業,259其他金屬製品,http://www.jochu.com,其他金屬製品（沖壓）、電動輪椅車,素材（鍍鋅鋼板）、電控零件（ＭＯＴＯＲ）,120.15136,23.0445366
宇興機械股份有限公司,67002821,,臺南市永康區東橋里中正路217巷3弄61號,臺南市永康區東橋里,魏榮堃,54549716,股份有限公司,,1090929,生產中,29機械設備製造業,291金屬加工用機械設備,,,,,
統丞鋼鐵有限公司,S6700508,,臺南市安定區中沙里沙崙24之12號,臺南市安定區中沙里,郭林連春,70714661,有限公司,,1090909,生產中,25金屬製品製造業,254金屬加工處理,,,,,
聯華紡織股份有限公司,99657227,99910099000051,臺南市永康區崑山里大灣路1Ｏ14號,臺南市永康區崑山里,吳信緯　　　,73252473,股份有限公司,0571101,0581028,生產中,11紡織業,111紡紗、112織布,,化學纖維紗、毛紗,,120.253944,22.99962
玖頂塑膠實業有限公司,99660467,07510011001779,臺南市永康區尚頂里尚頂路180號A區,臺南市永康區尚頂里,黃鍠元,23954160,有限公司,0750109,0761113,生產中,22塑膠製品製造業、29機械設備製造業,220塑膠製品、293通用機械設備,,塑膠製品,,120.227974,23.0312557
統程精密科技有限公司,67000852,,臺南市安南區安順里開安路173號,臺南市安南區安順里,郭仲平,25153903,有限公司,,1030401,生產中,29機械設備製造業,291金屬加工用機械設備、292其他專用機械設備、293通用機械設備,,金屬加工用機械設備，其他專用機械設備，通用機械設備,,120.224304,23.0499954
特裕精密企業股份有限公司,99674268,08210021000936,臺南市安南區新順里政安路25號,臺南市安南區新順里,徐明良,22122180,股份有限公司,0821203,0841212,生產中,28電力設備及配備製造業、29機械設備製造業、25金屬製品製造業,293通用機械設備、251金屬刀具、手工具及模具、283電線及配線器材,,機械零件,,120.21727,23.0418262
尚勇機械有限公司,99659770,08610011303081,臺南市仁德區土庫里大發路63號,臺南市仁德區土庫里,吳靖宜　　　,96995624,有限公司,0860325,0870206,生產中,29機械設備製造業,291金屬加工用機械設備,,振動送料機另件,,120.251205,22.98456
宏龍輪椅股份有限公司,67001056,,臺南市南區彰南里新義路16號B區,臺南市南區彰南里,李秀龍,86839316,股份有限公司,,1031124,生產中,31其他運輸工具及其零件製造業、33其他製造業,312機車及其零件、332醫療器材及用品,,機車及其零件，醫療器材及用品,,120.179207,22.9710636
虹成塑膠有限公司,99659595,08710011301355,臺南市仁德區保安里中正路1段36號,臺南市仁德區保安里,留黃月嬌　　　,73733071,有限公司,0870216,0880928,生產中,22塑膠製品製造業,220塑膠製品,,塑膠袋,,120.227432,22.9187241
永華鋁業股份有限公司,99673178,06410000141108,臺南市南區彰南里新孝路194、196號,臺南市南區彰南里,李張文琴,69559070,股份有限公司,0641008,0670724,生產中,24基本金屬製造業,242鋁,,鋁線鋁管鋁條鋁擠型,,120.1827,22.9785385
永育承企業有限公司,99684291,,臺南市永康區塩洲里洲工街130號,臺南市永康區塩洲里,黃聰萍,80554333,有限公司,,0921120,生產中,25金屬製品製造業,251金屬刀具、手工具及模具,,鐵鋼捲片,,120.225937,23.0365124
大昌機電工程行,67000719,,臺南市官田區二鎮里工業南路2號B棟,臺南市官田區二鎮里,張曾金花,07858339,獨資,,1020925,生產中,25金屬製品製造業,252金屬結構及建築組件,,Ｈ型鋼焊接、鑽孔,,120.3304,23.20468
瑨濠企業有限公司,99674904,06810000117868,臺南市安南區溪墘里海佃路1段340巷31號,臺南市安南區溪墘里,黃豐賓,06497674,有限公司,0680423,0680629,生產中,25金屬製品製造業,259其他金屬製品,,汽機車零件,,120.192032,23.0274525
碩隆機器工業股份有限公司,99711799,,臺南市永康區尚頂里尚頂路52巷25號,臺南市永康區尚頂里,王清輝　　　,84172316,股份有限公司,,0980828,生產中,29機械設備製造業,293通用機械設備,,專用生產機械及零組件（油壓機）,,120.232132,23.0280819
昭連食品有限公司,99658946,08510000410168,臺南市永康區尚頂里正南一街118巷28號,臺南市永康區尚頂里,林金連　　　,97057892,有限公司,0851030,0860113,生產中,08食品製造業,089其他食品,,仙草，愛玉，粉圓，熟紅豆，綠豆，紅花豆,,120.22905,23.02583
良展車體工業有限公司,67002255,,臺南市麻豆區麻口里麻豆口32之40號,臺南市麻豆區麻口里,尤聖雄,42920824,有限公司,,1071227,生產中,29機械設備製造業、30汽車及其零件製造業,293通用機械設備、302車體,,車斗修改,,120.221916,23.1899529
均翊科技企業有限公司仁德廠,67000914,,臺南市仁德區新田里勝利一街43號1樓,臺南市仁德區新田里,唐榕苓,54079833,有限公司,,1030623,生產中,19其他化學製品製造業,199未分類其他化學製品,http://www.allyi.com.tw/index.html,合成樹脂、塑膠及橡膠,,120.259941,22.95433
隆宜實業有限公司三廠,99675086,,臺南市北區六甲里公園路487巷39號,臺南市北區六甲里,李瑞祺,69835863,有限公司,,0600301,生產中,33其他製造業、22塑膠製品製造業,220塑膠製品、332醫療器材及用品,,太陽眼鏡,,120.209229,23.0096054
凱振金屬股份有限公司歸仁廠,S6700409,,臺南市歸仁區西埔里西埔三街51巷1號,臺南市歸仁區西埔里,蔡幸娥,97277827,股份有限公司,,1090814,生產中,25金屬製品製造業,253金屬容器,,,,,
聚恆科技股份有限公司,67000753,,臺南市永康區王行里永科環路168號,臺南市永康區王行里,周恒豪,16452612,股份有限公司,,1021115,生產中,28電力設備及配備製造業、29機械設備製造業,284照明設備及配備、292其他專用機械設備,http://www.hengs.com,配電盤、ＰＶ支撐架、太陽能路燈製造組裝,,120.279015,23.0363216
福成醬園,S6700461,,臺南市佳里區佳化里佳里興46之2號,臺南市佳里區佳化里,謝正益,74718942,獨資,,1090901,生產中,08食品製造業,089其他食品,,,,,
楊家實業股份有限公司,67000716,,臺南市南區彰南里新信路14號,臺南市南區彰南里,楊東順,89777829,股份有限公司,,1020923,生產中,23非金屬礦物製品製造業,231玻璃及其製品,,玻璃之裁剪雕刻,,120.180923,22.9738636
昭志工業股份有限公司,99657701,07510011084885,臺南市仁德區太子里太子路138號,臺南市仁德區太子里,陳明焜　　　,06386831,股份有限公司,0750722,0750821,生產中,21橡膠製品製造業,210橡膠製品,,橡膠製品,,120.264168,22.9915371
鴻億鐵工所,99674621,07610021000645,臺南市北區文元里文賢路1122巷59弄40號,臺南市北區文元里,邱冠彰,69666655,獨資,0760414,0760922,生產中,29機械設備製造業、25金屬製品製造業,293通用機械設備、251金屬刀具、手工具及模具,,模具,,120.195221,23.0177917
濾業實業有限公司台南廠,67001216,,臺南市永康區東橋里中山南路365巷2之45號,臺南市永康區東橋里,陳慶誠,24563514,有限公司,,1040512,生產中,30汽車及其零件製造業,303汽車零件,,汽油濾清器,汽油濾清器,120.247246,23.0234337
宗輝鑄造股份有限公司,99683496,07010000144500,臺南市永康區龍潭里龍中街30巷81號,臺南市永康區龍潭里,李明宗　　　,69327945,股份有限公司,0700707,0710602,生產中,25金屬製品製造業,254金屬加工處理,,銅板加工及銅板,,120.265068,23.0302658
光良工業股份有限公司,99660459,07610011151944,臺南市永康區尚頂里中正二街96巷7號,臺南市永康區尚頂里,蔡光良　　　,86405965,股份有限公司,0770111,0770906,生產中,25金屬製品製造業,259其他金屬製品,,鋁製品,,120.230286,23.0269718
聯楹實業股份有限公司,99711303,,臺南市歸仁區崙頂里凱旋路2段211巷36號,臺南市歸仁區崙頂里,林青豐,84989535,股份有限公司,,0961016,生產中,24基本金屬製造業,242鋁,http://www.lyal.com.tw,鋁擠型材,鋁錠,120.288376,22.9524574
國邦化學股份有限公司,99656342,07510000064435,臺南市新市區港墘里興業路8號,臺南市新市區港墘里,張方罕　,06375145,股份有限公司,0750111,0750916,生產中,19其他化學製品製造業,192塗料、染料及顏料,,粉體塗料,,120.301018,23.0801487
德芳玻璃有限公司安平廠,99673311,08510000409570,臺南市南區彰南里新愛路10號,臺南市南區彰南里,楊桐發,54567122,有限公司,0851018,0860225,生產中,23非金屬礦物製品製造業,231玻璃及其製品,,玻璃之裁剪雕刻,,120.182076,22.97532
金大利實業有限公司,99676796,,臺南市安南區新順里開安一街11號,臺南市安南區新順里,郭琇珍,80085661,有限公司,,0930302,生產中,25金屬製品製造業,254金屬加工處理,,金屬表面處理及熱處理,,120.224312,23.04687
順富興企業有限公司,99705926,,臺南市安南區安順里開安路63巷80號,臺南市安南區安順里,鄭智銘,28915808,有限公司,,0970422,生產中,22塑膠製品製造業、30汽車及其零件製造業、31其他運輸工具及其零件製造業,220塑膠製品、303汽車零件、312機車及其零件,,塑膠零件,,120.220467,23.04886
韋創企業社,67002176,,臺南市永康區尚頂里國聖街81巷7號,臺南市永康區尚頂里,穆國樑,40736787,獨資,,1071017,生產中,33其他製造業、25金屬製品製造業,339未分類其他製品、259其他金屬製品,,跑步機、機械零件,,120.222908,23.0321255
旭宏電鍍股份有限公司,99659067,06210000008620,臺南市永康區甲頂里中正南路242巷16弄4號,臺南市永康區甲頂里,毛皇斐　　　,84175165,股份有限公司,0620124,0621226,生產中,25金屬製品製造業,254金屬加工處理,,電鍍,,120.224266,23.0263119
鉅廣泰工程有限公司,67002355,,臺南市善化區小新里小新營318之17號,臺南市善化區小新里,蔡沅達,53629233,有限公司,,1080419,生產中,28電力設備及配備製造業,289其他電力設備及配備,,其他電力設備及配備,,120.320229,23.1255455
南億興業股份有限公司,99673551,07810000294263,臺南市南區彰南里新平路25號,臺南市南區彰南里,蘇建中,23254167,股份有限公司,0780913,0790309,生產中,15紙漿、紙及紙製品製造業、16印刷及資料儲存媒體複製業、33其他製造業,152瓦楞紙板及紙容器、159其他紙製品、160印刷及資料儲存媒體複製、331育樂用品,,紙製品（表冊，信箋組）圖書,,120.177551,22.9638
東興大理石工廠,99658365,07810011108852,臺南市下營區仁里里公園路171號,臺南市下營區仁里里,陳豐興　　,06567903,獨資,0780828,0790330,生產中,23非金屬礦物製品製造業,234石材製品,,花崗石製品,,120.252541,23.23274
秉翰工程有限公司新營廠,67001006,,臺南市鹽水區橋南里自立街8之1號,臺南市鹽水區橋南里,王茗閎,79980008,有限公司,,1030922,生產中,29機械設備製造業,293通用機械設備,,鋼構加工製作,,120.274315,23.30714
鐤盛企業有限公司,67001677,,臺南市仁德區一甲里太乙三街88號,臺南市仁德區一甲里,趙柏青,45892553,有限公司,,1051215,生產中,25金屬製品製造業,254金屬加工處理,,金屬表面處理,,120.251854,22.97875
勤普科技有限公司永康二廠,99684265,,臺南市永康區塩行里中正二街399號1樓,臺南市永康區塩行里,陳淑珠,70606065,有限公司,,0921020,生產中,33其他製造業,332醫療器材及用品,,導電玻璃（電腦護目鏡）,,120.239426,23.0328712
廣泰金屬工業股份有限公司官田廠,99657601,07510000280735,臺南市官田區二鎮里工業路20號,臺南市官田區二鎮里,周泰隆　　　,73649454,股份有限公司,0751103,0760525,生產中,24基本金屬製造業,249其他基本金屬,,電銲條助銲劑、半自動二氧化碳銲線、全自動,,120.322464,23.2077732
永景鋼鐵有限公司,99656242,08910011306909,臺南市永康區龍潭里中山北路264巷22號,臺南市永康區龍潭里,陳申霖,23673302,有限公司,0890816,0900510,生產中,25金屬製品製造業,259其他金屬製品,,鐵棧板、其他金屬製品,,120.26535,23.0282249
鼎浩資源科技股份有限公司,67002256,,臺南市新營區嘉芳里四維路26號,臺南市新營區嘉芳里,郭玟吟,42917335,股份有限公司,,1080102,生產中,22塑膠製品製造業,220塑膠製品,,其他回收物料,,120.277649,23.3078861
玴榮工業有限公司,99659036,06810000102554,臺南市柳營區士林里柳營路1段423巷11號,臺南市柳營區士林里,劉宗憲,72200007,有限公司,0680125,0691211,生產中,29機械設備製造業、25金屬製品製造業,292其他專用機械設備、293通用機械設備、253金屬容器、252金屬結構及建築組件,,化工機械、塑膠手套機環保機械設備、粉碎機、輸送機械,,120.312645,23.2675533
井基實業有限公司,99659938,07210011134405,臺南市仁德區仁義里仁義六街116號,臺南市仁德區仁義里,陳茂松　　　,73693795,有限公司,0721214,0721223,生產中,08食品製造業,087動物飼品,,電解礦、維他命（飼料添加物）,,120.256424,22.9587936
雅騰電機股份有限公司,67000752,,臺南市學甲區新榮里華宗路71號B棟,臺南市學甲區新榮里,黃景成,54077531,股份有限公司,,1021114,生產中,28電力設備及配備製造業,283電線及配線器材,http://www.atam.tw,電磁線圈,銅線、銅粒、塑膠、鐵片,120.183517,23.2212582
祈典企業股份有限公司,99659570,08210011202814,臺南市仁德區一甲里太乙五街23號,臺南市仁德區一甲里,郭輝鄉　　　,86545614,股份有限公司,0821230,0830413,生產中,25金屬製品製造業、29機械設備製造業,259其他金屬製品、293通用機械設備,,沖棒,,120.25145,22.97915
大亞鐵寶股份有限公司,99659320,08610011312537,臺南市仁德區仁義里中山路30號,臺南市仁德區仁義里,吳清源,16701611,股份有限公司,0861209,0881209,生產中,31其他運輸工具及其零件製造業,312機車及其零件、313自行車及其零件,,金屬製品表面處理,,120.269295,22.9701138
仕詠企業有限公司,99656410,,臺南市永康區塩洲里洲工街15之1號,臺南市永康區塩洲里,陳榮沂,97072893,有限公司,,0900628,生產中,29機械設備製造業,293通用機械設備,,五金零件等、潤滑油,,120.22567,23.032402
建誼生技股份有限公司,94A00412,,臺南市新市區豐華里環東路1段31巷30號4樓、30號5樓、28號5樓,臺南市新市區豐華里,王玉杯,24908572,股份有限公司,,1060308,生產中,20藥品及醫用化學製品製造業,200藥品及醫用化學製品,http://www.krisanbiotech.com/,主要為代客研發非小細胞肺癌，抗乳癌及其他抗癌原料藥,,120.282852,23.0976219
群創光電股份有限公司D廠,94F00306,,臺南市新市區環西路1段3號(不包括A室、B室),臺南市新市區,陳志明,12800225,股份有限公司,,1020115,生產中,26電子零組件製造業、33其他製造業,264光電材料及元件、332醫療器材及用品,http://www.innolux.com,光電材料及元件醫療器材及用品,,120.274796,23.0905724
暘裕實業有限公司,99673786,08910021000561,臺南市南區佛壇里興南街453．454號,臺南市南區佛壇里,杜泰川,22105181,有限公司,0891127,0891213,生產中,30汽車及其零件製造業、31其他運輸工具及其零件製造業,303汽車零件、312機車及其零件,,鋁合金器皿,,120.181587,22.91845
多米諾自動化科技股份有限公司,67002696,,臺南市永康區尚頂里正南一街57巷56號,臺南市永康區尚頂里,邱瑛杰,28157241,股份有限公司,,1090514,生產中,29機械設備製造業,292其他專用機械設備,,,,,
光洋應用材料科技股份有限公司環科廠,99709749,,臺南市柳營區大農里工一路16號,臺南市柳營區大農里,黃明山,43787872,股份有限公司,,0960323,生產中,19其他化學製品製造業、24基本金屬製造業,199未分類其他化學製品、249其他基本金屬,http://WWW.solart.ech.com.tw,銅錠、銀錠,,120.355209,23.2854481
上承企業有限公司,S6700109,,臺南市關廟區布袋里長文街168巷56號,臺南市關廟區布袋里,黃政中,54086308,有限公司,,1090701,生產中,25金屬製品製造業,259其他金屬製品,,,,,
大成長城企業股份有限公司柳營肉品廠,99656482,08010000081395,臺南市柳營區士林里長榮路六段501號柳營肉品廠區,臺南市柳營區士林里,韓家宇,73008303,股份有限公司,0800410,0820212,生產中,08食品製造業,081肉類加工,http://www.dachan.com,冷凍全雞（冷凍雞肉，冷藏雞肉）,,120.310654,23.2694244
泰頤科技股份有限公司工廠,67000896,,臺南市永康區三民里和平東路30巷3號,臺南市永康區三民里,曾泰源,28545974,股份有限公司,,1030529,生產中,25金屬製品製造業,254金屬加工處理,http://www.tytc.net,金屬加工處理,潤滑油、鐵材,120.270332,23.05609
強新工業股份有限公司佳里八廠B棟,67002773,,臺南市佳里區海澄里萊芉寮12之39號,臺南市佳里區海澄里,吳玉堂,84703335,股份有限公司,,1090828,生產中,25金屬製品製造業,254金屬加工處理,,,,,
強新工業股份有限公司佳里八廠A棟,67002772,,臺南市佳里區海澄里萊芉寮12之38號,臺南市佳里區海澄里,吳玉堂,84703335,股份有限公司,,1090820,生產中,25金屬製品製造業,254金屬加工處理,,,,,
益正橡膠有限公司仁德廠,99727629,,臺南市仁德區新田里勝利一街1號,臺南市仁德區新田里,洪敬堯,69905234,有限公司,,0990831,生產中,21橡膠製品製造業,210橡膠製品,,橡膠製品,,120.2584,22.9569321
世鴻食品股份有限公司,99709799,,臺南市新化區山腳里頂山腳55之6號,臺南市新化區,楊政財,80121239,股份有限公司,,0960605,生產中,08食品製造業,083蔬果加工,,水果餡料,,120.310646,23.0188828
川億壓鑄工業有限公司永康廠,67000227,,臺南市永康區塩行里中正北路318巷16弄46號,臺南市永康區塩行里,侯德宏,53033590,有限公司,,1001111,生產中,24基本金屬製造業,249其他基本金屬,,其他金屬製品,,120.247055,23.0397167
穎霖機械工業股份有限公司永康廠,99660164,08910000904721,臺南市永康區王行里環工路46號Ａ棟,臺南市永康區王行里,胡炳昆,22131688,股份有限公司,0890801,0890815,生產中,29機械設備製造業,293通用機械設備,,其他金屬成型機、彎管機,,120.268669,23.0441837
成功化學工業股份有限公司,99683979,07010000157181,臺南市仁德區新田里義林路136號,臺南市仁德區新田里,孫榮宗　　　,68279001,股份有限公司,0700910,0710424,生產中,22塑膠製品製造業,220塑膠製品,,聚苯乙烯,,120.263237,22.9646
良益企業股份有限公司,99656700,06110000088304,臺南市西港區西港里西港2之30、2之36號,臺南市西港區西港里,陳榮吉　　,72108178,股份有限公司,0610908,0620219,生產中,24基本金屬製造業、18化學原材料、肥料、氮化合物、塑橡膠原料及人造纖維製造業,241鋼鐵、181化學原材料,,磨光鋼棒,,120.208885,23.1267052
大總彈簧企業有限公司,99658392,,臺南市安定區中沙里沙崙55之1號,臺南市安定區中沙里,何新富,22120134,有限公司,,0910329,生產中,25金屬製品製造業,259其他金屬製品,,其他未列名金屬製品,,120.2099,23.0747414
首銳銲材工業股份有限公司,67000149,,臺南市仁德區成功里文華路2段358巷68號,臺南市仁德區成功里,周峙丞,27495568,股份有限公司,,1000727,生產中,24基本金屬製造業,249其他基本金屬,http://www.sorex.com.tw,銲條、包藥銲線,,120.232071,22.9410172
源佑企業股份有限公司,99673433,07610000129442,臺南市南區彰南里新平路18號,臺南市南區彰南里,王鳳娥,69554259,股份有限公司,0760501,0760610,生產中,22塑膠製品製造業、25金屬製品製造業,220塑膠製品、259其他金屬製品,,塑膠射出成品（衛浴用品）,,120.179756,22.96508
二三五金工廠,99683419,07210000048700,臺南市仁德區一甲里太乙一街68號,臺南市仁德區一甲里,張楊雅琳　　　,73661219,獨資,0720307,0720901,生產中,30汽車及其零件製造業、31其他運輸工具及其零件製造業,303汽車零件、312機車及其零件,,,,,
佑橋實業股份有限公司,99660496,08310011119670,臺南市仁德區新田里新田路225號,臺南市仁德區新田里,黃瑞德,22379576,股份有限公司,0830728,0840612,生產中,22塑膠製品製造業、33其他製造業,220塑膠製品、339未分類其他製品,,鈕扣,塑膠料,120.263481,22.9569378
駿昌工業社,99711230,,臺南市仁德區新田里義林南路988巷48號,臺南市仁德區新田里,蔡周明珠,78434468,獨資,,0960716,生產中,25金屬製品製造業,251金屬刀具、手工具及模具,,鋸子,,120.2629,22.9547672
宏旭塑膠染色有限公司,99659414,08110011055087,臺南市仁德區仁義里義林路157號1樓右棟,臺南市仁德區仁義里,王桂梅　,86611769,有限公司,0810508,0810601,生產中,22塑膠製品製造業,220塑膠製品,,色母、塑膠粒,,120.262962,22.9661179
驊麗科技股份有限公司苓仔寮廠,67002312,,臺南市將軍區苓仔寮里苓和1之1號,臺南市將軍區苓仔寮里,陳聰賓,22278633,股份有限公司,,1080321,生產中,29機械設備製造業,291金屬加工用機械設備,,金屬加工用機械設備,,120.167389,23.2203178
弘霖機械股份有限公司,99674475,07710021001041,臺南市安南區新順里安和路2段318巷125弄51號,臺南市安南區新順里,吳永進,23003182,股份有限公司,0770630,0781221,生產中,29機械設備製造業,292其他專用機械設備,,,,,
臺南蛋品股份有限公司關廟廠,99656225,,臺南市關廟區埤頭里關新路二段387號,臺南市關廟區埤頭里,顏瑞進,22182525,股份有限公司,,0900501,生產中,08食品製造業,089其他食品,,其他食品〔液蛋、其他食品,雞蛋,120.307976,23.0046844
福昇食品有限公司,67002341,,臺南市南區彰南里新和橫路13之1號,臺南市南區彰南里,陳秀嬌,24917002,有限公司,,1080410,生產中,08食品製造業,089其他食品,,其他食品,麵粉、食用油,120.179054,22.9656887
樺正實業股份有限公司柳營廠,67000552,,臺南市柳營區大農里工五路8號,臺南市柳營區大農里,郭振宗,97210018,股份有限公司,,1020109,生產中,22塑膠製品製造業,220塑膠製品,,保利龍板，保利龍型板，發泡級聚苯乙烯,,120.304718,23.267746
聯嘉實業股份有限公司一廠,67000551,,臺南市善化區溪美里溪尾101之5號,臺南市善化區溪美里,嚴群超,89662848,股份有限公司,,1020107,生產中,11紡織業,111紡紗,,人造天然纖維織品、印花布、棉布、絲織品,,120.2838,23.1535931
宏潤生物科技股份有限公司安平廠,67001881,,臺南市南區彰南里新平路32號1樓、新和二路1號1樓,臺南市南區彰南里,陳衫潤,53363629,股份有限公司,,1061006,生產中,19其他化學製品製造業,193清潔用品,,牙膏、漱口水,,120.177475,22.9647713
油展機器工業股份有限公司,99660814,08010011158640,臺南市永康區東橋里中正路269巷13號,臺南市永康區東橋里,陳春星　　　,22392162,股份有限公司,0801211,0810625,生產中,29機械設備製造業,293通用機械設備,,油路板,,120.246941,23.03102
大成長城企業股份有限公司全能廠,67002712,,臺南市柳營區大農里工七路1號,臺南市柳營區大農里,韓家宇,73008303,股份有限公司,,1090520,生產中,08食品製造業,087動物飼品,,,,,
金玉糧行,S6700277,,臺南市下營區茅港里茅港尾53之6、53之7號,臺南市下營區茅港里,王淑娟,37622424,獨資,,1091006,生產中,08食品製造業,086碾榖、磨粉及澱粉製品,,,,,
東曹石英科技股份有限公司南科廠,94A00016,,臺南科學園區臺南市新市區三舍里大順七路92號,臺南市新市區三舍里,"高橋 克文",16130541,股份有限公司,,0901031,生產中,26電子零組件製造業,269其他電子零組件,http://www.tqgt.com.tw/aboutus/,８吋半導體石英製品及其零組件１２吋半導體石英製品及其零組件,,120.287094,23.1060143
現發交通工業有限公司,99675490,,臺南市安南區布袋里工明南三路56號,臺南市安南區布袋里,吳銀山,69324692,有限公司,,0910524,生產中,30汽車及其零件製造業、31其他運輸工具及其零件製造業,303汽車零件、312機車及其零件,,機車及其零件、汽車及其零件,,120.208244,23.05794
盈信製本所,99673485,07610021000089,臺南市南區文華里德南街26號,臺南市南區文華里,詹足惠,06441031,獨資,0760122,0760502,生產中,16印刷及資料儲存媒體複製業,160印刷及資料儲存媒體複製,,各種製本（相簿）、日記簿,,120.188812,22.9873466
懋盛精密有限公司,67002237,,臺南市安南區新順里永安路15號,臺南市安南區新順里,高婉瑜,54574411,有限公司,,1071210,生產中,30汽車及其零件製造業,303汽車零件,,螺絲帽，螺帽,,120.219788,23.0457134
彩晴有限公司,67001975,,臺南市永康區塩洲里洲工街101號,臺南市永康區塩洲里,林聯璁,54565588,有限公司,,1070119,生產中,11紡織業,115紡織品,,窗簾及配件,,120.225,23.035305
灃輝實業有限公司,99711275,,臺南市新營區嘉芳里五福路15號,臺南市新營區嘉芳里,吳美華,86568186,有限公司,,0960910,生產中,22塑膠製品製造業、30汽車及其零件製造業,220塑膠製品、303汽車零件,,各種塑膠製品（汽車照燈、燈殼及其零件）,塑膠粒,120.28241,23.3053951
統潔國際開發有限公司,67002851,,臺南市柳營區人和里橋南228之15號A區,臺南市柳營區人和里,廖志雄,83188304,有限公司,,1091123,生產中,33其他製造業,332醫療器材及用品,,,,,
維祥不銹鋼企業股份有限公司,99674441,06310000173480,臺南市安南區溪心里海佃路3段48巷37號,臺南市安南區溪心里,吳師偉,69305034,股份有限公司,0631207,0631223,生產中,32家具製造業、25金屬製品製造業,322金屬家具、259其他金屬製品,,不銹鋼鍋,,120.183632,23.0487156
衡一生技有限公司,67000249,,臺南市永康區東橋里中正路269巷38號,臺南市永康區東橋里,簡春江,53602380,有限公司,,1001209,生產中,08食品製造業,089其他食品,,玉米粉、鳳梨粉,,120.246941,23.03133
久芳生物科技股份有限公司,S6700103,,臺南市東山區聖賢里頂窩68號,臺南市東山區聖賢里,廖明義,53265319,股份有限公司,,1090617,生產中,08食品製造業,089其他食品,,,,,
安瑩實業股份有限公司一廠,99706328,,臺南市永康區蔦松里正北三路137號,臺南市永康區蔦松里,黃艷秋,22919519,股份有限公司,,0950718,生產中,33其他製造業、22塑膠製品製造業,339未分類其他製品、220塑膠製品,,安全帽,塑膠粒,120.261543,23.0507126
大舜鈑金股份有限公司科工二廠,67002297,,臺南市安南區顯宮里工業二路150號A棟1樓左側,臺南市安南區顯宮里,白賜春,89799788,股份有限公司,,1080222,生產中,25金屬製品製造業,252金屬結構及建築組件,,金屬結構及建築組件,,120.144821,23.0462666
奇和企業股份有限公司,99661161,07410011113361,臺南市永康區尚頂里正南一街129巷5號,臺南市永康區尚頂里,吳戴秋香　　,22410324,股份有限公司,0740916,0750303,生產中,30汽車及其零件製造業、31其他運輸工具及其零件製造業,303汽車零件、312機車及其零件,,汽機車五金零件製造,,120.227745,23.024559
晶鈺食品股份有限公司二廠,99656740,07910000183006,臺南市佳里區頂廍里頂廍1之17號1樓、2樓後段、3樓,臺南市佳里區頂廍里,陳定宇,42710566,股份有限公司,0790904,0891214,生產中,08食品製造業,089其他食品,,罐頭、冷凍、脫水及醃漬食品,,120.154427,23.1739979
炬榮實業有限公司,67002012,,臺南市永康區蔦松里正北三路91巷10號,臺南市永康區蔦松里,陳美桂,64889880,有限公司,,1070315,生產中,19其他化學製品製造業,194化粧品,,清潔用品、化粧品,,120.2623,23.0490379
福而大企業有限公司,99676954,,臺南市安南區鹽田里科技一路7號,臺南市安南區,胡進福,73713552,有限公司,,0940518,生產中,28電力設備及配備製造業,284照明設備及配備,,照明設備、照明零件,,120.152359,23.0420914
馗鼎奈米科技股份有限公司,99657691,,臺南市永康區東橋里中正路279巷21弄59號,臺南市永康區東橋里,陳俊欽,12924133,股份有限公司,,0910129,生產中,25金屬製品製造業,251金屬刀具、手工具及模具,http://www.creating-nanotech.com/,電漿清潔機,,120.245842,23.0303135
鼎麗興實業有限公司,67000472,,臺南市永康區尚頂里中正南路311號,臺南市永康區尚頂里,鄭李靜花,54061806,有限公司,,1011022,生產中,11紡織業,112織布,,針織布,,120.221611,23.02712
佳美織造股份有限公司,99658471,06210000064383,臺南市官田區南廍里三結義46號,臺南市官田區南廍里,陳隆吉　　　,72008516,股份有限公司,0620531,0621201,生產中,,,,,,,
宗威鋼鐵股份有限公司,99659161,08510011301499,臺南市歸仁區大廟里大廟一街184號,臺南市歸仁區大廟里,蔡淑玲　　　,86189235,股份有限公司,0850302,0850311,生產中,25金屬製品製造業,254金屬加工處理,,鋼板、鋼捲、鍍鋅鋼板吊裁剪及鋼管,,120.274246,22.9930687
柏州企業股份有限公司永康廠,99660502,07810011167967,臺南市永康區甲頂里中正南路286巷9號,臺南市永康區甲頂里,方明玉　　　,22596898,股份有限公司,0781229,0790105,生產中,25金屬製品製造業,254金屬加工處理,,各種鐵材，鐵板，特殊鋼之加工（裁剪）,,120.226089,23.0297089
桔達企業社,67001383,,臺南市新市區永就里光華街5之120號,臺南市新市區永就里,陳和成,40874417,獨資,,1041221,生產中,09飲料製造業,092非酒精飲料,,檸檬汁,,120.296677,23.0729027
福培實業有限公司,99658557,08110011027120,臺南市西港區西港里文化路83巷2號,臺南市西港區西港里,伍玉蘭,89848113,有限公司,0810303,0810513,生產中,32家具製造業、11紡織業,322金屬家具、115紡織品,,彈簧床，床墊，床單，被單,,120.207611,23.1254787
鴻輝實業社,99659644,08810011302741,臺南市永康區塩洲里國聖街293巷1號,臺南市永康區塩洲里,林志祥,20368567,合夥,0880401,0880616,生產中,25金屬製品製造業,254金屬加工處理,,鐵製品加工,,120.229042,23.0374928
文元生技有限公司,67000528,,臺南市仁德區太子里太子四街25巷17號,臺南市仁德區太子里,吳明錚,24906785,有限公司,,1011220,生產中,08食品製造業,089其他食品,,食品添加物,,120.250565,22.9874382
華格電子股份有限公司,99660011,07710011031552,臺南市仁德區太子里長興一街85號,臺南市仁德區太子里,江坤田　　　,69598051,股份有限公司,0770328,0771123,生產中,27電腦、電子產品及光學製品製造業,273視聽電子產品,,無線麥克風,,120.262016,22.9940376
海紘精密股份有限公司,67002786,,臺南市永康區大橋里中山南路471巷7弄9號A、B區,臺南市永康區大橋里,張順朋,53505319,股份有限公司,,1090825,生產中,29機械設備製造業,292其他專用機械設備,,,,,
易展企業有限公司工廠,67000121,,臺南市永康區南灣里大灣東路99號1樓,臺南市永康區南灣里,劉德全,16227019,有限公司,,1000628,生產中,08食品製造業,089其他食品,,茶葉,,120.262421,22.9988117
成昌實業社,99674882,07610021001214,臺南市安南區州南里安和路4段537巷73弄22號,臺南市安南區州南里,林枝寳,69914352,獨資,0760702,0761103,生產中,25金屬製品製造業,259其他金屬製品、251金屬刀具、手工具及模具,,五金零件,,120.21698,23.06285
騰翔五金企業有限公司,99711758,,臺南市佳里區下營里頂1號之5,臺南市佳里區下營里,陳宥勳,24386074,有限公司,,0980630,生產中,25金屬製品製造業、25金屬製品製造業,259其他金屬製品,,衣架,,120.153519,23.17399
上豪便當廠,99660825,08210000082140,臺南市永康區西橋里中華西街63巷66號,臺南市永康區西橋里,郭怡君,78488203,合夥,0820825,0821004,生產中,08食品製造業,083蔬果加工、089其他食品,,餐盒食品,,120.225449,23.0133247
騰興鋼鐵股份有限公司,99683589,08310011012415,臺南市永康區尚頂里中正南路235巷3弄1之4號,臺南市永康區尚頂里,鄭義騰　　　,84619111,股份有限公司,0830125,0850202,生產中,25金屬製品製造業,254金屬加工處理,,圓鐵，角鐵，鋼管，鋼板，鐵板加工裁剪,,120.22,23.0260258
台灣嬰堡股份有限公司,99659198,07810000291953,臺南市關廟區埤頭里保東路218號A棟,臺南市關廟區埤頭里,林春菊,73713321,股份有限公司,0780729,0780808,生產中,33其他製造業、25金屬製品製造業,339未分類其他製品、251金屬刀具、手工具及模具,,嬰兒車及用品,,120.303581,22.9967556
奇蹟美容美髮事業有限公司,67001741,,臺南市將軍區保源里源頭56之5號,臺南市將軍區保源里,陳正霖,16738217,有限公司,,1060323,生產中,19其他化學製品製造業,194化粧品,,洗髮精、護髮霜,,120.166725,23.2142372
坤慶實業股份有限公司太子廠,99660298,06210000033488,臺南市仁德區土庫里中正路3段346號,臺南市仁德區土庫里,陳建佑　　,68333671,股份有限公司,0620326,0621219,生產中,22塑膠製品製造業,220塑膠製品,,ＰＰ捆包帶、ＰＰ包裝帶、塑膠綿,,120.256729,22.98085
泰安香粧品化工有限公司,99673529,08110000074047,臺南市北區大和里大興街40巷28號,臺南市北區大和里,李淑惠,86754196,有限公司,0810728,0811116,生產中,19其他化學製品製造業,194化粧品,,香水,,120.192871,23.0126514
豐彩科技材料股份有限公司,99705676,,臺南市安南區鹽田里工環路25號,臺南市安南區,葉寶鴻,69764163,股份有限公司,,0950223,生產中,33其他製造業,331育樂用品,http://www.pigmentweb.com,墨水,,120.159065,23.0345345
明龍興機械有限公司一廠,67001401,,臺南市安定區中沙里沙崙26之10號,臺南市安定區中沙里,蔡明宗,84613670,有限公司,,1050111,生產中,29機械設備製造業,292其他專用機械設備,,發泡機、製管機、地毯貼合機等裝配及零件,,120.208328,23.0720158
乙先股份有限公司,99684447,,臺南市永康區尚頂里正南一街92巷37弄2號,臺南市永康區尚頂里,呂世凱,23483197,股份有限公司,,0930609,生產中,29機械設備製造業,293通用機械設備,,通用機械設備,,120.230339,23.0263443
台灣山本電氣工業股份有限公司,99657975,06810000120860,臺南市麻豆區小埤里苓子林17之2號,臺南市麻豆區小埤里,橫田亮,73645653,股份有限公司,0680507,0680903,生產中,28電力設備及配備製造業、31其他運輸工具及其零件製造業,281發電、輸電及配電機械、319未分類其他運輸工具及其零件,http://www.tydk.com.tw,縫紉機零件、泛用小馬達,,120.233826,23.18461
滿庭芳實業有限公司工廠,S6700495,,臺南市學甲區豐和里美豐49之13號,臺南市學甲區豐和里,蘇淑珍,84225329,有限公司,,1090904,生產中,11紡織業、22塑膠製品製造業,115紡織品、220塑膠製品,,,,,
臺灣可果美股份有限公司新市廠,99684736,,臺南市新市區港墘里興業路12號,臺南市新市區港墘里,長田哲,71620635,有限公司,,0940606,生產中,,,,,,,
華瑋文具紙品有限公司,99659566,07510011084510,臺南市永康區尚頂里正南一街129巷46弄2號,臺南市永康區尚頂里,陳政隆　　,28371087,有限公司,0750715,0760805,生產中,15紙漿、紙及紙製品製造業,159其他紙製品,,紙製品（簿子）,,120.226387,23.02385
正統工業股份有限公司,67000969,,臺南市仁德區保安里開發二路18號,臺南市仁德區保安里,方全祿,69620618,股份有限公司,,1030813,生產中,25金屬製品製造業、21橡膠製品製造業、22塑膠製品製造業、28電力設備及配備製造業、29機械設備製造業,259其他金屬製品、210橡膠製品、220塑膠製品、289其他電力設備及配備、293通用機械設備,,橡膠製品，塑膠製品，其他金屬製品，其他電力設備，通用機械設備,,120.247032,22.92396
洪國工業股份有限公司官田廠,99711222,,臺南市官田區二鎮里工業路50號,臺南市官田區二鎮里,吳振宗,85945872,股份有限公司,,0960706,生產中,25金屬製品製造業,253金屬容器,http://www.hgcan.com,１８公斤（昇）方形沙拉油馬口鐵空桶、３公斤方形油脂馬口鐵空罐、塑膠桶,,120.32299,23.2173271
領航開發股份有限公司,67000159,,臺南市學甲區新達里大順路137號B棟,臺南市學甲區新達里,王瑋聰,53471486,有限公司,,1000819,生產中,11紡織業,115紡織品,,布匹、棉絲、紗線、拉鍊,,120.189369,23.242281
龍星顯示科技股份有限公司,67000970,,臺南市仁德區一甲里忠義一街50號,臺南市仁德區一甲里,宋光夫,54558067,股份有限公司,,1030813,生產中,26電子零組件製造業,269其他電子零組件,,其他電子零組件,,120.25808,22.978138
利澤機械企業社,67000344,,臺南市仁德區土庫里太乙路14號,臺南市仁德區土庫里,郭一田,21942040,獨資,,1010413,生產中,29機械設備製造業、30汽車及其零件製造業、31其他運輸工具及其零件製造業,293通用機械設備、303汽車零件、312機車及其零件、313自行車及其零件,,機車零件製造,,120.256508,22.9819927
立興鞋業有限公司西港廠,67001112,,臺南市西港區慶安里中山路443之3號B區,臺南市西港區慶安里,陳素珍,22980008,有限公司,,1040113,生產中,13皮革、毛皮及其製品製造業,130皮革、毛皮及其製品,,鞋,,120.200867,23.1278744
慶大工業股份有限公司,99658966,08910011301279,臺南市安定區中沙里中崙73號,臺南市安定區中沙里,李淵泉,69312773,股份有限公司,0890221,0890222,生產中,30汽車及其零件製造業、31其他運輸工具及其零件製造業,303汽車零件、312機車及其零件,,手把開關、機車零件,,120.209946,23.0797443
瑞乙科技有限公司,99683413,08810011305465,臺南市永康區崑山里崑大路155巷1號壹樓,臺南市永康區崑山里,陳一綺,16870664,有限公司,0880617,0880623,生產中,29機械設備製造業、26電子零組件製造業,292其他專用機械設備、269其他電子零組件,,倦帶成型機、捲帶測試機,,120.254868,22.9980316
宏康鋼管股份有限公司,99684492,,臺南市永康區王行里環工路65號,臺南市永康區王行里,康峻銘,80465748,股份有限公司,,0930722,生產中,,,,金屬表面處理及熱處理、其他金屬製品,,120.268578,23.04322
興鋼雷射板金股份有限公司,99684710,,臺南市山上區明和里北勢洲76之100號,臺南市山上區明和里,陳琦樺,27264692,股份有限公司,,0940506,生產中,25金屬製品製造業,259其他金屬製品,,其他金屬製品,,120.332779,23.108778
可樂福股份有限公司,67000932,,臺南市仁德區仁義里仁義六街97號1樓B區、2樓,臺南市仁德區仁義里,林盈霖,80620642,股份有限公司,,1030708,生產中,25金屬製品製造業,254金屬加工處理,,金屬加工處理,,120.256485,22.959631
東展興業股份有限公司,99657372,07810000180371,臺南市山上區明和里北勢洲98號,臺南市山上區明和里,吳澄清,22956176,股份有限公司,0780119,0881001,生產中,18化學原材料、肥料、氮化合物、塑橡膠原料及人造纖維製造業,181化學原材料,,ＰＴＡ（純對苯二甲酸）,,120.339012,23.1109161
雅士美企業有限公司,67002699,,臺南市安南區安順里開安四街34號,臺南市安南區安順里,周百成,89563951,有限公司,,1090508,生產中,22塑膠製品製造業、33其他製造業,220塑膠製品、339未分類其他製品,,,,,
志茂紡織有限公司,67002266,,臺南市永康區塩行里塩和街247巷7號,臺南市永康區塩行里,周志傑,42922007,有限公司,,1080110,生產中,11紡織業,112織布,,織布,織線,120.234215,23.0348759
三友生技醫藥股份有限公司製藥廠,99711428,,臺南市後壁區福安里下寮路207之3號,臺南市後壁區福安里,邱峻財,89884975,股份有限公司,,0970411,生產中,20藥品及醫用化學製品製造業、08食品製造業,200藥品及醫用化學製品、085乳品、089其他食品,,中藥藥品,,120.339752,23.3282547
復興加工所,S6700104,,臺南市歸仁區崙頂里凱旋路一段601巷355弄89號,臺南市歸仁區崙頂里,林群欽,72056220,獨資,,1090618,生產中,25金屬製品製造業,259其他金屬製品,,,,,
茂發企業社,99705985,,臺南市南區彰南里新和一路7號,臺南市南區彰南里,吳金雄,73853791,獨資,,0971117,生產中,16印刷及資料儲存媒體複製業,160印刷及資料儲存媒體複製,,製本（紙製品裝訂）,,120.180817,22.9655914
右晟實業股份有限公司,99674206,06710000209598,臺南市南區彰南里新和一路15號Ａ棟,臺南市南區彰南里,李錦美,69696172,股份有限公司,0670805,0701022,生產中,29機械設備製造業,293通用機械設備,,振動機械、油壓機械,,120.180733,22.9665127
龍鋒企業股份有限公司二廠,99709727,,臺南市永康區王行里環工路75號1樓、2樓、3樓、5樓及75之1號,臺南市永康區王行里,林玉柱,73653920,股份有限公司,,0960213,生產中,30汽車及其零件製造業,303汽車零件,,其他機械、汽車及其零件、機車及其零件、自行車及其零件,,120.267708,23.0449829
欣鑫塑膠有限公司,99683981,08010011100773,臺南市永康區蔦松里正北三路136號,臺南市永康區蔦松里,林敏煌　　　,86256281,有限公司,0800807,0800814,生產中,22塑膠製品製造業,220塑膠製品,,塑膠袋,,120.262283,23.0503273
建泰塑膠廠,99675006,08610021000206,臺南市安南區安順里開安四街29號,臺南市安南區安順里,鄭惠芬,81556751,獨資,0860520,0860909,生產中,22塑膠製品製造業、33其他製造業、31其他運輸工具及其零件製造業、30汽車及其零件製造業,220塑膠製品、331育樂用品、312機車及其零件、303汽車零件,,各式塑膠零件,,120.226593,23.0483456
康那香企業股份有限公司口寮廠,99711395,,臺南市將軍區將軍里三吉66之1號1、2、4樓,臺南市將軍區將軍里,戴榮吉,74231126,股份有限公司,,0970227,生產中,11紡織業、19其他化學製品製造業、33其他製造業,113不織布、194化粧品、332醫療器材及用品,,濕巾、水針不織布,,120.130119,23.2001648
至寶光電股份有限公司台南廠,67000330,,臺南市新化區全興里竹子腳170號A棟,臺南市新化區全興里,周青麟,22193115,股份有限公司,,1010316,生產中,30汽車及其零件製造業、31其他運輸工具及其零件製造業,303汽車零件、312機車及其零件,http://www.topower.com.tw/chinese/stock/every_mont,電腦週邊設備、汽車零組件,,120.292084,23.0259438
嘉瑭商貿有限公司東山廠,S6700374,,臺南市東山區東中里北馬27號,臺南市東山區東中里,蕭安成,54571218,有限公司,,1090811,生產中,08食品製造業,089其他食品,,,,,
森森林實業社,67000479,,臺南市東區忠孝里崇明一街12號1樓,臺南市東區忠孝里,楊桂林,36840078,獨資,,1011101,生產中,20藥品及醫用化學製品製造業,200藥品及醫用化學製品,,彈性繃帶,,120.215347,22.9813042
明德機械工廠,99683916,08010011168318,臺南市永康區尚頂里中正南路349巷2Ｏ號,臺南市永康區尚頂里,周福源,08478765,合夥,0801228,0810110,生產中,29機械設備製造業,291金屬加工用機械設備、293通用機械設備,,削皮機等,,120.223335,23.03062
驤騰電鍍有限公司,99659117,,臺南市永康區鹽洲里國聖街278號,臺南市永康區,洪有明,13034284,有限公司,,0910530,生產中,25金屬製品製造業,254金屬加工處理,,金屬電鍍,,120.227371,23.0350456
大慈紡織有限公司,99658799,08410011307744,臺南市學甲區新榮里華宗路12Ｏ之1號,臺南市學甲區新榮里,吳瑞山　　　,89497881,有限公司,0840807,0840821,生產中,11紡織業,111紡紗,,撚紗加工,,120.184006,23.2230663
順傑生物科技股份有限公司,99673024,08810000064107,臺南市南區彰南里新和路38號、40號,臺南市南區彰南里,林楊秀美,86197468,股份有限公司,0880521,0900103,生產中,08食品製造業、09飲料製造業,086碾榖、磨粉及澱粉製品、092非酒精飲料、089其他食品,,其他食品,,120.176506,22.9677467
加多食品有限公司,67001167,,臺南市南區彰南里新愛路35號,臺南市南區彰南里,黃清樹,54553725,有限公司,,1040304,生產中,08食品製造業,089其他食品,,鮮奶酪,,120.178177,22.9745865
詠固混凝土有限公司,67000043,,臺南市歸仁區看東里成功路ㄧ段70號,臺南市歸仁區看東里,朱順源,53070763,有限公司,,1000322,生產中,23非金屬礦物製品製造業,233水泥及其製品,,預拌混凝土,,120.305916,22.9628773
富鴻紡織有限公司,99658485,08410011310164,臺南市仁德區後壁里民安路1段310巷4號,臺南市仁德區後壁里,李晉賢　　　,84578152,有限公司,0840925,0841006,生產中,11紡織業,111紡紗,,紡織品（棉紗加工）,,120.247833,22.95544
穎佳企業股份有限公司,67001787,,臺南市仁德區保安里民生路12號,臺南市仁德區保安里,謝孟佳,16871299,股份有限公司,,1060531,生產中,25金屬製品製造業,259其他金屬製品,http://www.achb.com.tw/,高精密精組件,,120.248932,22.9233742
玄寶興業廠,67000061,,臺南市永康區塩洲里正南六街69號,臺南市永康區塩洲里,林姿吟,97838320,獨資,,1000414,生產中,31其他運輸工具及其零件製造業,312機車及其零件、313自行車及其零件、319未分類其他運輸工具及其零件,,自行車及其零件製造,,120.228569,23.0367813
佑昇水泥製品股份有限公司,99657873,08410000203486,臺南市白河區白河里中山路2之78號,臺南市白河區白河里,鄭炎興　,89860679,股份有限公司,0840330,0840715,生產中,23非金屬礦物製品製造業,233水泥及其製品,,預拌混凝土,,120.414261,23.348114
笙寶實業股份有限公司仁德廠,99659590,08510000411439,臺南市仁德區保安里開發一路12號,臺南市仁德區保安里,李仙生　　　,12119587,股份有限公司,0851206,0860127,生產中,21橡膠製品製造業、22塑膠製品製造業,220塑膠製品、210橡膠製品,,皮帶加工,,120.244759,22.92302
結進不銹鋼工業股份有限公司軋延廠,67000319,,臺南市永康區三民里和平東路139號,臺南市永康區三民里,鄭瑞昌,69683444,股份有限公司,,1010220,生產中,24基本金屬製造業,241鋼鐵,,不銹鋼板／捲,,120.265976,23.0555553
統一企業股份有限公司永康食品廠,99656729,99910099000349,臺南市永康區塩行里中正路301號A區,臺南市永康區塩行里,羅智先　　,73251209,股份有限公司,0590501,0590501,生產中,08食品製造業,089其他食品、084動植物油脂、086碾榖、磨粉及澱粉製品,,麵粉、沙拉油、速食麵,,120.244751,23.0341949
升志交通工業股份有限公司二廠,67002047,,臺南市永康區尚頂里中正南路349巷38號,臺南市永康區尚頂里,鄭村霖,69758351,股份有限公司,,1070514,生產中,31其他運輸工具及其零件製造業,312機車及其零件,,機車及其零件,,120.222771,23.0306664
允統塑膠工業股份有限公司新化廠,99711769,,臺南市新化區東榮里中興路458、460號,臺南市新化區東榮里,沈吉峯,73666143,股份有限公司,,0980713,生產中,22塑膠製品製造業,220塑膠製品,,塑膠地磚,,120.31955,23.03011
成昌實業社安定廠,S6700657,,臺南市安定區六嘉里六塊寮30之53號,臺南市安定區六嘉里,林枝寳,69914352,獨資,,1091104,生產中,30汽車及其零件製造業、31其他運輸工具及其零件製造業,303汽車零件、312機車及其零件、313自行車及其零件,,,,,
峵暐工業有限公司,67001705,,臺南市安南區海東里海佃路2段233號1樓,臺南市安南區海東里,劉國寶,64827317,有限公司,,1060113,生產中,29機械設備製造業,292其他專用機械設備、293通用機械設備,,零件加工,,120.188652,23.03585
和大興業有限公司,67001390,,臺南市永康區王行里王行路68巷6號,臺南市永康區王行里,李明信,24400890,有限公司,,1041230,生產中,25金屬製品製造業,259其他金屬製品,,廚房用鋁器、五金製品,,120.27504,23.032032
永澄塑膠廠,67002697,,臺南市永康區尚頂里中正二街169巷29號,臺南市永康區尚頂里,蔡清裕,81416703,合夥,,1090511,生產中,30汽車及其零件製造業,303汽車零件,,,,,
辰興有限公司,99660120,07710011025914,臺南市永康區南灣里大灣東路22巷5號,臺南市永康區南灣里,余順發　　　,23186823,有限公司,0770309,0781030,生產中,25金屬製品製造業,259其他金屬製品,,眼鏡鉸鍊,,120.2599,22.9978485
大佳便當廠和順廠,99706085,,臺南市安南區新順里永安路98號,臺南市安南區新順里,蔡政祐,47967241,合夥,,0990709,生產中,08食品製造業,089其他食品,,即食餐食,,120.222336,23.044096
瑞竹企業股份有限公司,99656560,08610011303822,臺南市永康區尚頂里正南一街57巷42號,臺南市永康區尚頂里,楊乃敏,22557044,股份有限公司,0860612,0870619,生產中,22塑膠製品製造業、29機械設備製造業、19其他化學製品製造業,220塑膠製品、293通用機械設備、199未分類其他化學製品,,,,,
強新工業股份有限公司佳里七廠,67002599,,臺南市佳里區海澄里萊芉寮12之37號,臺南市佳里區海澄里,吳玉堂,84703335,股份有限公司,,1081225,生產中,24基本金屬製造業,241鋼鐵,http://www.newbest.com.tw,鋼鐵,,120.177315,23.1826019
億豐系統有限公司,99684101,,臺南市仁德區仁義里義林五街16號1樓,臺南市仁德區仁義里,張家賓,80113688,有限公司,,0920416,生產中,25金屬製品製造業、29機械設備製造業,251金屬刀具、手工具及模具、259其他金屬製品、293通用機械設備,,自動控制、軟體設計,,120.263214,22.9688129
鑫興鋁業股份有限公司後營廠,67000393,,臺南市西港區後營里350號,臺南市西港區後營里,謝添寶,22594809,股份有限公司,,1010615,生產中,24基本金屬製造業,242鋁,,鋁擠型，鋁條，無縫管，鋁管,,120.227272,23.1448269
麻欣企業股份有限公司,99658279,06210000057095,臺南市麻豆區麻口里麻豆口2之1號,臺南市麻豆區麻口里,陳阿腦　　,72117508,股份有限公司,0620516,0620831,生產中,22塑膠製品製造業,220塑膠製品,,塑膠包裝帶,,120.220833,23.1769886
台南振昌電機有限公司,99684628,,臺南市永康區塩行里中正南路490巷49號,臺南市永康區塩行里,陳隆盛,86575898,有限公司,,0940103,生產中,29機械設備製造業,291金屬加工用機械設備、293通用機械設備,,工業用爐,,120.233864,23.03361
及樺實業股份有限公司,99684699,,臺南市歸仁區大廟里保大路3段88號Ａ棟,臺南市歸仁區大廟里,潘冬春,12605551,股份有限公司,,0940420,生產中,32家具製造業,321非金屬家具,,迴轉辦公椅及桌子,,120.280243,22.9966545
宏康鋼管股份有限公司新市廠,S6700122,,臺南市新市區永就里永就68之8號,臺南市新市區永就里,康峻銘,80465748,股份有限公司,,1090820,生產中,24基本金屬製造業,241鋼鐵,,,,,
忠典鐵工廠有限公司,67001418,,臺南市仁德區保安里開發六路6號,臺南市仁德區保安里,陳國豐,73734992,有限公司,,1050203,生產中,30汽車及其零件製造業,302車體,,鐵製油桶,,120.246658,22.9186268
健丞企業社,99660692,08810011305409,臺南市永康區尚頂里中正南路349巷67號,臺南市永康區尚頂里,王振生,70909976,獨資,0880611,0880621,生產中,29機械設備製造業,293通用機械設備,,五金另件加工,,120.222595,23.0283031
麻新電子股份有限公司二廠,67000924,,臺南市麻豆區大山里大山腳10號之33壹樓,臺南市麻豆區大山里,郭清竹,97271669,股份有限公司,,1030627,生產中,28電力設備及配備製造業,289其他電力設備及配備,,充電器,,120.2216,23.19309
和正豐科技股份有限公司建業廠,67000665,,臺南市官田區二鎮里建業路34號,臺南市官田區二鎮里,陳昆漢,69501752,股份有限公司,,1020704,生產中,28電力設備及配備製造業,284照明設備及配備,http://www.buenoeco.com/index.php?temp=intro&lang=cht,鐵氟龍ＰＴＦＥ加工密封件、高溫石墨、渦型墊圈,其他塑膠製品,120.32666,23.2099648
川陵實業有限公司,99656662,08410011303253,臺南市下營區仁里里工業街2巷29號,臺南市下營區仁里里,王德山　,84980730,有限公司,0840408,0851108,生產中,22塑膠製品製造業、13皮革、毛皮及其製品製造業、30汽車及其零件製造業、31其他運輸工具及其零件製造業,130皮革、毛皮及其製品、220塑膠製品、303汽車零件、313自行車及其零件、312機車及其零件,,健身器坐墊，家具靠手坐墊及汽機車，自行車,,120.252007,23.2315388
仁通工程有限公司,99711952,,臺南市鹽水區橋南里八德路66號B棟之12,臺南市鹽水區橋南里,楊國仁,84363716,有限公司,,0990527,生產中,25金屬製品製造業,252金屬結構及建築組件,,鋼構、橋樑電焊,,120.274574,23.3054581
松原精密科技工業股份有限公司永康廠,67002674,,臺南市永康區王行里興工路16號,臺南市永康區王行里,黃文賢,53066114,股份有限公司,,1090428,生產中,22塑膠製品製造業、29機械設備製造業、30汽車及其零件製造業、31其他運輸工具及其零件製造業,220塑膠製品、292其他專用機械設備、303汽車零件、312機車及其零件、319未分類其他運輸工具及其零件,,,,,
勝群塑膠股份有限公司一廠,99711527,,臺南市永康區塩行里正南三路231、233號,臺南市永康區塩行里,郭康阿淑,28391491,股份有限公司,,0970804,生產中,,,,塑膠制品,,120.233749,23.03201
勝群塑膠股份有限公司,99709627,,臺南市永康區塩行里正南三路186號,臺南市永康區塩行里,郭康阿淑,28391491,股份有限公司,,0951002,生產中,22塑膠製品製造業,220塑膠製品,,塑膠外殼,,120.235382,23.0309086
界印精密股份有限公司,99661092,07710011057935,臺南市永康區塩洲里洲工街19號,臺南市永康區塩洲里,蔡定宏,22067686,股份有限公司,0770524,0780510,生產中,25金屬製品製造業,251金屬刀具、手工具及模具,,腳架、跳線、模具線割、模具,,120.225533,23.0325832
豪堤紙袋股份有限公司三廠,67000708,,臺南市永康區塩行里鹽信街289號,臺南市永康區塩行里,林炎輝,89338006,股份有限公司,,1020912,生產中,15紙漿、紙及紙製品製造業,152瓦楞紙板及紙容器,,紙容器,,120.230927,23.0301342
鑫元發股份有份公司,99684225,,臺南市永康區塩洲里正南二街37號,臺南市永康區塩洲里,黃芳姿,80443077,股份有限公司,,0920825,生產中,25金屬製品製造業,251金屬刀具、手工具及模具,,,,,
將誠鋼構工業股份有限公司,99660382,08010011071044,臺南市永康區蔦松里蔦松三街118號,臺南市永康區蔦松里,陳宏茂　　,84664641,股份有限公司,0800607,0801007,生產中,25金屬製品製造業,252金屬結構及建築組件,,金屬建築結構及組件,,120.2578,23.0479279
冠南食品企業有限公司,67000348,,臺南市新化區唪口里唪口93之1號,臺南市新化區唪口里,吳秀琴,22210037,有限公司,,1010423,生產中,08食品製造業,089其他食品,,蜜餞、糖果,,120.297012,23.0420761
金鐵福企業社,99676599,,臺南市南區佛壇里興南街339號1樓,臺南市南區佛壇里,林進發,56947491,獨資,,0911112,生產中,25金屬製品製造業,254金屬加工處理,,金屬表面處理及熱處理,,120.17868,22.9189854
長利實業社第ㄧ廠,11000011,,臺南市永康區尚頂里中正二街188號,臺南市永康區尚頂里,黃貴香,73709902,獨資,,0991101,生產中,25金屬製品製造業,254金屬加工處理,,,,,
承駿金屬股份有限公司,99676758,,臺南市北區文成里文賢路572巷34號,臺南市北區文成里,康昆茂,23947892,股份有限公司,,0921015,生產中,25金屬製品製造業,251金屬刀具、手工具及模具,,塑膠模具,,120.194885,23.00812
威技電器股份有限公司永康廠,67001471,,臺南市永康區王行里永科環路358號,臺南市永康區王行里,邱明總,89888281,股份有限公司,,1050418,生產中,28電力設備及配備製造業,285家用電器,http://newwidetech.com,除濕機、冷氣機、電暖器,,120.274963,23.0407352
茂林電器股份有限公司仁德廠,S6700224,,臺南市仁德區三甲里三甲子6-11號,臺南市仁德區三甲里,王林如蘭,73630618,股份有限公司,,1090713,生產中,28電力設備及配備製造業,281發電、輸電及配電機械,,,,,
達鋐實業有限公司,67000036,,臺南市永康區塩洲里正南二街46巷18號,臺南市永康區塩洲里,李大誠,53275512,有限公司,,1000314,生產中,25金屬製品製造業,251金屬刀具、手工具及模具,,塑膠成型模具製造,,120.227875,23.0347767
冠宏實業股份有限公司,99658156,06710000041422,臺南市新營區中營里東山路183號,臺南市新營區中營里,黃忠生　　　,72157846,股份有限公司,0670316,0680112,生產中,25金屬製品製造業,253金屬容器、259其他金屬製品,,其他未列名金屬製品,,120.333664,23.309742
詠嘉食品有限公司,99684691,,臺南市新市區港墘里興業路12之1號,臺南市新市區港墘里,陳宏翔,27590654,有限公司,,0940404,生產中,08食品製造業,089其他食品,,糖果及烘培食品,,120.299713,23.0806484
佳佳生活事業有限公司,99659543,08610011303227,臺南市新市區港墘里中山路2之2號,臺南市新市區港墘里,方薇舒,25173979,有限公司,0860409,0860416,生產中,22塑膠製品製造業,220塑膠製品,http://jiajia-life.com,塑膠袋,塑膠粒,120.304771,23.0865269
冠達工業,67000233,,臺南市安南區安順里開安四街26號,臺南市安南區安順里,吳順得,06497294,獨資,,1001117,生產中,22塑膠製品製造業,220塑膠製品,,壓克力粒,,120.226341,23.0481014
鉅遠有限公司關廟廠,S6700256,,臺南市關廟區下湖里關新路1段135巷68號,臺南市關廟區下湖里,董如芩,54556309,有限公司,,1090720,生產中,25金屬製品製造業,252金屬結構及建築組件,,,,,
稱彩實業股份有限公司,99656300,06110000091535,臺南市仁德區仁義里正義路281號,臺南市仁德區仁義里,杜曜宇　　,68930805,股份有限公司,0610912,0620301,生產中,22塑膠製品製造業,220塑膠製品,,塑膠線,,120.259674,22.9711761
仲發食品股份有限公司,99673377,07010000074437,臺南市南區彰南里新和一路1號,臺南市南區彰南里,李金展,69687820,股份有限公司,0700327,0701001,生產中,08食品製造業,082水產加工,,漬水產品、烘乾水產品,,120.180664,22.9651089
技穎興業有限公司,67000861,,臺南市安定區中沙里沙崙31號A棟,臺南市安定區中沙里,蘇能玉,97051356,有限公司,,1030408,生產中,22塑膠製品製造業,220塑膠製品,,塑膠製品,塑料粒,120.211746,23.0733051
永琦實業社,67000122,,臺南市永康區尚頂里正南一街181巷28號,臺南市永康區尚頂里,陳忠民,08476324,獨資,,1000629,生產中,33其他製造業、22塑膠製品製造業,339未分類其他製品、220塑膠製品,,塑膠飾品,,120.225609,23.0259933
銀品科技股份有限公司柳科廠,67002598,,臺南市柳營區大農里環園西路一段3號,臺南市柳營區大農里,林瑞成,23714009,股份有限公司,,1081226,生產中,24基本金屬製造業,249其他基本金屬,,其他基本金屬,,120.35437,23.268631
富良工業股份有限公司,99660600,07610011095308,臺南市永康區尚頂里中正二街105巷33號,臺南市永康區尚頂里,凃冠良　,23086367,股份有限公司,0760817,0780327,生產中,24基本金屬製造業、30汽車及其零件製造業、31其他運輸工具及其零件製造業,241鋼鐵、303汽車零件、312機車及其零件,,五金零件,,120.228592,23.0283
東騏實業有限公司,99711523,,臺南市仁德區保安里文賢路1段508之12號,臺南市仁德區保安里,陳淑貞,29105854,有限公司,,0970729,生產中,25金屬製品製造業,253金屬容器,,餐具,,120.2303,22.9326611
漢泰科技股份有限公司,67000662,,臺南市關廟區深坑里南雄路一段126號A棟,臺南市關廟區深坑里,周峙丞,84244120,股份有限公司,,1020702,生產中,29機械設備製造業,291金屬加工用機械設備、292其他專用機械設備,http://han-tai.com.tw,金屬機械加工、金屬噴銲加工,,120.337631,22.9341221
慶高能機械有限公司食品粉末加工廠,67001123,,臺南市新營區新東里開元路199號1、2樓,臺南市新營區新東里,鄭瑞德,16036829,有限公司,,1040127,生產中,08食品製造業,089其他食品,,食品粉末,,120.33136,23.3163757
辰鴻工程行新營廠,67000392,,臺南市鹽水區橋南里八德路66號B棟之11,臺南市鹽水區橋南里,蔡銘洲,10832545,獨資,,1010613,生產中,25金屬製品製造業,252金屬結構及建築組件,,鋼結構加工,,120.274574,23.3054581
佳宏工業有限公司仁德廠,S6700056,,臺南市仁德區一甲里11鄰義林路316號,臺南市仁德區一甲里,陳茂興,54572976,有限公司,,1090622,生產中,32家具製造業,322金屬家具,,,,,
振法機械廠股份有限公司,99658215,08410011302601,臺南市新市區大營里大營340號,臺南市新市區大營里,蔡琇金,22814705,股份有限公司,0840227,0850506,生產中,22塑膠製品製造業、29機械設備製造業,220塑膠製品、292其他專用機械設備、293通用機械設備,http://www.twinscrew.net/tw/index.html,單雙螺桿押出成型機塑膠射出成型機,,120.307747,23.0920773
冠祥科技有限公司,99709687,,臺南市永康區塩行里塩和街252巷11號,臺南市永康區塩行里,陳姿吟,27905090,有限公司,,0951215,生產中,25金屬製品製造業,254金屬加工處理,,金屬表面處理及熱處理,,120.236328,23.0346
亞獵士科技股份有限公司,99659107,08110011047451,臺南市山上區明和里北勢洲21之2號,臺南市山上區明和里,陳威瑾,86524717,股份有限公司,0810420,0820608,生產中,31其他運輸工具及其零件製造業,313自行車及其零件,,各種鋁製車圈,,120.339417,23.11499
亞獵士科技股份有限公司二廠,99684649,,臺南市山上區明和里北勢洲21之10號Ａ棟,臺南市山上區明和里,陳威瑾,86524717,股份有限公司,,0940128,生產中,30汽車及其零件製造業、31其他運輸工具及其零件製造業,303汽車零件、312機車及其零件、313自行車及其零件,,汽車及其零件、機車及其零件、自行車及其零件,,120.339417,23.11499
億翔企業有限公司台南廠,S6700127,,臺南市安南區溪心里智安四街98巷65號,臺南市安南區溪心里,周鳳豈,22951215,有限公司,,1090623,生產中,22塑膠製品製造業,220塑膠製品,,,,,
龍謚企業有限公司,99659509,07310011103507,臺南市安定區中沙里中崙125號,臺南市安定區中沙里,莊和成,74725937,有限公司,0730922,0731004,生產中,28電力設備及配備製造業、32家具製造業、33其他製造業,285家用電器、322金屬家具、339未分類其他製品,,嬰兒車，嬰兒床，嬰兒椅，電熱器,,120.210144,23.0782642
慶康科技股份有限公司南科廠,94A00192,,臺南科學園區臺南市新市區豐華里環東路一段320號,臺南市新市區豐華里,杜家慶,84149168,股份有限公司,,0920303,生產中,26電子零組件製造業,261半導體,http://www.duratek.com.tw,拘束環、準直管,,120.285126,23.1022148
永洋科技股份有限公司南科廠,94A00234,,臺南科學園區臺南市新市區豐華里環東路一段31巷30號1樓,臺南市新市區豐華里,郭金河,16404725,股份有限公司,,0961214,生產中,27電腦、電子產品及光學製品製造業,272通訊傳播設備,http://www.amit.com.tw,路由器,,120.282852,23.0976219
超淨精密科技股份有限公司一廠,94A00183,,臺南科學園區臺南市新市區豐華里環東路一段27號,臺南市新市區豐華里,蔡有哲,13111465,股份有限公司,,0951017,生產中,25金屬製品製造業、29機械設備製造業,254金屬加工處理、291金屬加工用機械設備,http://www.ucpt.com.tw/index.shtml,幫浦等機器設備維修、防著板製造、表面再生處理,,120.28553,23.094202
洲祥實業廠,99674645,07710021000520,臺南市北區文元里文賢路1122巷59弄20號,臺南市北區文元里,邱許瓊月,69537843,獨資,0770426,0780717,生產中,28電力設備及配備製造業、25金屬製品製造業,251金屬刀具、手工具及模具、283電線及配線器材,,塑膠模具、塑膠製品,塑膠、鋼材、五金,120.195274,23.0173683
台灣陽光菓菓有限公司,67001825,,臺南市歸仁區歸仁里中山路1段2巷7號9號,臺南市歸仁區歸仁里,陳茜,54559241,有限公司,,1060717,生產中,08食品製造業,083蔬果加工,,蔬果處理及其製品（果乾）,,120.313934,22.96344
鑫河貿易有限公司,99709720,,臺南市麻豆區大山里大山腳1之59號,臺南市麻豆區大山里,李袖芳,23683049,有限公司,,0960205,生產中,25金屬製品製造業,254金屬加工處理,http://www.shinhero.com.tw,汽缸加工,,120.221443,23.1905937
怡德企業社,99676617,,臺南市南區彰南里新義路16號之2,臺南市南區彰南里,陳貴蘭,56937016,獨資,,0920102,生產中,22塑膠製品製造業,220塑膠製品,,塑膠製品、壓克力、ＡＢＳ、ＰＣ、ＰＳ,,120.179207,22.9710636
森鉅科技材料股份有限公司仁德廠,99711393,,臺南市仁德區仁義里義林路256巷168號,臺南市仁德區仁義里,鄭憲得,89845559,股份有限公司,,0970226,生產中,22塑膠製品製造業、25金屬製品製造業,220塑膠製品、254金屬加工處理,,塑膠板、ＰＥ、ＰＥ塑膠粒,,120.269836,22.9730682
嘉方實業股份有限公司,99658710,07510000126690,臺南市新市區港墘里國際路4、6、8號,臺南市新市區港墘里,陳勳毅　,22071014,股份有限公司,0750520,0760319,生產中,11紡織業、12成衣及服飾品製造業,115紡織品、121成衣,http://www.libertytex.com,繡花肩章貼物，繡花花邊布，成衣,,120.300346,23.0787811
元鎧股份有限公司台南廠,99709663,,臺南市永康區正強里自強路188巷46弄24號,臺南市永康區正強里,楊煥良,22593533,股份有限公司,,0951122,生產中,15紙漿、紙及紙製品製造業,152瓦楞紙板及紙容器,,瓦楞紙箱,,120.250023,23.0255051
誠硯食品有限公司,67000715,,臺南市仁德區仁德里文華路3段428巷142號,臺南市仁德區仁德里,蔡鴻禕,54078454,有限公司,,1020925,生產中,08食品製造業,089其他食品,,披薩皮,,120.245941,22.9712086
崴峰深孔有限公司,67001269,,臺南市永康區蔦松里正北三路132號,臺南市永康區蔦松里,游朝正,54560866,有限公司,,1040730,生產中,25金屬製品製造業,251金屬刀具、手工具及模具,,模具製造,,120.262329,23.0502682
宗正實業股份有限公司,99658681,07310000240525,臺南市新市區港墘里中山路2號,臺南市新市區港墘里,楊繼宗　　　,69852813,股份有限公司,0730816,0740726,生產中,22塑膠製品製造業、28電力設備及配備製造業,220塑膠製品,,塑膠袋,塑膠粒,120.304771,23.0865269
品美內衣有限公司,67001278,,臺南市關廟區五甲里五甲路33號,臺南市關廟區五甲里,施善,70591886,有限公司,,1040804,生產中,12成衣及服飾品製造業,121成衣,,針織女內衣褲製造,,120.329247,22.9511967
浩贏企業股份有限公司,99683350,08910011309232,臺南市仁德區太子里太子五街22巷8號,臺南市仁德區太子里,尤林春美,86110619,股份有限公司,0890928,0891023,生產中,19其他化學製品製造業,192塗料、染料及顏料,,尼龍料,,120.249023,22.9886665
漢璟工業股份有限公司,67000838,,臺南市永康區王行里永科南路8號,臺南市永康區王行里,陳素麗,53217128,股份有限公司,,1030306,生產中,25金屬製品製造業,259其他金屬製品,,其他金屬製品,,120.2844,23.034874
宇光企業股份有限公司,67001887,,臺南市南區彰南里新忠路5號,臺南市南區彰南里,游曜聰,13054627,股份有限公司,,1060929,生產中,30汽車及其零件製造業,303汽車零件,,汽車零件,車燈,120.183121,22.97907
華成塑膠工業股份有限公司官田分廠,99656770,06710000300150,臺南市官田區二鎮里工業路6號之1,臺南市官田區二鎮里,戴榮輝　　　,68700108,股份有限公司,0671120,0710123,生產中,22塑膠製品製造業,220塑膠製品,http://hwasheng.myweb.hinet.net/,膠管射出品,塑膠粉、塑膠粒,120.321365,23.2041569
東俊吉股份有限公司,99673610,07110000118564,臺南市中西區安海里民生路2段357號,臺南市中西區安海里,賴俊傑,69735689,股份有限公司,0710623,0710906,生產中,12成衣及服飾品製造業,121成衣,,西裝、西裝褲,,120.189812,22.9972515
企泰實業股份有限公司,99683502,07510011141719,臺南市仁德區一甲里太乙一街30號,臺南市仁德區一甲里,江黃梅蘭,81178131,股份有限公司,0751203,0760115,生產中,33其他製造業、19其他化學製品製造業,331育樂用品、199未分類其他化學製品,,塑膠玩具（玩具球，洋娃娃，積木）,,120.254921,22.9810658
允呈實業有限公司關廟廠,67002516,,臺南市關廟區關廟里中山路二段265-7號A區,臺南市關廟區關廟里,黃王美芬,22312999,有限公司,,1081001,生產中,25金屬製品製造業、26電子零組件製造業,259其他金屬製品、269其他電子零組件,,其他金屬製品，其他電子零組件,,120.313873,22.9618473
介大金屬工業股份有限公司,99660750,07610011026403,臺南市永康區塩行里塩和街229號,臺南市永康區塩行里,王銘雯,69400776,股份有限公司,0760316,0771118,生產中,25金屬製品製造業,254金屬加工處理,,不銹鋼板裁剪加工,,120.236061,23.0336437
盛虹工程有限公司官田廠,67000721,,臺南市官田區二鎮里工業南路2號C棟,臺南市官田區二鎮里,張鄭淑惠,13168749,有限公司,,1020925,生產中,25金屬製品製造業,252金屬結構及建築組件,,鋼構工程製作,,120.3304,23.20468
同益機電工程有限公司官田廠,67000727,,臺南市官田區二鎮里工業南路2號I棟,臺南市官田區二鎮里,張曾金花,16128003,有限公司,,1020925,生產中,25金屬製品製造業,252金屬結構及建築組件,,Ｈ型鋼焊接、鑽孔,,120.3304,23.20468
香閣食品有限公司,67001916,10667000600328,臺南市學甲區新達里頂山寮61之6號,臺南市學甲區新達里,陳佳瑞,64919625,有限公司,1060929,1061102,生產中,08食品製造業,083蔬果加工,,其他澱粉及其製品,,120.201187,23.2455769
新光泉汽水廠,99674103,,臺南市中西區進學里永福路一段82號,臺南市中西區進學里,鄭昭義,68773087,獨資,,0590501,生產中,09飲料製造業,092非酒精飲料,,汽水,,120.200287,22.9873486
鴻新機械有限公司遠東廠,67001843,,臺南市新市區永就里光華街5之45號,臺南市新市區永就里,曾順裕,24225964,有限公司,,1060807,生產中,25金屬製品製造業,254金屬加工處理,,防震基座,,120.297234,23.0719967
川岳生物科技股份有限公司,99684933,,臺南市仁德區保安里文賢路1段510號,臺南市仁德區保安里,賴勇誠,27609181,股份有限公司,,0941229,生產中,08食品製造業,089其他食品、085乳品,,其他食品、養生燕麥、奶粉,,120.23037,22.9330082
統奕包裝股份有限公司二廠,67000986,,臺南市麻豆區麻口里麻豆口1之37號,臺南市麻豆區麻口里,羅智先,89209994,股份有限公司,,1030829,生產中,15紙漿、紙及紙製品製造業,152瓦楞紙板及紙容器,http://ppi.com.tw,紙容器,,120.220833,23.1769886
威而特鋼模股份有限公司,99684859,,臺南市永康區塩行里正南三路291號Ａ、Ｂ棟,臺南市永康區塩行里,陳慧蓉,16384761,股份有限公司,,0940930,生產中,25金屬製品製造業,251金屬刀具、手工具及模具,,其他機械,,120.231354,23.034441
大中城塑膠開發有限公司,99660270,08510011312334,臺南市永康區塩行里正南三路192號,臺南市永康區塩行里,邱圳鴻,84985025,有限公司,0851127,0851204,生產中,25金屬製品製造業、22塑膠製品製造業,251金屬刀具、手工具及模具、220塑膠製品,,各種塑膠成型模製品,,120.235191,23.0312347
經昌汽車電子工業股份有限公司科工廠,67000618,,臺南市安南區顯宮里工業三路78號1、2、3樓,臺南市安南區顯宮里,萬天豹,69814136,股份有限公司,,1020429,生產中,30汽車及其零件製造業、27電腦、電子產品及光學製品製造業,303汽車零件、272通訊傳播設備,,門窗感應器，發射器，遙控器，中控鎖,,120.145561,23.0411129
海健企業股份有限公司,99659583,07610011054852,臺南市仁德區土庫里太乙路26號2樓,臺南市仁德區土庫里,徐玄義　　　,69370978,股份有限公司,0760518,0770709,生產中,33其他製造業,331育樂用品、339未分類其他製品,,自動鉛筆，原子筆，一般文具製品，一般手工,,120.254814,22.9818268
聯昌印刷所,99683378,07610011048464,臺南市永康區尚頂里正南一街57巷15號,臺南市永康區尚頂里,彭建將　　　,08431538,獨資,0760509,0770209,生產中,16印刷及資料儲存媒體複製業,160印刷及資料儲存媒體複製,,塑膠袋印刷,,120.231339,23.02502
創贏企業股份有限公司二廠,67000672,,臺南市仁德區保安里開發二路25號,臺南市仁德區保安里,張李淑禎,73664927,股份有限公司,,1020729,生產中,22塑膠製品製造業,220塑膠製品,,塑膠日用品（臉盆、水桶、椅子、垃圾桶）,,120.247559,22.92436
好帝一食品有限公司,99657037,07010000145625,臺南市新市區大營里豐榮160號,臺南市新市區大營里,劉貞秀,69672278,有限公司,0700715,0711231,生產中,08食品製造業,083蔬果加工、089其他食品,,蔬果罐頭，大型金屬罐，沙茶醬,扁魚、蝦米、蔥乾、蒜頭、黃豆油、辣椒粉,120.30674,23.0869541
弘泰釣具有限公司,67000475,,臺南市南區彰南里新義路20號B棟,臺南市南區彰南里,陳森泰,27389882,有限公司,,1011022,生產中,33其他製造業,331育樂用品,,ＰＥ原紗線、釣具半成品,,120.178352,22.971159
冠宏肉品,67001231,,臺南市麻豆區安正里廍地1之2號,臺南市麻豆區安正里,陳冠宇,13211627,獨資,,1040602,生產中,08食品製造業,081肉類加工,,豬肉產品,,120.234245,23.17064
亞易達有限公司新市廠,67002801,,臺南市新市區大營里豐榮188之28號,臺南市新市區大營里,陳茂晋,80616387,有限公司,,1090903,生產中,31其他運輸工具及其零件製造業,312機車及其零件,,,,,
台灣穗高科技股份有限公司理貨出貨中心,94D00095,,臺南市新市區大業一路2號,臺南市新市區,江國治,80347834,股份有限公司,,1070531,生產中,25金屬製品製造業,259其他金屬製品,http://www.hodakatec.com,高純度鋁鈧合金、高純度鋁合金,,120.288071,23.0905018
陽辰企業股份有限公司,99657180,,臺南市永康區塩行里塩信街616號,臺南市永康區塩行里,何淑欽,84348981,股份有限公司,,0901210,生產中,25金屬製品製造業,254金屬加工處理,,鋼鐵、其他金屬,,120.234795,23.0339851
華美光學科技股份有限公司三廠,67001605,,臺南市新市區豐華里堤塘港路1號甲區,臺南市新市區豐華里,陳志銘,69314511,股份有限公司,,1051017,生產中,33其他製造業,332醫療器材及用品,http://www.hwameei.com.tw,太陽眼鏡,,120.263145,23.0901642
峻邦實業股份有限公司,67002495,,臺南市歸仁區南保里中山九街7巷12號,臺南市歸仁區南保里,吳平雄,22412511,股份有限公司,,1080828,生產中,25金屬製品製造業,259其他金屬製品,,其他金屬製品,,120.283211,22.96694
迎盛股份有限公司,67001241,,臺南市永康區王行里永科環路75號,臺南市永康區王行里,曾麗芳,16229683,股份有限公司,,1040629,生產中,25金屬製品製造業,253金屬容器、259其他金屬製品,,機械板金、擋片、遮光罩、配電盤,網板、鉸鏈、鋁板、鋁柄取手,120.282562,23.0365086
匯通行企業有限公司工廠,99674968,07410021001390,臺南市北區興北里公園路624巷57號,臺南市北區興北里,范國基,69923508,有限公司,0740801,0740808,生產中,11紡織業、12成衣及服飾品製造業、13皮革、毛皮及其製品製造業,121成衣、130皮革、毛皮及其製品、115紡織品,,成衣，帆布袋，皮鞋加工,,120.211716,23.0073586
東瑩交通工業有限公司,99683146,06010000014571,臺南市永康區勝利里勝利街90巷2號,臺南市永康區勝利里,陳桃　　,73683380,有限公司,0600301,0600805,生產中,30汽車及其零件製造業,303汽車零件,,汽車用汽缸床墊片、引擎零件,,120.2332,23.00275
天泰銲材工業股份有限公司第二廠,99657881,08010000073977,臺南市仁德區保安里開發四路18號,臺南市仁德區保安里,許嘉洲,72060478,股份有限公司,0800619,0810201,生產中,19其他化學製品製造業,199未分類其他化學製品,,銲條裁剪、助焊劑,,120.25016,22.9238224
佑泰糧食加工廠,67000759,,臺南市白河區秀祐里三民路668之3號,臺南市白河區秀祐里,趙偉泰,37575463,獨資,,1021203,生產中,08食品製造業,086碾榖、磨粉及澱粉製品,,白米,,120.405846,23.35487
翔鹿股份有限公司,67000937,,臺南市善化區光文里建業路56號,臺南市善化區光文里,張書全,54556407,股份有限公司,,1030709,生產中,18化學原材料、肥料、氮化合物、塑橡膠原料及人造纖維製造業,183肥料及氮化合物,,肥料,,120.305626,23.1380062
東山橡膠廠安定廠,S6700444,,臺南市安定區新吉里新吉19之6號,臺南市安定區新吉里,曾西東,73666684,獨資,,1090825,生產中,21橡膠製品製造業,210橡膠製品,,,,,
中興精密工業股份有限公司,99658088,07310000121744,臺南市仁德區保安里永德路23號A區,臺南市仁德區保安里,林桂源　　　,73665123,股份有限公司,0730516,0740903,生產中,27電腦、電子產品及光學製品製造業,275量測、導航、控制設備及鐘錶,,汽缸、錶殼,,120.244392,22.9214268
禾光實業股份有限公司,99656318,06310000003345,臺南市永康區塩洲里中正南路559號,臺南市永康區塩洲里,林盈州　　　,72076871,股份有限公司,0630119,0640507,生產中,25金屬製品製造業、29機械設備製造業,254金屬加工處理、259其他金屬製品、293通用機械設備,,螺套、螺桿,鋼材、鐵材,120.229919,23.036068
怡州實業股份有限公司,67002836,,臺南市鹽水區三和里田寮25之1號,臺南市鹽水區三和里,王大松,24685609,股份有限公司,,1091103,生產中,08食品製造業,086碾榖、磨粉及澱粉製品,,,,,
有春實業股份有限公司,99673879,08710021000116,臺南市安南區新順里永安路108號,臺南市安南區新順里,林傅秀碧,69521407,股份有限公司,0870313,0870424,生產中,28電力設備及配備製造業、32家具製造業、25金屬製品製造業、30汽車及其零件製造業、31其他運輸工具及其零件製造業,285家用電器、322金屬家具、259其他金屬製品、303汽車零件、319未分類其他運輸工具及其零件,,落水頭、地板蓋,,120.222855,23.0438442
崇渼精密有限公司,67002679,,臺南市安南區佃東里安新一路169號,臺南市安南區佃東里,黃信夫,45892940,有限公司,,1090424,生產中,29機械設備製造業,291金屬加工用機械設備,,,,,
久綺有限公司,S6700113,,臺南市歸仁區媽廟里和順路一段202號,臺南市歸仁區媽廟里,蔡宗庭,27468133,有限公司,,1090701,生產中,33其他製造業,332醫療器材及用品,,,,,
台灣內富電子股份有限公司,67000782,,臺南市官田區二鎮里工業南路30號,臺南市官田區二鎮里,沈燕惠,97186495,股份有限公司,,1030108,生產中,28電力設備及配備製造業、26電子零組件製造業,283電線及配線器材、269其他電子零組件,,電線及配線器材,連接器,120.322563,23.2010345
東榮機械工廠股份有限公司台南廠,S6700145,,臺南市安南區東和里長和路一段1巷100號,臺南市安南區東和里,黃葉麗珠,73124817,股份有限公司,,1090702,生產中,30汽車及其零件製造業、31其他運輸工具及其零件製造業,303汽車零件、312機車及其零件、319未分類其他運輸工具及其零件,,,,,
王閃製罐廠股份有限公司,99683406,06810000108563,臺南市永康區龍潭里龍中街30巷12號,臺南市永康區龍潭里,楊淑貞　　　,73675059,股份有限公司,0680228,0681019,生產中,25金屬製品製造業,253金屬容器,,鐵罐,,120.26384,23.0299587
大友植毛有限公司,99659982,07710011020908,臺南市仁德區一甲里太乙路41號,臺南市仁德區一甲里,陳俊廷,22509331,有限公司,0770301,0790404,生產中,11紡織業,114染整,,紙面、布面、皮面之植毛加工、植毛絨,,120.254128,22.981966
金佳暉模具有限公司,99660713,08810011308361,臺南市永康區塩行里塩和街172號,臺南市永康區塩行里,葉心惠,16930760,有限公司,0880813,0880825,生產中,29機械設備製造業,293通用機械設備,,模具,,120.23819,23.03144
龍鋒企業股份有限公司永康廠,99660337,08710011301347,臺南市永康區新樹里中山北路764巷27號,臺南市永康區新樹里,林玉柱　　　,73653920,股份有限公司,0870213,0871113,生產中,30汽車及其零件製造業、31其他運輸工具及其零件製造業,303汽車零件、312機車及其零件、313自行車及其零件,,汽機車零件,,120.281013,23.0304451
惠光股份有限公司台南廠,99656353,08710011306621,臺南市麻豆區小埤里苓子林21號,臺南市麻豆區小埤里,陳冠華　　　,69546202,股份有限公司,0870707,0881105,生產中,22塑膠製品製造業,220塑膠製品,http://www.huikwang.com:801/,地工膜,,120.233032,23.1798744
志洋精密科技有限公司官田廠,67002380,,臺南市官田區二鎮里工業路37號,臺南市官田區二鎮里,邱秋萍,54570463,有限公司,,1080513,生產中,24基本金屬製造業、25金屬製品製造業,242鋁、254金屬加工處理,,鋁，金屬加工處理,鋁材、鋼材,120.323448,23.2143269
嘉達精密工業有限公司,67002074,,臺南市仁德區太子里大利路72號,臺南市仁德區太子里,蕭政彥,24912581,有限公司,,1070604,生產中,30汽車及其零件製造業,303汽車零件,,氣密治具、震動摩擦治具、超音波設備,鋼、鈦、塑膠、鋁,120.254471,22.98851
志弦企業有限公司,99660147,08410000654808,臺南市永康區南灣里南興路48巷10之1號,臺南市永康區南灣里,王龍寶　　　,22513855,有限公司,0841120,0841125,生產中,26電子零組件製造業,263印刷電路板,,電路板,,120.264328,22.99776
茂霖食品股份有限公司,99705695,,臺南市安南區鹽田里科技五路157號,臺南市安南區,郭明潔,80138365,股份有限公司,,0950412,生產中,08食品製造業、09飲料製造業,089其他食品、092非酒精飲料,http://www.maulin.com.tw/maulin/index.php,果露,,120.136551,23.03255
金美多實業有限公司安定廠,11000012,,臺南市安定區中沙里沙崙55之2號,臺南市安定區中沙里,黃美華,89374902,有限公司,,0991102,生產中,25金屬製品製造業,259其他金屬製品,,螺絲,,120.2099,23.0747414
敦豪工業有限公司,99657331,07610011057238,臺南市永康區尚頂里正南一街57巷80號,臺南市永康區尚頂里,蔡黃瓊花　　,84873871,有限公司,0760608,0770520,生產中,25金屬製品製造業、28電力設備及配備製造業,259其他金屬製品、285家用電器,,沖床零件、模具（金屬零件）,,120.232536,23.025486
冠捷油品企業有限公司佳里廠,S6700625,,臺南市佳里區鎮山里鎮山94之7號,臺南市佳里區鎮山里,陳清義,23934279,有限公司,,1091020,生產中,17石油及煤製品製造業,170石油及煤製品,,,,,
彤勁有限公司,67000949,,臺南市永康區塩行里中正二街336巷59號,臺南市永康區塩行里,曾金秀,96877324,有限公司,,1030728,生產中,29機械設備製造業,293通用機械設備,,通用機械設備,,120.237122,23.0266151
高鼎特殊印刷有限公司,67000318,,臺南市安南區安順里安和路三段190巷28號,臺南市安南區安順里,劉東益,25053989,有限公司,,1010220,生產中,16印刷及資料儲存媒體複製業,160印刷及資料儲存媒體複製,,印刷機、裝訂機製造,,120.22,23.0478058
旺栢鋼模有限公司,99684311,,臺南市永康區尚頂里塩信街146巷31號,臺南市永康區尚頂里,吳清泉,80557628,有限公司,,0921215,生產中,25金屬製品製造業,251金屬刀具、手工具及模具,,模具、模具加工,,120.230995,23.0291042
珙榮石灰工廠股份有限公司仙草廠,99657943,,臺南市白河區仙草里46之1號,臺南市白河區仙草里,陳欽安　　　,71362101,股份有限公司,,0590501,生產中,23非金屬礦物製品製造業,239其他非金屬礦物製品,,石灰、碳酸石灰,,120.474281,23.34149
三皇生物科技股份有限公司善化總廠,99657148,06110000063124,臺南市善化區坐駕里成功路427號,臺南市善化區坐駕里,王亭坤,12693371,股份有限公司,0610704,0640716,生產中,09飲料製造業、08食品製造業,092非酒精飲料、085乳品,http://www.sunnano.com.tw,飲料,,120.307442,23.1286621
視廣實業社,S6700327,,臺南市仁德區一甲里忠義路138號,臺南市仁德區一甲里,蔡榮文,17838559,獨資,,1090803,生產中,33其他製造業,332醫療器材及用品,,,,,
伊滋迷生化科技開發有限公司佳里廠,99711420,,臺南市佳里區海澄里萊芊寮1之87號,臺南市佳里區海澄里,陳國文,27422025,有限公司,,0970407,生產中,19其他化學製品製造業,194化粧品、199未分類其他化學製品,,液劑、乳劑、清潔劑,化工原料,120.174576,23.1796265
格林實業廠永康廠,67000208,,臺南市永康區北灣里信義二街43號1樓,臺南市永康區北灣里,施秀莉,06456771,合夥,,1001013,生產中,28電力設備及配備製造業,285家用電器,,果汁機,,120.269539,23.0115242
原軒科技實業股份有限公司,S6700531,,臺南市歸仁區七甲里南丁路625巷85號,臺南市歸仁區七甲里,陳剛明,16879187,股份有限公司,,1090915,生產中,23非金屬礦物製品製造業,239其他非金屬礦物製品,,,,,
台灣糖業股份有限公司研究所生技廠,67000360,,臺南市東區東智里生產路200號,臺南市東區東智里,黃怡仁,03794905,股份有限公司,,1010514,生產中,19其他化學製品製造業,199未分類其他化學製品,,重組蛋白,,120.223976,22.9646168
茶霖國際茶業有限公司仁德廠,67000910,,臺南市仁德區土庫里1鄰太乙路82號,臺南市仁德區土庫里,林雅婷,24267231,有限公司,,1030616,生產中,08食品製造業,089其他食品,,其他食品,,120.249825,22.98337
梁鑫實業股份有限公司,99674410,06810000127674,臺南市安南區頂安里長溪路1段455號,臺南市安南區頂安里,蘇錦柱,69661602,股份有限公司,0680609,0680919,生產中,25金屬製品製造業、30汽車及其零件製造業、31其他運輸工具及其零件製造業,259其他金屬製品、303汽車零件、312機車及其零件,,汽車零件,,120.204689,23.0404968
天一藥廠股份有限公司,99656693,07210000169002,臺南市官田區二鎮里工業路31號,臺南市官田區二鎮里,陳俊凱,69811927,股份有限公司,0720913,0760107,生產中,20藥品及醫用化學製品製造業、08食品製造業,200藥品及醫用化學製品、089其他食品,http://www.tian-i.com.tw/,單味、複方藥、本草類食品製造,,120.323509,23.2128429
正旭塑膠廠有限公司,99673509,06710000209587,臺南市南區彰南里新和橫路6號、6之1號,臺南市南區彰南里,林宏一,69623050,有限公司,0670805,0700213,生產中,22塑膠製品製造業,220塑膠製品,,塑膠接頭,,120.179985,22.966198
谷商金屬工業股份有限公司,99673428,06710000201509,臺南市南區彰南里新樂路61號,臺南市南區彰南里,吳文堯,69543704,股份有限公司,0670626,0700123,生產中,25金屬製品製造業,254金屬加工處理,,冷軋鋼捲、矽鋼板裁剪買賣代工、鋼板裁剪、不銹鋼板裁剪、烤漆鐵板,鋼板、冷軋鋼捲、矽鋼片買賣．代工,120.17469,22.96889
美藍雷股份有限公司柳營肉品廠,67002157,,臺南市柳營區士林里長榮路六段513號,臺南市柳營區士林里,莊坤炎,23670889,股份有限公司,,1070921,生產中,08食品製造業,081肉類加工,http://www.twincn.com,傳統烤雞,,120.310959,23.26943
規富機械股份有限公司,99674659,06210000099783,臺南市北區文成里文賢路520巷50號,臺南市北區文成里,林志隆,22964443,股份有限公司,0620806,0630703,生產中,29機械設備製造業,293通用機械設備,,其他未列名機械,,120.195114,23.0069752
大億金茂股份有限公司沙崙廠,99684779,,臺南市安定區中沙里沙崙4之12號,臺南市安定區中沙里,吳俊億,16359284,股份有限公司,,0940721,生產中,25金屬製品製造業、30汽車及其零件製造業,254金屬加工處理、303汽車零件,http://www.kenmos.com.tw,中空成型製品、貨斗護欄、側踏板、汽車外飾件,,120.209068,23.07562
鴻奇實業股份有限公司,99659235,06710000033068,臺南市歸仁區南保里中山九街16號,臺南市歸仁區南保里,沈松茂　　　,72072354,股份有限公司,0670306,0680709,生產中,30汽車及其零件製造業、31其他運輸工具及其零件製造業,303汽車零件、312機車及其零件,,剎車來令、剎車蹄片、離合器片,,120.282364,22.9669914
鼎顓實業有限公司,67000455,,臺南市山上區明和里北勢洲22之5號B棟,臺南市山上區明和里,康鳴翔,27669687,有限公司,,1010924,生產中,32家具製造業,321非金屬家具、322金屬家具,,葡萄酒，辦公傢俱,,120.340569,23.11414
勁銳精機有限公司,67001369,,臺南市新市區永就里光華街5之81號,臺南市新市區永就里,林麗雯,24398613,有限公司,,1041204,生產中,29機械設備製造業,292其他專用機械設備,,桶槽鋼鐵等製造及加工,,120.298447,23.07164
永泰度量衡有限公司,99658882,07110000073531,臺南市永康區塩行里中正南路404巷4號,臺南市永康區塩行里,鄭雅惠　　,72092915,有限公司,0710406,0711113,生產中,27電腦、電子產品及光學製品製造業,275量測、導航、控制設備及鐘錶,,其他科學量測器,,120.230011,23.0341549
維陽股份有限公司,99676888,,臺南市安南區新順里開安路32巷20號,臺南市安南區新順里,蔡進銘,80004921,股份有限公司,,0931122,生產中,33其他製造業,339未分類其他製品,,不織布、空調過濾網,,120.224327,23.0450974
宗德玻璃有限公司,67000738,,臺南市南區彰南里新義路24號,臺南市南區彰南里,蘇興宗,89731015,有限公司,,1021021,生產中,23非金屬礦物製品製造業,231玻璃及其製品,,玻璃及其製品,,120.176857,22.9706059
安瑩實業股份有限公司二廠,67000541,,臺南市永康區三民里和平東路198號,臺南市永康區三民里,黃艷秋,22919519,股份有限公司,,1011228,生產中,22塑膠製品製造業,220塑膠製品,,安全帽,ＡＢＳ塑膠原料,120.260208,23.0555477
致榮電子有限公司安平廠,99705792,,臺南市南區彰南里新樂路30之1號,臺南市南區彰南里,尤泓勝,69583825,有限公司,,0960214,生產中,25金屬製品製造業、26電子零組件製造業,259其他金屬製品、269其他電子零組件,,電子器材、音響零件,,120.177986,22.974226
祥金實業有限公司,99684366,,臺南市仁德區新田里勝利路269號A棟,臺南市仁德區新田里,李彥鋒,22964247,有限公司,,0930225,生產中,22塑膠製品製造業、25金屬製品製造業,220塑膠製品、259其他金屬製品,,塑膠製品,,120.268082,22.95433
和興食品工廠,99658480,08010000081319,臺南市學甲區中洲里中洲346之1號,臺南市學甲區中洲里,周伍玲,74189400,獨資,0800403,0800430,生產中,08食品製造業,089其他食品,,雜項水產加工食品（魚丸）,,120.156654,23.2459373
同欣衡器有限公司,67000630,,臺南市永康區尚頂里中正二街165號1樓,臺南市永康區尚頂里,董欣奇,22944806,有限公司,,1020523,生產中,27電腦、電子產品及光學製品製造業,275量測、導航、控制設備及鐘錶,,自動秤、彈簧秤,,120.232811,23.0292721
新明璨實業有限公司,99675094,08610021000233,臺南市安南區安順里開安三街25號,臺南市安南區安順里,黃元達,97488251,有限公司,0860531,0860610,生產中,25金屬製品製造業,254金屬加工處理,,金屬製品電鍍,,120.225044,23.0483284
泓信企業社,67002810,,臺南市安南區佃東里安新五路89號,臺南市安南區佃東里,陳位宗,10842776,獨資,,1090907,生產中,25金屬製品製造業,251金屬刀具、手工具及模具,,,,,
洋銘生技廠,99657239,08410000208412,臺南市永康區塩洲里洲工街162號,臺南市永康區塩洲里,尤双全　　,93836906,合夥,0840725,0840920,生產中,08食品製造業,089其他食品,,香菇粉，靈芝粉，花粉之加工,,120.226723,23.0376415
瀚捷機械股份有限公司永康廠,67000863,,臺南市永康區塩行里中正三街459號,臺南市永康區塩行里,陳中和,28771197,股份有限公司,,1030410,生產中,29機械設備製造業,291金屬加工用機械設備,,金屬加工用機械設備（彎管機、機械零件）,,120.249092,23.0365925
景琦企業股份有限公司,99658189,07310000252167,臺南市麻豆區大山里大山脚1之65號,臺南市麻豆區大山里,陳太河　,74728343,股份有限公司,0731023,0740326,生產中,27電腦、電子產品及光學製品製造業、25金屬製品製造業,259其他金屬製品、275量測、導航、控制設備及鐘錶,,水錶,,120.22036,23.1911678
有馳股份有限公司善化廠,99683059,08810011305350,臺南市善化區小新里小新營519之2號,臺南市善化區小新里,李宛庭,70418649,股份有限公司,0880607,0890118,生產中,24基本金屬製造業,241鋼鐵,,扁鐵、格柵板、鋼管、Ｈ型鋼,,120.317467,23.11091
見成機電有限公司後壁廠,99658265,08310011197973,臺南市後壁區嘉苳里下茄苳123號,臺南市後壁區嘉苳里,黃阿菊,86455599,有限公司,0831212,0831215,生產中,29機械設備製造業,293通用機械設備,,天車,,120.35952,23.3512478
慶家食品行,S6700347,,臺南市安平區建平里中華西路2段357號,臺南市安平區建平里,黃季清,36674649,獨資,,1090806,生產中,08食品製造業,089其他食品、083蔬果加工,,,,,
晨翔精密有限公司,99684341,,臺南市永康區尚頂里尚頂路98號,臺南市永康區尚頂里,黃瑞祥,28750019,股份有限公司,,0930107,生產中,25金屬製品製造業,251金屬刀具、手工具及模具,,其他機械、模具、模仁,,120.229874,23.0284233
利威紙業社,67001255,10467000600187,臺南市學甲區新榮里華宗路118之1號,臺南市學甲區新榮里,黃智雯,36839733,獨資,1040705,1040713,生產中,15紙漿、紙及紙製品製造業,152瓦楞紙板及紙容器,,其他紙容器,,120.184486,23.22301
國際軔襯有限公司,99684372,,臺南市永康區三民里和平東路21巷7號,臺南市永康區三民里,黃金德,73634706,有限公司,,0930302,生產中,30汽車及其零件製造業、31其他運輸工具及其零件製造業,303汽車零件、312機車及其零件,,汽車及其零件、機車及其零件,,120.270058,23.054594
洺海生技股份有限公司永康廠,67001750,,臺南市永康區王行里興工路10-1號,臺南市永康區王行里,朱光裕,27627364,股份有限公司,,1060407,生產中,08食品製造業,086碾榖、磨粉及澱粉製品、089其他食品,,黃金蕎麥茶、烏龍茶茶葉、綠茶茶葉、紅茶茶葉,,120.272385,23.04668
立得光電科技股份有限公司,67001776,,臺南市永康區新樹里中山北路756號,臺南市永康區新樹里,蘇士豪,53483976,股份有限公司,,1060516,生產中,27電腦、電子產品及光學製品製造業,271電腦及其週邊設備,,壓克力裁切完成,,120.280479,23.0315037
圓普光電股份有限公司,99676952,,臺南市安南區鹽田里科技五路59號,臺南市安南區,吳寬裕,80045084,股份有限公司,,0940504,生產中,25金屬製品製造業,254金屬加工處理,,真空鍍膜、金屬表面處理及熱處理,,120.139633,23.0422287
勤友光電股份有限公司山上廠,67001382,,臺南市山上區明和里北勢洲106號,臺南市山上區明和里,王位三,54284320,股份有限公司,,1041218,生產中,29機械設備製造業,291金屬加工用機械設備,,真空濺鍍設備,,120.341377,23.11313
百承光學股份有限公司,99684659,,臺南市永康區塩行里塩平街232巷11、13號,臺南市永康區塩行里,黃宜涵,86257893,股份有限公司,,0940218,生產中,33其他製造業,332醫療器材及用品,,光學儀器、眼鏡製造、鏡片,,120.239044,23.0338974
立德鑫股份有限公司,99658672,08410011303923,臺南市學甲區新達里頂山寮1之38號,臺南市學甲區新達里,魏如筠,64812074,股份有限公司,0840529,0850703,生產中,23非金屬礦物製品製造業,233水泥及其製品、239其他非金屬礦物製品,,廢棄物清運處理,,120.194183,23.2391853
名祈塑膠企業有限公司,99657885,07710011049344,臺南市白河區內角里內角118號,臺南市白河區內角里,魏生連　　　,97525447,有限公司,0770505,0780114,生產中,22塑膠製品製造業,220塑膠製品,,收縮膜、塑膠線,,120.432648,23.40605
百晶有限公司,67000491,,臺南市佳里區建南里成功路202巷2弄24號,臺南市佳里區建南里,陳力維,54060095,有限公司,,1011109,生產中,19其他化學製品製造業,193清潔用品,,洗衣粉，洗劑,,120.172752,23.1514511
善誠股份有限公司,99658554,08410011302786,臺南市六甲區菁埔里菁埔3之1號A棟,臺南市六甲區菁埔里,林仁德,16608018,股份有限公司,0840304,0840711,生產中,12成衣及服飾品製造業,121成衣、123服飾品,,紡織品加工,,120.307343,23.2383881
美舒容生物科技企業股份有限公司第一廠,99683964,,臺南市佳里區海澄里萊芊寮1之85號,臺南市佳里區海澄里,許建智,97330766,股份有限公司,,0920227,生產中,19其他化學製品製造業,194化粧品,http://www.mesuro.com.tw,化粧品,,120.174576,23.1796265
鎮威精密有限公司,99684507,,臺南市永康區塩洲里中正南路453巷22號,臺南市永康區塩洲里,郭雅惠,80699485,有限公司,,0930812,生產中,25金屬製品製造業,259其他金屬製品,,其他金屬製品,鐵,120.22699,23.0335484
羅一國際股份有限公司,67002644,,臺南市永康區南灣里永大路1段138號,臺南市永康區南灣里,楊順天,86956947,股份有限公司,,1090319,生產中,33其他製造業,332醫療器材及用品,,,,,
侑蓁企業有限公司,99711289,,臺南市永康區塩行里中正南路490巷59號,臺南市永康區塩行里,林書展,28733933,有限公司,,0961001,生產中,25金屬製品製造業,251金屬刀具、手工具及模具、259其他金屬製品,,登山杖、槍架,,120.235336,23.0328865
寬仕工業股份有限公司總廠,S6700188,,臺南市關廟區花園里中正路376巷5、7、12號,臺南市關廟區花園里,林昭圍,97238228,股份有限公司,,1090707,生產中,25金屬製品製造業,259其他金屬製品,,,,,
立洋塑膠有限公司山上廠,99711304,,臺南市山上區明和里北勢洲97之1號,臺南市山上區明和里,陳耀明,84616493,有限公司,,0961017,生產中,22塑膠製品製造業,220塑膠製品,,塑膠板,,120.337585,23.1080036
鉅鼎科技機械設備有限公司,67001294,,臺南市永康區尚頂里中正南路349巷104號,臺南市永康區尚頂里,顏展閎,53364556,有限公司,,1040831,生產中,29機械設備製造業、31其他運輸工具及其零件製造業,293通用機械設備、319未分類其他運輸工具及其零件,,機械零件、金屬零件,,120.231529,23.02689
國鵬工業股份有限公司,99711868,,臺南市歸仁區崙頂里凱旋路2段211巷37號,臺南市歸仁區崙頂里,廖偉勲,97271149,股份有限公司,,0981215,生產中,25金屬製品製造業,259其他金屬製品,http://copa.com.tw,螺帽,,120.288872,22.9520454
